{"status":true,"message":"","result":[{"server_id":9,"name":"Uncletopia | Atlanta | 1 | All Maps","name_short":"atl-1","host":"atl-1.us.uncletopia.com","port":27015,"enabled":true,"region":"us-east","cc":"us","latitude":33.753746,"longitude":-84.38633,"reserved":0,"last_update":"0001-01-01T00:00:00Z","name_a2s":"Uncletopia | Atlanta | 1 | All Maps","protocol":17,"map":"pl_barnblitz","folder":"tf","game":"Team Fortress","app_id":440,"player_count":24,"max_players":24,"Bots":0,"server_type":"Dedicated","server_os":"Linux","password":true,"vac":true,"version":"7961495","steam_id":85568392924469982,"keywords":["nocrits","nodmgspread","payload","uncletopia"],"game_id":440,"stv_port":27016,"stv_name":"Uncletopia | Atlanta | 1 | All Maps | STV","players":[{"user_id":343,"name":"/\\","steam_id":76561198045522596,"connected_time":5194000000000,"state":"active","ping":67},{"user_id":363,"name":"Mr_Frosty","steam_id":76561199380389079,"connected_time":2712000000000,"state":"active","ping":79},{"user_id":347,"name":"Levi","steam_id":76561198089832776,"connected_time":4223000000000,"state":"active","ping":73},{"user_id":356,"name":"Hipster_Giraffe","steam_id":76561198069701092,"connected_time":3554000000000,"state":"active","ping":92},{"user_id":319,"name":"Ｓｔｏｒｉｅｓ","steam_id":76561198080187904,"connected_time":7894000000000,"state":"active","ping":98},{"user_id":369,"name":"Jeane","steam_id":76561198151019322,"connected_time":2089000000000,"state":"active","ping":63},{"user_id":365,"name":"kite","steam_id":76561198346516392,"connected_time":2515000000000,"state":"active","ping":86},{"user_id":364,"name":"bingus cheese","steam_id":76561198069010944,"connected_time":2534000000000,"state":"active","ping":81},{"user_id":359,"name":"Hank_Venture","steam_id":76561197963016762,"connected_time":3057000000000,"state":"active","ping":96},{"user_id":377,"name":"vkiller","steam_id":76561198029265697,"connected_time":1012000000000,"state":"active","ping":81},{"user_id":378,"name":"team fortress","steam_id":76561198801207748,"connected_time":864000000000,"state":"active","ping":57},{"user_id":367,"name":"Oddball","steam_id":76561198040440984,"connected_time":2281000000000,"state":"active","ping":90},{"user_id":373,"name":"why","steam_id":76561199059732212,"connected_time":1376000000000,"state":"active","ping":57},{"user_id":330,"name":"Joby","steam_id":76561198148115889,"connected_time":6133000000000,"state":"active","ping":82},{"user_id":338,"name":"Shame","steam_id":76561198100490994,"connected_time":5332000000000,"state":"active","ping":59},{"user_id":372,"name":"xww","steam_id":76561198068190834,"connected_time":1689000000000,"state":"active","ping":120},{"user_id":360,"name":"barfunkle","steam_id":76561198927517471,"connected_time":2901000000000,"state":"active","ping":75},{"user_id":371,"name":"Cyclops_672","steam_id":76561198080169497,"connected_time":1952000000000,"state":"active","ping":74},{"user_id":345,"name":"Crab","steam_id":76561198067628664,"connected_time":4393000000000,"state":"active","ping":128},{"user_id":341,"name":"ATL1 | on my hunting trip","steam_id":76561198315341646,"connected_time":5234000000000,"state":"active","ping":74},{"user_id":335,"name":"TheGingerOne","steam_id":76561198354203847,"connected_time":5439000000000,"state":"active","ping":82},{"user_id":350,"name":"stink","steam_id":76561198099318923,"connected_time":3945000000000,"state":"active","ping":80},{"user_id":276,"name":"Diesel","steam_id":76561198448815852,"connected_time":11523000000000,"state":"active","ping":102},{"user_id":376,"name":"Lylith","steam_id":76561198386687546,"connected_time":1195000000000,"state":"active","ping":58}]},{"server_id":104,"name":"Uncletopia | Atlanta | 2 | All Maps","name_short":"atl-2","host":"atl-1.us.uncletopia.com","port":27025,"enabled":true,"region":"us-east","cc":"us","latitude":33.753746,"longitude":-84.38633,"reserved":0,"last_update":"0001-01-01T00:00:00Z","name_a2s":"Uncletopia | Atlanta | 2 | All Maps","protocol":17,"map":"cp_dustbowl","folder":"tf","game":"Team Fortress","app_id":440,"player_count":24,"max_players":24,"Bots":0,"server_type":"Dedicated","server_os":"Linux","password":true,"vac":true,"version":"7961495","steam_id":85568392924469983,"keywords":["cp","nocrits","nodmgspread","uncletopia"],"game_id":440,"stv_port":27026,"stv_name":"Uncletopia | Atlanta | 2 | All Maps | STV","players":[{"user_id":144,"name":"League of Attorneys","steam_id":76561198043242639,"connected_time":1980000000000,"state":"active","ping":97},{"user_id":159,"name":"lucin","steam_id":76561198258062078,"connected_time":304000000000,"state":"active","ping":58},{"user_id":165,"name":"pipepeepi","steam_id":76561198845905873,"connected_time":188000000000,"state":"active","ping":74},{"user_id":142,"name":"oppenheimer style","steam_id":76561198026664629,"connected_time":2009000000000,"state":"active","ping":60},{"user_id":161,"name":"Spicy Within Reason","steam_id":76561198066700370,"connected_time":237000000000,"state":"active","ping":119},{"user_id":154,"name":"Krustyjared2","steam_id":76561199233015498,"connected_time":825000000000,"state":"active","ping":84},{"user_id":162,"name":"Zawg","steam_id":76561198346423306,"connected_time":220000000000,"state":"active","ping":59},{"user_id":152,"name":"Heavy Main","steam_id":76561198333746778,"connected_time":1315000000000,"state":"active","ping":87},{"user_id":140,"name":"TheSaltRobot","steam_id":76561198839739497,"connected_time":2357000000000,"state":"active","ping":106},{"user_id":123,"name":"hayes","steam_id":76561198057101042,"connected_time":4462000000000,"state":"active","ping":81},{"user_id":141,"name":"CorsaireCruiser","steam_id":76561199471511497,"connected_time":2060000000000,"state":"active","ping":113},{"user_id":100,"name":"Colossal Falafel","steam_id":76561198108086245,"connected_time":6211000000000,"state":"active","ping":68},{"user_id":138,"name":"Daubee","steam_id":76561198004385130,"connected_time":2840000000000,"state":"active","ping":60},{"user_id":137,"name":"slothm442","steam_id":76561199487265826,"connected_time":3021000000000,"state":"active","ping":73},{"user_id":163,"name":"Hobbes","steam_id":76561197967448497,"connected_time":206000000000,"state":"active","ping":103},{"user_id":122,"name":"neet","steam_id":76561197968115168,"connected_time":4570000000000,"state":"active","ping":61},{"user_id":85,"name":"Opie","steam_id":76561198058704365,"connected_time":7132000000000,"state":"active","ping":67},{"user_id":156,"name":"what","steam_id":76561198082336619,"connected_time":802000000000,"state":"active","ping":83},{"user_id":130,"name":"Oxygen User","steam_id":76561199111975528,"connected_time":3773000000000,"state":"active","ping":68},{"user_id":164,"name":"DoomedMakwa","steam_id":76561198167053158,"connected_time":200000000000,"state":"active","ping":75},{"user_id":74,"name":"MilkToast","steam_id":76561198167959226,"connected_time":7617000000000,"state":"active","ping":64},{"user_id":166,"name":"RokkitFrog","steam_id":76561198046465850,"connected_time":185000000000,"state":"active","ping":76},{"user_id":168,"name":"suicide enjoyer","steam_id":76561198057076267,"connected_time":27000000000,"state":"active","ping":79},{"user_id":158,"name":"An Engineer","steam_id":76561198110381643,"connected_time":366000000000,"state":"active","ping":60}]},{"server_id":400,"name":"Uncletopia | Atlanta | 3 | Stopwatch","name_short":"atl-3","host":"atl-1.us.uncletopia.com","port":27035,"enabled":true,"region":"us-east","cc":"us","latitude":33.753746,"longitude":-84.38633,"reserved":0,"last_update":"0001-01-01T00:00:00Z","name_a2s":"Uncletopia | Atlanta | 3 | Stopwatch","protocol":17,"map":"workshop/pl_badwater_pro_v12.ugc2142942074","folder":"tf","game":"Team Fortress","app_id":440,"player_count":5,"max_players":24,"Bots":0,"server_type":"Dedicated","server_os":"Linux","password":true,"vac":true,"version":"7961495","steam_id":85568392924515187,"keywords":["nocrits","nodmgspread","payload","uncletopia"],"game_id":440,"stv_port":27036,"stv_name":"Uncletopia | Atlanta | 3 | Stopwatch | STV","players":[{"user_id":136,"name":"livindeadk","steam_id":76561198013971873,"connected_time":1216000000000,"state":"active","ping":80},{"user_id":135,"name":"fast","steam_id":76561199199975880,"connected_time":1338000000000,"state":"active","ping":67},{"user_id":137,"name":"gisper","steam_id":76561199087919417,"connected_time":715000000000,"state":"active","ping":66},{"user_id":138,"name":"Nepthys","steam_id":76561198010248321,"connected_time":443000000000,"state":"active","ping":43},{"user_id":139,"name":"ice dragon gamer","steam_id":76561198873820157,"connected_time":84000000000,"state":"spawning","ping":196}]},{"server_id":401,"name":"Uncletopia | Atlanta | 4 | Community","name_short":"atl-4","host":"atl-1.us.uncletopia.com","port":27045,"enabled":true,"region":"us-east","cc":"us","latitude":33.753746,"longitude":-84.38633,"reserved":0,"last_update":"0001-01-01T00:00:00Z","name_a2s":"Uncletopia | Atlanta | 4 | Community","protocol":17,"map":"workshop/pl_corrode_rc2.ugc546577989","folder":"tf","game":"Team Fortress","app_id":440,"player_count":0,"max_players":24,"Bots":0,"server_type":"Dedicated","server_os":"Linux","password":true,"vac":true,"version":"7961495","steam_id":85568392924515188,"keywords":["nocrits","nodmgspread","payload","uncletopia"],"game_id":440,"stv_port":27046,"stv_name":"Uncletopia | Atlanta | 4 | Community | STV","players":null},{"server_id":2,"name":"Uncletopia | Chicago | 1 | All Maps","name_short":"chi-1","host":"chi-1.us.uncletopia.com","port":27015,"enabled":true,"region":"us-central","cc":"us","latitude":41.881832,"longitude":-87.62318,"reserved":0,"last_update":"0001-01-01T00:00:00Z","name_a2s":"Uncletopia | Chicago | 1 | All Maps","protocol":17,"map":"cp_coldfront","folder":"tf","game":"Team Fortress","app_id":440,"player_count":24,"max_players":24,"Bots":0,"server_type":"Dedicated","server_os":"Linux","password":true,"vac":true,"version":"7961495","steam_id":85568392924469984,"keywords":["cp","nocrits","nodmgspread","uncletopia"],"game_id":440,"stv_port":27016,"stv_name":"Uncletopia | Chicago | 1 | All Maps | STV","players":[{"user_id":581,"name":"Milkmur","steam_id":76561198210043821,"connected_time":3336000000000,"state":"active","ping":87},{"user_id":569,"name":"Narz","steam_id":76561198076240365,"connected_time":4347000000000,"state":"active","ping":60},{"user_id":572,"name":"♥Zoot♥Bitch♥","steam_id":76561198121944243,"connected_time":3523000000000,"state":"active","ping":54},{"user_id":568,"name":"Yoshimelon","steam_id":76561198253054325,"connected_time":4443000000000,"state":"active","ping":62},{"user_id":565,"name":"Ikalpo","steam_id":76561198044686915,"connected_time":4642000000000,"state":"active","ping":100},{"user_id":562,"name":"agentish","steam_id":76561198055088122,"connected_time":4664000000000,"state":"active","ping":49},{"user_id":600,"name":"Lyathan","steam_id":76561198062773218,"connected_time":1178000000000,"state":"active","ping":67},{"user_id":603,"name":"ุ","steam_id":76561198170624701,"connected_time":909000000000,"state":"active","ping":74},{"user_id":579,"name":"Vorco","steam_id":76561197996937734,"connected_time":3497000000000,"state":"active","ping":74},{"user_id":525,"name":"Digit","steam_id":76561198156589157,"connected_time":6969000000000,"state":"active","ping":72},{"user_id":594,"name":"hooters but cuter","steam_id":76561198060464895,"connected_time":2267000000000,"state":"active","ping":62},{"user_id":564,"name":"chen","steam_id":76561198064872330,"connected_time":4644000000000,"state":"active","ping":69},{"user_id":610,"name":"DinkleBerg","steam_id":76561198891626233,"connected_time":166000000000,"state":"active","ping":145},{"user_id":606,"name":"Rein","steam_id":76561198300340427,"connected_time":644000000000,"state":"active","ping":65},{"user_id":609,"name":"Adam (Cursed Confetti Creature)","steam_id":76561198317690197,"connected_time":573000000000,"state":"active","ping":46},{"user_id":602,"name":"WhrSkr","steam_id":76561198845227751,"connected_time":975000000000,"state":"active","ping":46},{"user_id":580,"name":"MillerWhite","steam_id":76561198076060357,"connected_time":3495000000000,"state":"active","ping":79},{"user_id":585,"name":"Luxembird","steam_id":76561198079992107,"connected_time":3231000000000,"state":"active","ping":96},{"user_id":494,"name":"Eviscerator","steam_id":76561197980073637,"connected_time":8994000000000,"state":"active","ping":71},{"user_id":598,"name":"Mellow Yellow","steam_id":76561198406276981,"connected_time":1775000000000,"state":"active","ping":49},{"user_id":608,"name":"Λlxium","steam_id":76561198131272900,"connected_time":597000000000,"state":"active","ping":70},{"user_id":607,"name":"A Future US Army Soldier","steam_id":76561198008263869,"connected_time":630000000000,"state":"active","ping":68},{"user_id":590,"name":"♥Bunny♥Slut♥","steam_id":76561198206376851,"connected_time":3181000000000,"state":"active","ping":108},{"user_id":573,"name":"Gheeotine","steam_id":76561198010181698,"connected_time":3523000000000,"state":"active","ping":93}]},{"server_id":106,"name":"Uncletopia | Chicago | 2 | All Maps","name_short":"chi-2","host":"chi-1.us.uncletopia.com","port":27025,"enabled":true,"region":"us-central","cc":"us","latitude":41.881832,"longitude":-87.62318,"reserved":0,"last_update":"0001-01-01T00:00:00Z","name_a2s":"Uncletopia | Chicago | 2 | All Maps","protocol":17,"map":"cp_granary","folder":"tf","game":"Team Fortress","app_id":440,"player_count":24,"max_players":24,"Bots":0,"server_type":"Dedicated","server_os":"Linux","password":true,"vac":true,"version":"7961495","steam_id":85568392924469985,"keywords":["cp","nocrits","nodmgspread","uncletopia"],"game_id":440,"stv_port":27026,"stv_name":"Uncletopia | Chicago | 2 | All Maps | STV","players":[{"user_id":457,"name":"Hashmere","steam_id":76561198002797253,"connected_time":581000000000,"state":"connecting","ping":79},{"user_id":458,"name":"Chhaam","steam_id":76561198058508132,"connected_time":518000000000,"state":"connecting","ping":71},{"user_id":436,"name":"Mr Drug Addict","steam_id":76561199062081467,"connected_time":1779000000000,"state":"connecting","ping":79},{"user_id":448,"name":"a toaster  -_-","steam_id":76561199117706873,"connected_time":1073000000000,"state":"connecting","ping":100},{"user_id":422,"name":"Kafka stan","steam_id":76561198127039453,"connected_time":3573000000000,"state":"connecting","ping":103},{"user_id":437,"name":"Tideflat","steam_id":76561198179850851,"connected_time":1770000000000,"state":"connecting","ping":101},{"user_id":459,"name":"Torensz64(But weezer)","steam_id":76561198239036482,"connected_time":464000000000,"state":"connecting","ping":59},{"user_id":455,"name":"Crunchy Pancake","steam_id":76561198002555973,"connected_time":606000000000,"state":"connecting","ping":80},{"user_id":416,"name":"richard clock","steam_id":76561198048455671,"connected_time":3902000000000,"state":"connecting","ping":75},{"user_id":187,"name":"Schizo Femboy","steam_id":76561199162627150,"connected_time":18824000000000,"state":"connecting","ping":132},{"user_id":456,"name":"pelt","steam_id":76561197993593754,"connected_time":602000000000,"state":"connecting","ping":64},{"user_id":253,"name":"Sonic Mania 2 [100 Real Leaked","steam_id":76561198062764039,"connected_time":14014000000000,"state":"connecting","ping":197},{"user_id":441,"name":"A/funny/dream","steam_id":76561198354481597,"connected_time":1633000000000,"state":"connecting","ping":90},{"user_id":451,"name":"Bob-Billy-Tim","steam_id":76561198354721271,"connected_time":1053000000000,"state":"connecting","ping":51},{"user_id":364,"name":"TheGuyWhoPlays","steam_id":76561198277363002,"connected_time":7674000000000,"state":"connecting","ping":75},{"user_id":445,"name":"nonagon infinity","steam_id":76561198397662124,"connected_time":1100000000000,"state":"connecting","ping":91},{"user_id":449,"name":"Squigly","steam_id":76561198084811625,"connected_time":1071000000000,"state":"connecting","ping":86},{"user_id":462,"name":"Dark Swordsman","steam_id":76561198041622040,"connected_time":345000000000,"state":"connecting","ping":77},{"user_id":452,"name":"Zod","steam_id":76561197970504146,"connected_time":1037000000000,"state":"connecting","ping":66},{"user_id":463,"name":"toolbox","steam_id":76561198446151354,"connected_time":339000000000,"state":"connecting","ping":85},{"user_id":454,"name":"swagmessiah0","steam_id":76561198979823647,"connected_time":998000000000,"state":"connecting","ping":66},{"user_id":464,"name":"Prodi","steam_id":76561197994313410,"connected_time":339000000000,"state":"connecting","ping":102}]},{"server_id":402,"name":"Uncletopia | Chicago | 3 | All Maps","name_short":"chi-3","host":"chi-1.us.uncletopia.com","port":27035,"enabled":true,"region":"us-central","cc":"us","latitude":41.881832,"longitude":-87.62318,"reserved":0,"last_update":"0001-01-01T00:00:00Z","name_a2s":"Uncletopia | Chicago | 3 | All Maps","protocol":17,"map":"pl_pier","folder":"tf","game":"Team Fortress","app_id":440,"player_count":24,"max_players":24,"Bots":0,"server_type":"Dedicated","server_os":"Linux","password":true,"vac":true,"version":"7961495","steam_id":85568392924515191,"keywords":["nocrits","nodmgspread","payload","uncletopia"],"game_id":440,"stv_port":27036,"stv_name":"Uncletopia | Chicago | 3 | All Maps | STV","players":[{"user_id":224,"name":"Harbor Seal","steam_id":76561198162631724,"connected_time":4543000000000,"state":"active","ping":74},{"user_id":268,"name":"Ursus Ludius","steam_id":76561198025470722,"connected_time":159000000000,"state":"active","ping":93},{"user_id":274,"name":"Pcsuhta","steam_id":76561199165796287,"connected_time":8000000000,"state":"spawning","ping":85},{"user_id":272,"name":"Soupcan","steam_id":76561198012807915,"connected_time":42000000000,"state":"active","ping":88},{"user_id":227,"name":"hyaz, +rep.","steam_id":76561199100342013,"connected_time":4466000000000,"state":"active","ping":89},{"user_id":257,"name":"Joe Swanson","steam_id":76561198065327106,"connected_time":512000000000,"state":"active","ping":62},{"user_id":256,"name":"styraxic","steam_id":76561198987579589,"connected_time":520000000000,"state":"active","ping":54},{"user_id":247,"name":"Nappa_Fan20","steam_id":76561198109291065,"connected_time":2656000000000,"state":"active","ping":64},{"user_id":265,"name":"Sir Spinach","steam_id":76561199164337878,"connected_time":388000000000,"state":"active","ping":81},{"user_id":259,"name":"ThatGirlWithaK","steam_id":76561198317602350,"connected_time":467000000000,"state":"active","ping":86},{"user_id":269,"name":"thehookerslammer","steam_id":76561198050136796,"connected_time":97000000000,"state":"active","ping":81},{"user_id":243,"name":"Heavy Gunner","steam_id":76561198149836689,"connected_time":2820000000000,"state":"active","ping":67},{"user_id":253,"name":"your gender","steam_id":76561198097175164,"connected_time":1060000000000,"state":"active","ping":84},{"user_id":244,"name":"Ninjoth","steam_id":76561198038611753,"connected_time":2814000000000,"state":"active","ping":85},{"user_id":260,"name":"Myn","steam_id":76561198055438857,"connected_time":453000000000,"state":"active","ping":75},{"user_id":266,"name":"Dabbledornk","steam_id":76561198065241300,"connected_time":227000000000,"state":"active","ping":61},{"user_id":270,"name":"Shady Businessman","steam_id":76561198143855968,"connected_time":96000000000,"state":"active","ping":98},{"user_id":231,"name":"LoboSolo","steam_id":76561198006883170,"connected_time":4426000000000,"state":"active","ping":109},{"user_id":262,"name":"Ace","steam_id":76561198806699742,"connected_time":436000000000,"state":"active","ping":96},{"user_id":273,"name":"maxtea084","steam_id":76561199333951195,"connected_time":39000000000,"state":"active","ping":77},{"user_id":239,"name":"isla","steam_id":76561198139759348,"connected_time":3405000000000,"state":"active","ping":63},{"user_id":263,"name":"green bean","steam_id":76561198113099204,"connected_time":436000000000,"state":"active","ping":79},{"user_id":237,"name":"GoldtoothFour","steam_id":76561198055529332,"connected_time":4119000000000,"state":"active","ping":57},{"user_id":267,"name":"Jimmy Vile","steam_id":76561198285272595,"connected_time":198000000000,"state":"active","ping":61}]},{"server_id":403,"name":"Uncletopia | Chicago | 4 | All Maps","name_short":"chi-4","host":"chi-1.us.uncletopia.com","port":27045,"enabled":true,"region":"us-central","cc":"us","latitude":41.881832,"longitude":-87.62318,"reserved":0,"last_update":"0001-01-01T00:00:00Z","name_a2s":"Uncletopia | Chicago | 4 | All Maps","protocol":17,"map":"cp_dustbowl","folder":"tf","game":"Team Fortress","app_id":440,"player_count":24,"max_players":24,"Bots":0,"server_type":"Dedicated","server_os":"Linux","password":true,"vac":true,"version":"7961495","steam_id":85568392924515193,"keywords":["cp","nocrits","nodmgspread","uncletopia"],"game_id":440,"stv_port":27046,"stv_name":"Uncletopia | Chicago | 4 | All Maps | STV","players":[{"user_id":74,"name":"22moo","steam_id":76561199075331630,"connected_time":1182000000000,"state":"active","ping":78},{"user_id":78,"name":"Criticem","steam_id":76561198397500212,"connected_time":892000000000,"state":"active","ping":75},{"user_id":84,"name":"NoireThings","steam_id":76561199041728231,"connected_time":786000000000,"state":"active","ping":58},{"user_id":88,"name":"my name jeff","steam_id":76561198179816898,"connected_time":670000000000,"state":"active","ping":89},{"user_id":82,"name":"sawrik","steam_id":76561198018808213,"connected_time":814000000000,"state":"active","ping":63},{"user_id":87,"name":"jimmz","steam_id":76561199076776118,"connected_time":744000000000,"state":"active","ping":91},{"user_id":44,"name":"\"Big\" P. Rivates","steam_id":76561198399415217,"connected_time":1998000000000,"state":"active","ping":96},{"user_id":68,"name":"cajun","steam_id":76561198069380992,"connected_time":1642000000000,"state":"active","ping":79},{"user_id":46,"name":"donald womples","steam_id":76561198194571539,"connected_time":1990000000000,"state":"active","ping":91},{"user_id":71,"name":"NUt","steam_id":76561198031007966,"connected_time":1485000000000,"state":"active","ping":58},{"user_id":93,"name":"Kingsab16","steam_id":76561199096795723,"connected_time":300000000000,"state":"active","ping":63},{"user_id":89,"name":"Argo","steam_id":76561198353725622,"connected_time":658000000000,"state":"active","ping":78},{"user_id":51,"name":"ChimpChampion","steam_id":76561198046520712,"connected_time":1864000000000,"state":"active","ping":64},{"user_id":75,"name":"Thrasher","steam_id":76561197977801547,"connected_time":1138000000000,"state":"active","ping":81},{"user_id":91,"name":"Randybot24","steam_id":76561198352095167,"connected_time":607000000000,"state":"active","ping":75},{"user_id":85,"name":"Shitty Pilot","steam_id":76561198042723469,"connected_time":772000000000,"state":"active","ping":78},{"user_id":73,"name":"trobin120","steam_id":76561199122420273,"connected_time":1371000000000,"state":"active","ping":66},{"user_id":69,"name":"The Angel of Death","steam_id":76561198026079349,"connected_time":1633000000000,"state":"active","ping":109},{"user_id":61,"name":"Martin","steam_id":76561198341682588,"connected_time":1762000000000,"state":"active","ping":100},{"user_id":77,"name":"bumrusherz","steam_id":76561198440658195,"connected_time":971000000000,"state":"active","ping":75},{"user_id":86,"name":"Soapbar","steam_id":76561198081714169,"connected_time":750000000000,"state":"active","ping":88},{"user_id":81,"name":"MrLeftTurn","steam_id":76561198856743969,"connected_time":822000000000,"state":"active","ping":133},{"user_id":65,"name":"Dr. No Name","steam_id":76561198058656869,"connected_time":1683000000000,"state":"active","ping":83},{"user_id":72,"name":"dubstept","steam_id":76561198884973306,"connected_time":1436000000000,"state":"active","ping":97}]},{"server_id":36,"name":"Uncletopia | Chicago | 5 | All Maps","name_short":"chi-5","host":"chi-2.us.uncletopia.com","port":27015,"enabled":true,"region":"us-central","cc":"us","latitude":41.881832,"longitude":-87.62318,"reserved":0,"last_update":"0001-01-01T00:00:00Z","name_a2s":"Uncletopia | Chicago | 5 | All Maps","protocol":17,"map":"koth_viaduct","folder":"tf","game":"Team Fortress","app_id":440,"player_count":25,"max_players":24,"Bots":0,"server_type":"Dedicated","server_os":"Linux","password":true,"vac":true,"version":"7961495","steam_id":85568392924866362,"keywords":["cp","nocrits","nodmgspread","uncletopia"],"game_id":440,"stv_port":27016,"stv_name":"Uncletopia | Chicago | 5 | All Maps | STV","players":[{"user_id":91,"name":"Maximum Flame","steam_id":76561198073682529,"connected_time":2350000000000,"state":"active","ping":33},{"user_id":114,"name":"kid named finger","steam_id":76561198303415011,"connected_time":163000000000,"state":"active","ping":64},{"user_id":111,"name":"bitches dont know bout my pinga","steam_id":76561198069814977,"connected_time":510000000000,"state":"active","ping":62},{"user_id":86,"name":"DerpyNate","steam_id":76561198100249037,"connected_time":2461000000000,"state":"active","ping":37},{"user_id":52,"name":"astrobob911","steam_id":76561199099110654,"connected_time":4916000000000,"state":"active","ping":84},{"user_id":25,"name":"large","steam_id":76561198079439453,"connected_time":5693000000000,"state":"active","ping":98},{"user_id":26,"name":"xemi","steam_id":76561198284079047,"connected_time":5584000000000,"state":"active","ping":104},{"user_id":97,"name":"SaltyManok","steam_id":76561198160082948,"connected_time":1790000000000,"state":"active","ping":52},{"user_id":107,"name":"Sham Cow","steam_id":76561198064556977,"connected_time":721000000000,"state":"active","ping":86},{"user_id":115,"name":"tail slap +36 (4d12+18)","steam_id":76561198040425096,"connected_time":157000000000,"state":"active","ping":68},{"user_id":106,"name":"MoopStoop","steam_id":76561198140936620,"connected_time":790000000000,"state":"active","ping":69},{"user_id":113,"name":"Miss Star","steam_id":76561199106587693,"connected_time":175000000000,"state":"active","ping":80},{"user_id":81,"name":"fake egirls add me pls","steam_id":76561198044443985,"connected_time":2675000000000,"state":"active","ping":84},{"user_id":93,"name":"MONKEY | videogamer1002","steam_id":76561198157110599,"connected_time":2219000000000,"state":"active","ping":117},{"user_id":56,"name":"StuartBell511","steam_id":76561198060931721,"connected_time":4583000000000,"state":"active","ping":74},{"user_id":82,"name":"Duncan Idaho","steam_id":76561197988963861,"connected_time":2657000000000,"state":"active","ping":69},{"user_id":83,"name":"Hazeyboi","steam_id":76561198130687838,"connected_time":2655000000000,"state":"active","ping":44},{"user_id":109,"name":"mike penis","steam_id":76561198159339442,"connected_time":588000000000,"state":"active","ping":72},{"user_id":116,"name":"❤Michelle❤","steam_id":76561198304275323,"connected_time":145000000000,"state":"active","ping":73},{"user_id":117,"name":"Mr. Mime","steam_id":76561199197676776,"connected_time":132000000000,"state":"active","ping":69},{"user_id":112,"name":"bluedino1025","steam_id":76561198271910607,"connected_time":393000000000,"state":"active","ping":99},{"user_id":118,"name":"momlovie","steam_id":76561198843933742,"connected_time":109000000000,"state":"active","ping":65},{"user_id":84,"name":"CherriKat","steam_id":76561198821297512,"connected_time":2649000000000,"state":"active","ping":98},{"user_id":119,"name":"unalive_air","steam_id":76561199500246210,"connected_time":21000000000,"state":"spawning","ping":124},{"user_id":104,"name":"GardenOfStone","steam_id":76561199069870534,"connected_time":964000000000,"state":"active","ping":72}]},{"server_id":37,"name":"Uncletopia | Chicago | 6 | All Maps","name_short":"chi-6","host":"chi-2.us.uncletopia.com","port":27025,"enabled":true,"region":"us-central","cc":"us","latitude":41.881832,"longitude":-87.62318,"reserved":0,"last_update":"0001-01-01T00:00:00Z","name_a2s":"Uncletopia | Chicago | 6 | All Maps","protocol":17,"map":"cp_process_final","folder":"tf","game":"Team Fortress","app_id":440,"player_count":23,"max_players":24,"Bots":0,"server_type":"Dedicated","server_os":"Linux","password":true,"vac":true,"version":"7961495","steam_id":85568392924866363,"keywords":["cp","nocrits","nodmgspread","uncletopia"],"game_id":440,"stv_port":27026,"stv_name":"Uncletopia | Chicago | 6 | All Maps | STV","players":[{"user_id":130,"name":"bob","steam_id":76561198274522348,"connected_time":930000000000,"state":"active","ping":60},{"user_id":110,"name":"Amoxicilina","steam_id":76561198168486429,"connected_time":2275000000000,"state":"active","ping":122},{"user_id":143,"name":"-π- BakaD","steam_id":76561197960559169,"connected_time":102000000000,"state":"active","ping":60},{"user_id":131,"name":"im from tha mud","steam_id":76561198142756572,"connected_time":913000000000,"state":"active","ping":65},{"user_id":138,"name":"Diplodocus","steam_id":76561198023323121,"connected_time":262000000000,"state":"active","ping":112},{"user_id":144,"name":"feleven","steam_id":76561198853721046,"connected_time":68000000000,"state":"active","ping":70},{"user_id":112,"name":"SiltyStar85","steam_id":76561198309175923,"connected_time":2205000000000,"state":"active","ping":89},{"user_id":139,"name":"RusticCarp42989","steam_id":76561198361151865,"connected_time":166000000000,"state":"active","ping":125},{"user_id":133,"name":"Speedboat","steam_id":76561198094841559,"connected_time":704000000000,"state":"active","ping":57},{"user_id":136,"name":"Sickduck Mcgee","steam_id":76561198028577159,"connected_time":501000000000,"state":"active","ping":77},{"user_id":132,"name":"TommySalami69","steam_id":76561198180275926,"connected_time":893000000000,"state":"active","ping":95},{"user_id":141,"name":"UzedPickle","steam_id":76561198005513760,"connected_time":140000000000,"state":"active","ping":79},{"user_id":78,"name":"fresco","steam_id":76561199101199477,"connected_time":4661000000000,"state":"active","ping":65},{"user_id":53,"name":"gaming elliptical","steam_id":76561198013456569,"connected_time":6350000000000,"state":"active","ping":57},{"user_id":61,"name":"Tingyun","steam_id":76561198295713840,"connected_time":5948000000000,"state":"active","ping":66},{"user_id":142,"name":"look killa","steam_id":76561198173047169,"connected_time":124000000000,"state":"active","ping":59},{"user_id":127,"name":"band stacker","steam_id":76561198327039405,"connected_time":1145000000000,"state":"active","ping":81},{"user_id":128,"name":"james_bondage","steam_id":76561199476062624,"connected_time":1125000000000,"state":"active","ping":91},{"user_id":145,"name":"boogiewoogie","steam_id":76561198264287055,"connected_time":65000000000,"state":"active","ping":59},{"user_id":90,"name":"[NAME-REDACTED]","steam_id":76561198035682975,"connected_time":3942000000000,"state":"active","ping":70},{"user_id":93,"name":"Silly Shark","steam_id":76561198130714378,"connected_time":3849000000000,"state":"active","ping":116},{"user_id":134,"name":"diredeafeningdigestivedisaster","steam_id":76561197972601902,"connected_time":634000000000,"state":"active","ping":109},{"user_id":120,"name":"Horse","steam_id":76561198004583631,"connected_time":1620000000000,"state":"active","ping":82}]},{"server_id":38,"name":"Uncletopia | Chicago | 7 | Stopwatch","name_short":"chi-7","host":"chi-2.us.uncletopia.com","port":27035,"enabled":true,"region":"us-central","cc":"us","latitude":41.881832,"longitude":-87.62318,"reserved":0,"last_update":"0001-01-01T00:00:00Z","name_a2s":"Uncletopia | Chicago | 7 | Stopwatch","protocol":17,"map":"cp_sunshine","folder":"tf","game":"Team Fortress","app_id":440,"player_count":21,"max_players":24,"Bots":0,"server_type":"Dedicated","server_os":"Linux","password":true,"vac":true,"version":"7961495","steam_id":85568392924866364,"keywords":["cp","nocrits","nodmgspread","uncletopia"],"game_id":440,"stv_port":27036,"stv_name":"Uncletopia | Chicago | 7 | Stopwatch | STV","players":[{"user_id":603,"name":"Jurls","steam_id":76561198138077990,"connected_time":417000000000,"state":"active","ping":75},{"user_id":588,"name":"Jelly","steam_id":76561198865171764,"connected_time":1596000000000,"state":"active","ping":79},{"user_id":585,"name":"Philo","steam_id":76561198061873341,"connected_time":1796000000000,"state":"active","ping":87},{"user_id":610,"name":"corntent","steam_id":76561198824847948,"connected_time":168000000000,"state":"active","ping":60},{"user_id":573,"name":"catrinaisahuman","steam_id":76561198281355729,"connected_time":2368000000000,"state":"active","ping":62},{"user_id":604,"name":"doubu","steam_id":76561198411503128,"connected_time":414000000000,"state":"active","ping":46},{"user_id":593,"name":"Nato #ClashGG","steam_id":76561198161062837,"connected_time":1485000000000,"state":"active","ping":105},{"user_id":589,"name":"Vector","steam_id":76561199055958107,"connected_time":1589000000000,"state":"active","ping":58},{"user_id":590,"name":"videonasty","steam_id":76561198105666663,"connected_time":1578000000000,"state":"active","ping":88},{"user_id":605,"name":"H0ovy","steam_id":76561198996230924,"connected_time":409000000000,"state":"active","ping":66},{"user_id":611,"name":"Some_Arse","steam_id":76561198039095394,"connected_time":92000000000,"state":"active","ping":62},{"user_id":557,"name":"really hot pocket","steam_id":76561198239297686,"connected_time":3132000000000,"state":"active","ping":66},{"user_id":612,"name":"Big Boi E","steam_id":76561198988336575,"connected_time":90000000000,"state":"active","ping":92},{"user_id":591,"name":"Samercam","steam_id":76561198189403190,"connected_time":1538000000000,"state":"active","ping":45},{"user_id":602,"name":"Schloper","steam_id":76561198153400447,"connected_time":437000000000,"state":"active","ping":53},{"user_id":606,"name":"MrYadaization","steam_id":76561198050770818,"connected_time":396000000000,"state":"active","ping":101},{"user_id":607,"name":"REEEEEEEEEEEEEEEEEEEE","steam_id":76561199411565786,"connected_time":395000000000,"state":"active","ping":92},{"user_id":598,"name":"swagaholic","steam_id":76561199014715203,"connected_time":1361000000000,"state":"active","ping":114},{"user_id":580,"name":"Ganondorf","steam_id":76561198010421059,"connected_time":2239000000000,"state":"active","ping":67},{"user_id":586,"name":"elpfunder","steam_id":76561198379122718,"connected_time":1775000000000,"state":"active","ping":110},{"user_id":556,"name":"Sizenberg","steam_id":76561198115842661,"connected_time":3159000000000,"state":"active","ping":73}]},{"server_id":39,"name":"Uncletopia | Chicago | 8 | Community","name_short":"chi-8","host":"chi-2.us.uncletopia.com","port":27045,"enabled":true,"region":"us-central","cc":"us","latitude":41.881832,"longitude":-87.62318,"reserved":0,"last_update":"0001-01-01T00:00:00Z","name_a2s":"Uncletopia | Chicago | 8 | Community","protocol":17,"map":"workshop/koth_kemptown_rc1.ugc767410655","folder":"tf","game":"Team Fortress","app_id":440,"player_count":0,"max_players":24,"Bots":0,"server_type":"Dedicated","server_os":"Linux","password":true,"vac":true,"version":"7961495","steam_id":85568392924866365,"keywords":["cp","nocrits","nodmgspread","uncletopia"],"game_id":440,"stv_port":27046,"stv_name":"Uncletopia | Chicago | 8 | Community | STV","players":null},{"server_id":8,"name":"Uncletopia | Dallas | 1 | All Maps","name_short":"dal-1","host":"dal-1.us.uncletopia.com","port":27015,"enabled":true,"region":"us-central","cc":"us","latitude":32.779167,"longitude":-96.80889,"reserved":0,"last_update":"0001-01-01T00:00:00Z","name_a2s":"Uncletopia | Dallas | 1 | All Maps","protocol":17,"map":"cp_dustbowl","folder":"tf","game":"Team Fortress","app_id":440,"player_count":24,"max_players":24,"Bots":0,"server_type":"Dedicated","server_os":"Linux","password":true,"vac":true,"version":"7961495","steam_id":85568392924469986,"keywords":["cp","nocrits","nodmgspread","uncletopia"],"game_id":440,"stv_port":27016,"stv_name":"Uncletopia | Dallas | 1 | All Maps | STV","players":[{"user_id":466,"name":"n(n)","steam_id":76561198837908781,"connected_time":2247000000000,"state":"active","ping":96},{"user_id":490,"name":"epsteinarielle1","steam_id":76561199093520567,"connected_time":1071000000000,"state":"active","ping":100},{"user_id":497,"name":"ThePirateKenway","steam_id":76561198115156181,"connected_time":599000000000,"state":"active","ping":47},{"user_id":449,"name":"Jolpflgivck","steam_id":76561198085250893,"connected_time":3882000000000,"state":"active","ping":90},{"user_id":489,"name":"noel","steam_id":76561198128280883,"connected_time":1086000000000,"state":"active","ping":96},{"user_id":483,"name":"barker bill","steam_id":76561198018451994,"connected_time":1404000000000,"state":"active","ping":55},{"user_id":479,"name":"Gary Busey","steam_id":76561197970096950,"connected_time":1505000000000,"state":"active","ping":41},{"user_id":460,"name":"Arthur SSJ2","steam_id":76561198043678479,"connected_time":2697000000000,"state":"active","ping":45},{"user_id":498,"name":"Jerome","steam_id":76561198054796296,"connected_time":595000000000,"state":"active","ping":77},{"user_id":501,"name":"Gay Weed \u003c3","steam_id":76561198158240142,"connected_time":310000000000,"state":"active","ping":83},{"user_id":481,"name":"CaptainSlayerGaming","steam_id":76561199150320782,"connected_time":1448000000000,"state":"active","ping":64},{"user_id":437,"name":"denzell05","steam_id":76561198086987061,"connected_time":4634000000000,"state":"active","ping":92},{"user_id":503,"name":"Peckett","steam_id":76561198433962127,"connected_time":8000000000,"state":"spawning","ping":54},{"user_id":496,"name":"Estrogenizing Burger King Burge","steam_id":76561198083882597,"connected_time":893000000000,"state":"active","ping":44},{"user_id":485,"name":"laboriouslobster36","steam_id":76561198871003321,"connected_time":1255000000000,"state":"active","ping":50},{"user_id":469,"name":"AidenSpot","steam_id":76561198324152195,"connected_time":2211000000000,"state":"active","ping":92},{"user_id":472,"name":"leesh","steam_id":76561198079603938,"connected_time":2014000000000,"state":"active","ping":64},{"user_id":491,"name":"♩Karma♩","steam_id":76561199453410299,"connected_time":1051000000000,"state":"active","ping":86},{"user_id":500,"name":"Scuba Steve","steam_id":76561198313018251,"connected_time":502000000000,"state":"active","ping":87},{"user_id":456,"name":"yalu","steam_id":76561198224811504,"connected_time":3056000000000,"state":"active","ping":67},{"user_id":492,"name":"195x195jpegofbaldman","steam_id":76561198178351279,"connected_time":1039000000000,"state":"active","ping":106},{"user_id":493,"name":"Jinkus Johnson","steam_id":76561198181678541,"connected_time":1032000000000,"state":"active","ping":118},{"user_id":502,"name":"Bottom Trans Cowgirl","steam_id":76561198304239680,"connected_time":288000000000,"state":"active","ping":98},{"user_id":495,"name":"Joe Rog an Sexy (sex)","steam_id":76561198138598104,"connected_time":963000000000,"state":"active","ping":105}]},{"server_id":108,"name":"Uncletopia | Dallas | 2 | All Maps","name_short":"dal-2","host":"dal-1.us.uncletopia.com","port":27025,"enabled":true,"region":"us-central","cc":"us","latitude":32.779167,"longitude":-96.80889,"reserved":0,"last_update":"0001-01-01T00:00:00Z","name_a2s":"Uncletopia | Dallas | 2 | All Maps","protocol":17,"map":"pl_borneo","folder":"tf","game":"Team Fortress","app_id":440,"player_count":24,"max_players":24,"Bots":0,"server_type":"Dedicated","server_os":"Linux","password":true,"vac":true,"version":"7961495","steam_id":85568392924469988,"keywords":["nocrits","nodmgspread","payload","uncletopia"],"game_id":440,"stv_port":27026,"stv_name":"Uncletopia | Dallas | 2 | All Maps | STV","players":[{"user_id":157,"name":"Crouching Noob Hidden Sniper","steam_id":76561197971328473,"connected_time":3269000000000,"state":"active","ping":115},{"user_id":191,"name":"Karma","steam_id":76561198320530905,"connected_time":926000000000,"state":"active","ping":45},{"user_id":194,"name":"Normalux","steam_id":76561198293891426,"connected_time":856000000000,"state":"active","ping":120},{"user_id":127,"name":"Hanzo P.C.H.U","steam_id":76561199130917163,"connected_time":4713000000000,"state":"active","ping":44},{"user_id":111,"name":"spider","steam_id":76561198130032444,"connected_time":6302000000000,"state":"active","ping":101},{"user_id":146,"name":"SmokeyGalaxy","steam_id":76561198118780516,"connected_time":3576000000000,"state":"active","ping":61},{"user_id":199,"name":"camohq","steam_id":76561198056527698,"connected_time":150000000000,"state":"active","ping":70},{"user_id":89,"name":"Mellou","steam_id":76561198212048740,"connected_time":7559000000000,"state":"active","ping":76},{"user_id":185,"name":"K2f","steam_id":76561198049600563,"connected_time":1150000000000,"state":"active","ping":66},{"user_id":166,"name":"artichoke","steam_id":76561198980994364,"connected_time":2368000000000,"state":"active","ping":103},{"user_id":195,"name":"Cosblast","steam_id":76561198827282573,"connected_time":557000000000,"state":"active","ping":69},{"user_id":189,"name":"Nothing Vulgar","steam_id":76561198055002150,"connected_time":1039000000000,"state":"active","ping":81},{"user_id":163,"name":"TrashPanda (she/her)","steam_id":76561198447864095,"connected_time":2545000000000,"state":"active","ping":57},{"user_id":183,"name":"gundself","steam_id":76561198799241927,"connected_time":1191000000000,"state":"active","ping":170},{"user_id":200,"name":"Rearranging furniture","steam_id":76561199054971009,"connected_time":112000000000,"state":"active","ping":52},{"user_id":178,"name":"Birby","steam_id":76561198884009768,"connected_time":1880000000000,"state":"active","ping":117},{"user_id":142,"name":"Doctor Emerald(Bison Emperor)","steam_id":76561199123003872,"connected_time":4242000000000,"state":"active","ping":89},{"user_id":112,"name":"wlsa","steam_id":76561198059751197,"connected_time":6302000000000,"state":"active","ping":41},{"user_id":192,"name":"misdemeanor shaboingery charges","steam_id":76561199068981957,"connected_time":909000000000,"state":"active","ping":74},{"user_id":201,"name":"Cam","steam_id":76561198139174433,"connected_time":41000000000,"state":"active","ping":69},{"user_id":174,"name":"moe","steam_id":76561198929586245,"connected_time":2271000000000,"state":"active","ping":67},{"user_id":198,"name":"Mick","steam_id":76561198972619900,"connected_time":196000000000,"state":"active","ping":66},{"user_id":188,"name":"DistantJragon","steam_id":76561198117563641,"connected_time":1094000000000,"state":"active","ping":68},{"user_id":171,"name":"Nephi","steam_id":76561198031525122,"connected_time":2347000000000,"state":"active","ping":98}]},{"server_id":404,"name":"Uncletopia | Dallas | 3 | All Maps","name_short":"dal-3","host":"dal-1.us.uncletopia.com","port":27035,"enabled":true,"region":"us-central","cc":"us","latitude":32.779167,"longitude":-96.80889,"reserved":0,"last_update":"0001-01-01T00:00:00Z","name_a2s":"Uncletopia | Dallas | 3 | All Maps","protocol":17,"map":"pl_upward","folder":"tf","game":"Team Fortress","app_id":440,"player_count":23,"max_players":24,"Bots":0,"server_type":"Dedicated","server_os":"Linux","password":true,"vac":true,"version":"7961495","steam_id":85568392924515219,"keywords":["nocrits","nodmgspread","payload","uncletopia"],"game_id":440,"stv_port":27036,"stv_name":"Uncletopia | Dallas | 3 | All Maps | STV","players":[{"user_id":143,"name":"Zesty Jesus","steam_id":76561198052431073,"connected_time":588000000000,"state":"active","ping":45},{"user_id":110,"name":"deadass1215","steam_id":76561199052886723,"connected_time":2772000000000,"state":"active","ping":135},{"user_id":140,"name":"not butter","steam_id":76561198100503104,"connected_time":959000000000,"state":"active","ping":123},{"user_id":74,"name":"Zero","steam_id":76561198033384990,"connected_time":4976000000000,"state":"active","ping":75},{"user_id":148,"name":"Mer","steam_id":76561198192171041,"connected_time":24000000000,"state":"active","ping":174},{"user_id":120,"name":"Fray","steam_id":76561198030141282,"connected_time":2145000000000,"state":"active","ping":61},{"user_id":146,"name":"Toasterr","steam_id":76561197990169748,"connected_time":201000000000,"state":"active","ping":92},{"user_id":108,"name":"EAT SPIT!","steam_id":76561198096836451,"connected_time":3079000000000,"state":"active","ping":83},{"user_id":136,"name":"Crabohydrate","steam_id":76561198157019155,"connected_time":1079000000000,"state":"active","ping":120},{"user_id":134,"name":"Luna Crying","steam_id":76561198152593322,"connected_time":1605000000000,"state":"active","ping":76},{"user_id":133,"name":"Lock'd","steam_id":76561198170108230,"connected_time":1622000000000,"state":"active","ping":59},{"user_id":32,"name":"Wren","steam_id":76561198012067451,"connected_time":6424000000000,"state":"active","ping":76},{"user_id":141,"name":"mrthugpug1732","steam_id":76561198881200768,"connected_time":927000000000,"state":"active","ping":90},{"user_id":34,"name":"remanedur","steam_id":76561198059459507,"connected_time":6410000000000,"state":"active","ping":105},{"user_id":113,"name":"ExplosiveGamer21","steam_id":76561198132370955,"connected_time":2702000000000,"state":"active","ping":100},{"user_id":107,"name":"Matches_                       ","steam_id":76561198048925904,"connected_time":3322000000000,"state":"active","ping":86},{"user_id":137,"name":"Forger","steam_id":76561199084913692,"connected_time":1045000000000,"state":"active","ping":67},{"user_id":90,"name":"Useless","steam_id":76561198116079299,"connected_time":4229000000000,"state":"active","ping":123},{"user_id":138,"name":"MrBurgerItHere","steam_id":76561198902777035,"connected_time":1035000000000,"state":"active","ping":97},{"user_id":131,"name":"Extraterrestrial","steam_id":76561198069948353,"connected_time":1697000000000,"state":"active","ping":95},{"user_id":124,"name":"Fercho Mo","steam_id":76561198168935077,"connected_time":2014000000000,"state":"active","ping":71},{"user_id":142,"name":"Ralsei","steam_id":76561198030282308,"connected_time":903000000000,"state":"active","ping":98},{"user_id":135,"name":"P.C. Baby","steam_id":76561198067011379,"connected_time":1375000000000,"state":"active","ping":87}]},{"server_id":405,"name":"Uncletopia | Dallas | 4 | Community","name_short":"dal-4","host":"dal-1.us.uncletopia.com","port":27045,"enabled":true,"region":"us-central","cc":"us","latitude":32.779167,"longitude":-96.80889,"reserved":0,"last_update":"0001-01-01T00:00:00Z","name_a2s":"Uncletopia | Dallas | 4 | Community","protocol":17,"map":"workshop/cp_fulgur_rc2a.ugc2068252300","folder":"tf","game":"Team Fortress","app_id":440,"player_count":0,"max_players":24,"Bots":0,"server_type":"Dedicated","server_os":"Linux","password":true,"vac":true,"version":"7961495","steam_id":85568392924515220,"keywords":["cp","nocrits","nodmgspread","uncletopia"],"game_id":440,"stv_port":27046,"stv_name":"Uncletopia | Dallas | 4 | Community | STV","players":null},{"server_id":5,"name":"Uncletopia | Frankfurt | 1 | All Maps","name_short":"frk-1","host":"frk-1.de.uncletopia.com","port":27015,"enabled":true,"region":"eu","cc":"de","latitude":50.110924,"longitude":8.682127,"reserved":0,"last_update":"0001-01-01T00:00:00Z","name_a2s":"Uncletopia | Frankfurt | 1 | All Maps","protocol":17,"map":"pl_frontier_final","folder":"tf","game":"Team Fortress","app_id":440,"player_count":0,"max_players":24,"Bots":0,"server_type":"Dedicated","server_os":"Linux","password":true,"vac":true,"version":"7961495","steam_id":85568392924469989,"keywords":["nocrits","nodmgspread","payload","uncletopia"],"game_id":440,"stv_port":27016,"stv_name":"Uncletopia | Frankfurt | 1 | All Maps | STV","players":null},{"server_id":110,"name":"Uncletopia | Frankfurt | 2 | All Maps","name_short":"frk-2","host":"frk-1.de.uncletopia.com","port":27025,"enabled":true,"region":"eu","cc":"de","latitude":50.110924,"longitude":8.682127,"reserved":0,"last_update":"0001-01-01T00:00:00Z","name_a2s":"Uncletopia | Frankfurt | 2 | All Maps","protocol":17,"map":"pl_goldrush","folder":"tf","game":"Team Fortress","app_id":440,"player_count":0,"max_players":24,"Bots":0,"server_type":"Dedicated","server_os":"Linux","password":true,"vac":true,"version":"7961495","steam_id":85568392924469990,"keywords":["nocrits","nodmgspread","payload","uncletopia"],"game_id":440,"stv_port":27026,"stv_name":"Uncletopia | Frankfurt | 2 | All Maps | STV","players":null},{"server_id":308,"name":"Uncletopia | Frankfurt | 3 | All Maps","name_short":"frk-3","host":"frk-1.de.uncletopia.com","port":27035,"enabled":true,"region":"eu","cc":"de","latitude":50.110924,"longitude":8.682127,"reserved":0,"last_update":"0001-01-01T00:00:00Z","name_a2s":"Uncletopia | Frankfurt | 3 | All Maps","protocol":17,"map":"pl_pier","folder":"tf","game":"Team Fortress","app_id":440,"player_count":0,"max_players":24,"Bots":0,"server_type":"Dedicated","server_os":"Linux","password":true,"vac":true,"version":"7961495","steam_id":85568392924504274,"keywords":["nocrits","nodmgspread","payload","uncletopia"],"game_id":440,"stv_port":27036,"stv_name":"Uncletopia | Frankfurt | 3 | All Maps | STV","players":null},{"server_id":309,"name":"Uncletopia | Frankfurt | 4 | All Maps","name_short":"frk-4","host":"frk-1.de.uncletopia.com","port":27045,"enabled":true,"region":"eu","cc":"de","latitude":50.110924,"longitude":8.682127,"reserved":0,"last_update":"0001-01-01T00:00:00Z","name_a2s":"Uncletopia | Frankfurt | 4 | All Maps","protocol":17,"map":"pl_frontier_final","folder":"tf","game":"Team Fortress","app_id":440,"player_count":0,"max_players":24,"Bots":0,"server_type":"Dedicated","server_os":"Linux","password":true,"vac":true,"version":"7961495","steam_id":85568392924504275,"keywords":["nocrits","nodmgspread","payload","uncletopia"],"game_id":440,"stv_port":27046,"stv_name":"Uncletopia | Frankfurt | 4 | All Maps | STV","players":null},{"server_id":310,"name":"Uncletopia | Frankfurt | 5 | All Maps","name_short":"frk-5","host":"frk-1.de.uncletopia.com","port":27055,"enabled":true,"region":"eu","cc":"de","latitude":50.110924,"longitude":8.682127,"reserved":0,"last_update":"0001-01-01T00:00:00Z","name_a2s":"Uncletopia | Frankfurt | 5 | All Maps","protocol":17,"map":"koth_lakeside_final","folder":"tf","game":"Team Fortress","app_id":440,"player_count":0,"max_players":24,"Bots":0,"server_type":"Dedicated","server_os":"Linux","password":true,"vac":true,"version":"7961495","steam_id":85568392924504277,"keywords":["cp","nocrits","nodmgspread","uncletopia"],"game_id":440,"stv_port":27056,"stv_name":"Uncletopia | Frankfurt | 5 | All Maps | STV","players":null},{"server_id":311,"name":"Uncletopia | Frankfurt | 6 | All Maps","name_short":"frk-6","host":"frk-1.de.uncletopia.com","port":27065,"enabled":true,"region":"eu","cc":"de","latitude":50.110924,"longitude":8.682127,"reserved":0,"last_update":"0001-01-01T00:00:00Z","name_a2s":"Uncletopia | Frankfurt | 6 | All Maps","protocol":17,"map":"pl_pier","folder":"tf","game":"Team Fortress","app_id":440,"player_count":4,"max_players":24,"Bots":0,"server_type":"Dedicated","server_os":"Linux","password":true,"vac":true,"version":"7961495","steam_id":85568392924504278,"keywords":["nocrits","nodmgspread","payload","uncletopia"],"game_id":440,"stv_port":27066,"stv_name":"Uncletopia | Frankfurt | 6 | All Maps | STV","players":[{"user_id":962,"name":"Psychicpie","steam_id":76561198126065206,"connected_time":625000000000,"state":"active","ping":46},{"user_id":945,"name":"Champi","steam_id":76561198830002766,"connected_time":2749000000000,"state":"active","ping":69},{"user_id":926,"name":"racist and horny","steam_id":76561198063182242,"connected_time":3454000000000,"state":"active","ping":133},{"user_id":946,"name":"Cold Heart","steam_id":76561198109838745,"connected_time":2695000000000,"state":"active","ping":47}]},{"server_id":23,"name":"Uncletopia | Frankfurt | 7 | Stopwatch","name_short":"frk-7","host":"frk-1.de.uncletopia.com","port":27075,"enabled":true,"region":"eu","cc":"de","latitude":50.110924,"longitude":8.682127,"reserved":0,"last_update":"0001-01-01T00:00:00Z","name_a2s":"Uncletopia | Frankfurt | 7 | Stopwatch","protocol":17,"map":"workshop/koth_ashville_final.ugc2130459942","folder":"tf","game":"Team Fortress","app_id":440,"player_count":0,"max_players":24,"Bots":0,"server_type":"Dedicated","server_os":"Linux","password":true,"vac":true,"version":"7961495","steam_id":85568392924742827,"keywords":["cp","nocrits","nodmgspread","uncletopia"],"game_id":440,"stv_port":27076,"stv_name":"Uncletopia | Frankfurt | 7 | Stopwatch | STV","players":null},{"server_id":24,"name":"Uncletopia | Frankfurt | 8 | Community","name_short":"frk-8","host":"frk-1.de.uncletopia.com","port":27085,"enabled":true,"region":"eu","cc":"de","latitude":50.110924,"longitude":8.682127,"reserved":0,"last_update":"0001-01-01T00:00:00Z","name_a2s":"Uncletopia | Frankfurt | 8 | Community","protocol":17,"map":"workshop/pl_shoreleave_rc2.ugc1238849347","folder":"tf","game":"Team Fortress","app_id":440,"player_count":0,"max_players":24,"Bots":0,"server_type":"Dedicated","server_os":"Linux","password":true,"vac":true,"version":"7961495","steam_id":85568392924742828,"keywords":["nocrits","nodmgspread","payload","uncletopia"],"game_id":440,"stv_port":27086,"stv_name":"Uncletopia | Frankfurt | 8 | Community | STV","players":null},{"server_id":202,"name":"Uncletopia | Hong Kong | 1 | All Maps","name_short":"hgk-1","host":"hgk-1.hk.uncletopia.com","port":27015,"enabled":true,"region":"asia","cc":"hk","latitude":22.302711,"longitude":114.177216,"reserved":0,"last_update":"0001-01-01T00:00:00Z","name_a2s":"Uncletopia | Hong Kong | 1 | All Maps","protocol":17,"map":"cp_snakewater_final1","folder":"tf","game":"Team Fortress","app_id":440,"player_count":0,"max_players":24,"Bots":0,"server_type":"Dedicated","server_os":"Linux","password":true,"vac":true,"version":"7961495","steam_id":85568392924494504,"keywords":["cp","nocrits","nodmgspread","uncletopia"],"game_id":440,"stv_port":27016,"stv_name":"Uncletopia | Hong Kong | 1 | All Maps | STV","players":null},{"server_id":1,"name":"Uncletopia | Los Angeles | 1 | All Maps","name_short":"lax-1","host":"lax-1.us.uncletopia.com","port":27015,"enabled":true,"region":"us-west","cc":"us","latitude":33.94279,"longitude":-118.41004,"reserved":0,"last_update":"0001-01-01T00:00:00Z","name_a2s":"Uncletopia | Los Angeles | 1 | All Maps","protocol":17,"map":"pl_goldrush","folder":"tf","game":"Team Fortress","app_id":440,"player_count":0,"max_players":24,"Bots":0,"server_type":"Dedicated","server_os":"Linux","password":true,"vac":true,"version":"7961495","steam_id":85568392924469991,"keywords":["nocrits","nodmgspread","payload","uncletopia"],"game_id":440,"stv_port":27016,"stv_name":"Uncletopia | Los Angeles | 1 | All Maps | STV","players":null},{"server_id":112,"name":"Uncletopia | Los Angeles | 2 | All Maps","name_short":"lax-2","host":"lax-1.us.uncletopia.com","port":27025,"enabled":true,"region":"us-west","cc":"us","latitude":33.94279,"longitude":-118.41004,"reserved":0,"last_update":"0001-01-01T00:00:00Z","name_a2s":"Uncletopia | Los Angeles | 2 | All Maps","protocol":17,"map":"pl_swiftwater_final1","folder":"tf","game":"Team Fortress","app_id":440,"player_count":22,"max_players":24,"Bots":0,"server_type":"Dedicated","server_os":"Linux","password":true,"vac":true,"version":"7961495","steam_id":85568392924469992,"keywords":["nocrits","nodmgspread","payload","uncletopia"],"game_id":440,"stv_port":27026,"stv_name":"Uncletopia | Los Angeles | 2 | All Maps | STV","players":[{"user_id":409,"name":"Sucsubot","steam_id":76561198106456128,"connected_time":184000000000,"state":"active","ping":90},{"user_id":371,"name":"Eden","steam_id":76561198081284664,"connected_time":3371000000000,"state":"active","ping":51},{"user_id":392,"name":"The Geezer Bandit","steam_id":76561199059733640,"connected_time":1696000000000,"state":"active","ping":54},{"user_id":403,"name":"Stoopnagle","steam_id":76561198011942560,"connected_time":390000000000,"state":"active","ping":66},{"user_id":343,"name":"PROFILE NAME","steam_id":76561199438851854,"connected_time":5934000000000,"state":"active","ping":83},{"user_id":393,"name":"HAT-WEARING™ Maggot Gamer Cat","steam_id":76561197973992705,"connected_time":1668000000000,"state":"active","ping":68},{"user_id":382,"name":"Pyrotek⁴","steam_id":76561198072747672,"connected_time":2177000000000,"state":"active","ping":45},{"user_id":398,"name":"zinnk","steam_id":76561198092081825,"connected_time":995000000000,"state":"active","ping":57},{"user_id":408,"name":"Final Boss","steam_id":76561198006081383,"connected_time":331000000000,"state":"active","ping":53},{"user_id":406,"name":"scrundlebundle","steam_id":76561199209883822,"connected_time":364000000000,"state":"active","ping":127},{"user_id":401,"name":"❤To Lazy❤","steam_id":76561198164211904,"connected_time":473000000000,"state":"active","ping":60},{"user_id":394,"name":"Gabe","steam_id":76561198081153719,"connected_time":1619000000000,"state":"active","ping":61},{"user_id":404,"name":"Noise | ノイズ","steam_id":76561198058706902,"connected_time":387000000000,"state":"active","ping":83},{"user_id":381,"name":"Drake from State Farm","steam_id":76561199069029812,"connected_time":2258000000000,"state":"active","ping":69},{"user_id":330,"name":"Ralph Kramden (Slim Charles)","steam_id":76561197981687895,"connected_time":6933000000000,"state":"active","ping":62},{"user_id":389,"name":"Lolxdloldx","steam_id":76561198136887125,"connected_time":1902000000000,"state":"active","ping":83},{"user_id":390,"name":"V. G. Sunderland","steam_id":76561198161839980,"connected_time":1859000000000,"state":"active","ping":105},{"user_id":396,"name":"Angelmaster","steam_id":76561198815474379,"connected_time":1319000000000,"state":"active","ping":48},{"user_id":342,"name":"Anon","steam_id":76561198109740776,"connected_time":6095000000000,"state":"active","ping":59},{"user_id":374,"name":"wetart","steam_id":76561198043187719,"connected_time":2900000000000,"state":"active","ping":70},{"user_id":373,"name":"lol","steam_id":76561198026491738,"connected_time":3057000000000,"state":"active","ping":61},{"user_id":384,"name":"Silverman_Cam","steam_id":76561198936168937,"connected_time":2001000000000,"state":"active","ping":61}]},{"server_id":324,"name":"Uncletopia | Los Angeles | 3 | All Maps","name_short":"lax-3","host":"lax-1.us.uncletopia.com","port":27035,"enabled":true,"region":"us-west","cc":"us","latitude":33.94279,"longitude":-118.41004,"reserved":0,"last_update":"0001-01-01T00:00:00Z","name_a2s":"Uncletopia | Los Angeles | 3 | All Maps","protocol":17,"map":"cp_altitude","folder":"tf","game":"Team Fortress","app_id":440,"player_count":0,"max_players":24,"Bots":0,"server_type":"Dedicated","server_os":"Linux","password":true,"vac":true,"version":"7961495","steam_id":85568392924510198,"keywords":["cp","nocrits","nodmgspread","uncletopia"],"game_id":440,"stv_port":27036,"stv_name":"Uncletopia | Los Angeles | 3 | All Maps | STV","players":null},{"server_id":25,"name":"Uncletopia | Los Angeles | 4 | Stopwatch","name_short":"lax-4","host":"lax-1.us.uncletopia.com","port":27045,"enabled":true,"region":"us-west","cc":"us","latitude":33.94279,"longitude":-118.41004,"reserved":0,"last_update":"0001-01-01T00:00:00Z","name_a2s":"Uncletopia | Los Angeles | 4 | Stopwatch","protocol":17,"map":"workshop/koth_bagel_rc6.ugc2514036946","folder":"tf","game":"Team Fortress","app_id":440,"player_count":0,"max_players":24,"Bots":0,"server_type":"Dedicated","server_os":"Linux","password":true,"vac":true,"version":"7961495","steam_id":85568392924510199,"keywords":["cp","nocrits","nodmgspread","uncletopia"],"game_id":440,"stv_port":27046,"stv_name":"Uncletopia | Los Angeles | 4 | Stopwatch | STV","players":null},{"server_id":11,"name":"Uncletopia | London | 1 | All Maps","name_short":"lon-1","host":"lon-1.uk.uncletopia.com","port":27015,"enabled":true,"region":"eu","cc":"gb","latitude":51.509865,"longitude":-0.118092,"reserved":0,"last_update":"0001-01-01T00:00:00Z","name_a2s":"Uncletopia | London | 1 | All Maps","protocol":17,"map":"plr_bananabay","folder":"tf","game":"Team Fortress","app_id":440,"player_count":19,"max_players":24,"Bots":0,"server_type":"Dedicated","server_os":"Linux","password":true,"vac":true,"version":"7961495","steam_id":85568392924367362,"keywords":["nocrits","nodmgspread","payload","uncletopia"],"game_id":440,"stv_port":27016,"stv_name":"Uncletopia | London | 1 | All Maps | STV","players":[{"user_id":654,"name":"Joe","steam_id":76561198145639903,"connected_time":116000000000,"state":"active","ping":90},{"user_id":587,"name":"chestnutflea","steam_id":76561198144268690,"connected_time":5590000000000,"state":"active","ping":51},{"user_id":618,"name":"Slifer","steam_id":76561198062255803,"connected_time":2765000000000,"state":"active","ping":69},{"user_id":626,"name":"Taste","steam_id":76561197994506978,"connected_time":2015000000000,"state":"active","ping":51},{"user_id":577,"name":"Yelowchy","steam_id":76561198199416121,"connected_time":5992000000000,"state":"active","ping":66},{"user_id":643,"name":"Lithe","steam_id":76561198097130024,"connected_time":1489000000000,"state":"active","ping":53},{"user_id":620,"name":"Cam","steam_id":76561198321715958,"connected_time":2709000000000,"state":"active","ping":48},{"user_id":653,"name":"VirtueDivision","steam_id":76561199116184558,"connected_time":496000000000,"state":"active","ping":183},{"user_id":608,"name":"remi, she wrote.","steam_id":76561198044045655,"connected_time":3542000000000,"state":"active","ping":85},{"user_id":638,"name":"Collisto","steam_id":76561198023609460,"connected_time":1646000000000,"state":"active","ping":79},{"user_id":641,"name":"Zerosiini","steam_id":76561198113771976,"connected_time":1515000000000,"state":"active","ping":60},{"user_id":651,"name":"Sophia","steam_id":76561198080402340,"connected_time":757000000000,"state":"active","ping":39},{"user_id":647,"name":"MineAGK","steam_id":76561198128372943,"connected_time":1341000000000,"state":"active","ping":144},{"user_id":652,"name":"Shorakyn","steam_id":76561198090574640,"connected_time":752000000000,"state":"active","ping":106},{"user_id":648,"name":"Minimi","steam_id":76561198873850443,"connected_time":1334000000000,"state":"active","ping":45},{"user_id":649,"name":"TEACUPS AND KETTLES","steam_id":76561198083017384,"connected_time":1068000000000,"state":"active","ping":57},{"user_id":644,"name":"The Duke","steam_id":76561198063644325,"connected_time":1485000000000,"state":"active","ping":58},{"user_id":596,"name":"Coololks11","steam_id":76561198093002996,"connected_time":4388000000000,"state":"active","ping":85},{"user_id":585,"name":"gibb (official)","steam_id":76561198074097655,"connected_time":5690000000000,"state":"active","ping":58}]},{"server_id":114,"name":"Uncletopia | London | 2 | All Maps","name_short":"lon-2","host":"lon-1.uk.uncletopia.com","port":27025,"enabled":true,"region":"eu","cc":"gb","latitude":51.509865,"longitude":-0.118092,"reserved":0,"last_update":"0001-01-01T00:00:00Z","name_a2s":"Uncletopia | London | 2 | All Maps","protocol":17,"map":"pl_borneo","folder":"tf","game":"Team Fortress","app_id":440,"player_count":24,"max_players":24,"Bots":0,"server_type":"Dedicated","server_os":"Linux","password":true,"vac":true,"version":"7961495","steam_id":85568392924470941,"keywords":["nocrits","nodmgspread","payload","uncletopia"],"game_id":440,"stv_port":27026,"stv_name":"Uncletopia | London | 2 | All Maps | STV","players":[{"user_id":386,"name":"Qdarks","steam_id":76561198013391340,"connected_time":433000000000,"state":"active","ping":132},{"user_id":390,"name":"Rick Astley Is A F2P?","steam_id":76561199258805660,"connected_time":197000000000,"state":"active","ping":122},{"user_id":381,"name":"fun_father","steam_id":76561199021339887,"connected_time":565000000000,"state":"active","ping":146},{"user_id":382,"name":"Paste","steam_id":76561198139275322,"connected_time":564000000000,"state":"active","ping":67},{"user_id":357,"name":"lawn","steam_id":76561198001243486,"connected_time":2865000000000,"state":"active","ping":45},{"user_id":359,"name":"bricked","steam_id":76561198123562445,"connected_time":2306000000000,"state":"active","ping":42},{"user_id":383,"name":"Slapstick Salami","steam_id":76561198306934345,"connected_time":555000000000,"state":"active","ping":116},{"user_id":379,"name":"Donac Dum","steam_id":76561198064089294,"connected_time":718000000000,"state":"active","ping":53},{"user_id":360,"name":"Kevin Jr.","steam_id":76561198041775029,"connected_time":2260000000000,"state":"active","ping":85},{"user_id":361,"name":"Goobie","steam_id":76561198047375383,"connected_time":1682000000000,"state":"active","ping":54},{"user_id":384,"name":"Sen","steam_id":76561199442459698,"connected_time":530000000000,"state":"active","ping":86},{"user_id":389,"name":"Johnny Debbs","steam_id":76561198049161915,"connected_time":236000000000,"state":"active","ping":67},{"user_id":342,"name":"Hyppy ja liipasin pohjaan :D","steam_id":76561198080669698,"connected_time":4089000000000,"state":"active","ping":98},{"user_id":376,"name":"Bongo Cat","steam_id":76561198240368084,"connected_time":1025000000000,"state":"active","ping":61},{"user_id":367,"name":"Minus-Abinus","steam_id":76561199080630632,"connected_time":1583000000000,"state":"active","ping":168},{"user_id":385,"name":"poleve540","steam_id":76561199024684841,"connected_time":496000000000,"state":"active","ping":137},{"user_id":387,"name":"Farticus","steam_id":76561198060511207,"connected_time":383000000000,"state":"active","ping":60},{"user_id":371,"name":"jones","steam_id":76561198044434971,"connected_time":1437000000000,"state":"active","ping":67},{"user_id":388,"name":"Solima","steam_id":76561198045349099,"connected_time":362000000000,"state":"active","ping":59},{"user_id":391,"name":"JellyParrot","steam_id":76561199190990163,"connected_time":112000000000,"state":"active","ping":142},{"user_id":365,"name":"Infantile Pillock","steam_id":76561198283851362,"connected_time":1612000000000,"state":"active","ping":72},{"user_id":372,"name":"Necro (Monkey Mode)","steam_id":76561198143041756,"connected_time":1416000000000,"state":"active","ping":80},{"user_id":377,"name":"Aphex","steam_id":76561198066273098,"connected_time":918000000000,"state":"active","ping":113},{"user_id":333,"name":"Son Goku","steam_id":76561199383437138,"connected_time":4654000000000,"state":"active","ping":117}]},{"server_id":320,"name":"Uncletopia | London | 3 | All Maps","name_short":"lon-3","host":"lon-1.uk.uncletopia.com","port":27035,"enabled":true,"region":"eu","cc":"gb","latitude":51.509865,"longitude":-0.118092,"reserved":0,"last_update":"0001-01-01T00:00:00Z","name_a2s":"Uncletopia | London | 3 | All Maps","protocol":17,"map":"koth_viaduct","folder":"tf","game":"Team Fortress","app_id":440,"player_count":0,"max_players":24,"Bots":0,"server_type":"Dedicated","server_os":"Linux","password":true,"vac":true,"version":"7961495","steam_id":85568392924510192,"keywords":["cp","nocrits","nodmgspread","uncletopia"],"game_id":440,"stv_port":27036,"stv_name":"Uncletopia | London | 3 | All Maps | STV","players":null},{"server_id":321,"name":"Uncletopia | London | 4 | All Maps","name_short":"lon-4","host":"lon-1.uk.uncletopia.com","port":27045,"enabled":true,"region":"eu","cc":"gb","latitude":51.509865,"longitude":-0.118092,"reserved":0,"last_update":"0001-01-01T00:00:00Z","name_a2s":"Uncletopia | London | 4 | All Maps","protocol":17,"map":"koth_viaduct","folder":"tf","game":"Team Fortress","app_id":440,"player_count":0,"max_players":24,"Bots":0,"server_type":"Dedicated","server_os":"Linux","password":true,"vac":true,"version":"7961495","steam_id":85568392924510193,"keywords":["cp","nocrits","nodmgspread","uncletopia"],"game_id":440,"stv_port":27046,"stv_name":"Uncletopia | London | 4 | All Maps | STV","players":null},{"server_id":21,"name":"Uncletopia | London | 5 | All Maps","name_short":"lon-5","host":"lon-1.uk.uncletopia.com","port":27055,"enabled":true,"region":"eu","cc":"gb","latitude":51.509865,"longitude":-0.118092,"reserved":0,"last_update":"0001-01-01T00:00:00Z","name_a2s":"Uncletopia | London | 5 | All Maps","protocol":17,"map":"koth_viaduct","folder":"tf","game":"Team Fortress","app_id":440,"player_count":0,"max_players":24,"Bots":0,"server_type":"Dedicated","server_os":"Linux","password":true,"vac":true,"version":"7961495","steam_id":85568392924742829,"keywords":["cp","nocrits","nodmgspread","uncletopia"],"game_id":440,"stv_port":27056,"stv_name":"Uncletopia | London | 5 | All Maps | STV","players":null},{"server_id":22,"name":"Uncletopia | London | 6 | All Maps","name_short":"lon-6","host":"lon-1.uk.uncletopia.com","port":27065,"enabled":true,"region":"eu","cc":"gb","latitude":51.509865,"longitude":-0.118092,"reserved":0,"last_update":"0001-01-01T00:00:00Z","name_a2s":"Uncletopia | London | 6 | All Maps","protocol":17,"map":"pl_pier","folder":"tf","game":"Team Fortress","app_id":440,"player_count":22,"max_players":24,"Bots":0,"server_type":"Dedicated","server_os":"Linux","password":true,"vac":true,"version":"7961495","steam_id":85568392924742830,"keywords":["nocrits","nodmgspread","payload","uncletopia"],"game_id":440,"stv_port":27066,"stv_name":"Uncletopia | London | 6 | All Maps | STV","players":[{"user_id":617,"name":"Tomex999","steam_id":76561198049587675,"connected_time":5110000000000,"state":"active","ping":89},{"user_id":656,"name":"Thighjob Maniac","steam_id":76561198194004051,"connected_time":1746000000000,"state":"active","ping":62},{"user_id":660,"name":"Bobirulez","steam_id":76561198009125458,"connected_time":308000000000,"state":"active","ping":74},{"user_id":661,"name":"._.","steam_id":76561198300316801,"connected_time":237000000000,"state":"active","ping":105},{"user_id":647,"name":"bin chilling","steam_id":76561198865388981,"connected_time":2184000000000,"state":"active","ping":109},{"user_id":614,"name":"yuno appreciator","steam_id":76561198083286511,"connected_time":5198000000000,"state":"active","ping":57},{"user_id":631,"name":"god's eepiest girl","steam_id":76561198128327529,"connected_time":4075000000000,"state":"active","ping":45},{"user_id":662,"name":"Sail","steam_id":76561199489440704,"connected_time":4000000000,"state":"spawning","ping":155},{"user_id":657,"name":"[T]aKer","steam_id":76561198001778013,"connected_time":1626000000000,"state":"active","ping":45},{"user_id":608,"name":"Mei","steam_id":76561198363464483,"connected_time":5432000000000,"state":"active","ping":87},{"user_id":654,"name":"Spikejaw Baxter","steam_id":76561198035667332,"connected_time":1998000000000,"state":"active","ping":168},{"user_id":622,"name":"Endi","steam_id":76561198914938199,"connected_time":5011000000000,"state":"active","ping":100},{"user_id":644,"name":"BreadBubbles","steam_id":76561198174332826,"connected_time":2613000000000,"state":"active","ping":72},{"user_id":645,"name":"Economic crisis","steam_id":76561198063562843,"connected_time":2240000000000,"state":"active","ping":66},{"user_id":650,"name":"Arthur","steam_id":76561198066109166,"connected_time":2155000000000,"state":"active","ping":87},{"user_id":651,"name":"Ch4bby","steam_id":76561198058792875,"connected_time":2100000000000,"state":"active","ping":57},{"user_id":606,"name":"vi","steam_id":76561198303147966,"connected_time":5529000000000,"state":"active","ping":52},{"user_id":594,"name":"Marquis de Hoto","steam_id":76561198080687708,"connected_time":6305000000000,"state":"active","ping":73},{"user_id":652,"name":"Hamhouse (xxX PTM Xxx)","steam_id":76561198042795386,"connected_time":2094000000000,"state":"active","ping":156},{"user_id":653,"name":"FOOTBALLJOHN43","steam_id":76561198040300579,"connected_time":2054000000000,"state":"active","ping":48},{"user_id":621,"name":"beebo","steam_id":76561199120277007,"connected_time":5053000000000,"state":"active","ping":52},{"user_id":609,"name":"Bubsy 3D","steam_id":76561197988942314,"connected_time":5365000000000,"state":"active","ping":37}]},{"server_id":40,"name":"Uncletopia | London | 7 | Stopwatch","name_short":"lon-7","host":"lon-1.uk.uncletopia.com","port":27075,"enabled":true,"region":"eu","cc":"gb","latitude":51.509865,"longitude":-0.118092,"reserved":0,"last_update":"0001-01-01T00:00:00Z","name_a2s":"Uncletopia | London | 7 | Stopwatch","protocol":17,"map":"workshop/koth_clearcut_b15.ugc2107050255","folder":"tf","game":"Team Fortress","app_id":440,"player_count":0,"max_players":24,"Bots":0,"server_type":"Dedicated","server_os":"Linux","password":true,"vac":true,"version":"7961495","steam_id":85568392924964314,"keywords":["cp","nocrits","nodmgspread","uncletopia"],"game_id":440,"stv_port":27076,"stv_name":"Uncletopia | London | 7 | Stopwatch | STV","players":null},{"server_id":41,"name":"Uncletopia | London | 8 | Community","name_short":"lon-8","host":"lon-1.uk.uncletopia.com","port":27085,"enabled":true,"region":"eu","cc":"gb","latitude":51.509865,"longitude":-0.118092,"reserved":0,"last_update":"0001-01-01T00:00:00Z","name_a2s":"Uncletopia | London | 8 | Community","protocol":17,"map":"workshop/koth_product_final.ugc454272353","folder":"tf","game":"Team Fortress","app_id":440,"player_count":0,"max_players":24,"Bots":0,"server_type":"Dedicated","server_os":"Linux","password":true,"vac":true,"version":"7961495","steam_id":85568392924964315,"keywords":["cp","nocrits","nodmgspread","uncletopia"],"game_id":440,"stv_port":27086,"stv_name":"Uncletopia | London | 8 | Community | STV","players":null},{"server_id":300,"name":"Uncletopia | Montréal | 1 | One Thousand Uncles","name_short":"mtl-1","host":"mtl-1.ca.uncletopia.com","port":27015,"enabled":true,"region":"us-east","cc":"ca","latitude":45.50889,"longitude":-73.56167,"reserved":0,"last_update":"0001-01-01T00:00:00Z","name_a2s":"","protocol":0,"map":"","folder":"","game":"","app_id":0,"player_count":1,"max_players":0,"Bots":0,"server_type":"","server_os":"","password":false,"vac":false,"version":"","steam_id":0,"keywords":null,"game_id":0,"stv_port":0,"stv_name":"","players":[{"user_id":199,"name":"Kenny Gaming","steam_id":76561199382783363,"connected_time":237000000000,"state":"active","ping":71}]},{"server_id":301,"name":"Uncletopia | Montréal | 2 | One Thousand Uncles","name_short":"mtl-2","host":"mtl-1.ca.uncletopia.com","port":27025,"enabled":true,"region":"us-east","cc":"ca","latitude":45.50889,"longitude":-73.56167,"reserved":0,"last_update":"0001-01-01T00:00:00Z","name_a2s":"","protocol":0,"map":"","folder":"","game":"","app_id":0,"player_count":7,"max_players":0,"Bots":0,"server_type":"","server_os":"","password":false,"vac":false,"version":"","steam_id":0,"keywords":null,"game_id":0,"stv_port":0,"stv_name":"","players":[{"user_id":243,"name":"DoggyDogWhirl","steam_id":76561198042841344,"connected_time":346000000000,"state":"active","ping":51},{"user_id":244,"name":"sloppymcfloppy","steam_id":76561198197655439,"connected_time":125000000000,"state":"active","ping":76},{"user_id":241,"name":"Spunch Bopp Comet","steam_id":76561198017223597,"connected_time":646000000000,"state":"active","ping":65},{"user_id":242,"name":"Pie™","steam_id":76561198158312625,"connected_time":642000000000,"state":"active","ping":110},{"user_id":183,"name":"BB Lorexav","steam_id":76561198207565988,"connected_time":5980000000000,"state":"active","ping":81},{"user_id":222,"name":"Es","steam_id":76561198263739654,"connected_time":1426000000000,"state":"active","ping":55},{"user_id":245,"name":"Kickpuncher","steam_id":76561198121528357,"connected_time":12000000000,"state":"spawning","ping":61}]},{"server_id":302,"name":"Uncletopia | Montréal | 3 | One Thousand Uncles","name_short":"mtl-3","host":"mtl-1.ca.uncletopia.com","port":27035,"enabled":true,"region":"us-east","cc":"ca","latitude":45.50889,"longitude":-73.56167,"reserved":0,"last_update":"0001-01-01T00:00:00Z","name_a2s":"","protocol":0,"map":"","folder":"","game":"","app_id":0,"player_count":0,"max_players":0,"Bots":0,"server_type":"","server_os":"","password":false,"vac":false,"version":"","steam_id":0,"keywords":null,"game_id":0,"stv_port":0,"stv_name":"","players":null},{"server_id":13,"name":"Uncletopia | New York City | 1 | All Maps","name_short":"nyc-1","host":"nyc-1.us.uncletopia.com","port":27015,"enabled":true,"region":"us-east","cc":"us","latitude":40.73061,"longitude":-73.93524,"reserved":0,"last_update":"0001-01-01T00:00:00Z","name_a2s":"Uncletopia | New York City | 1 | All Maps","protocol":17,"map":"koth_cascade","folder":"tf","game":"Team Fortress","app_id":440,"player_count":24,"max_players":24,"Bots":0,"server_type":"Dedicated","server_os":"Linux","password":true,"vac":true,"version":"7961495","steam_id":85568392924469993,"keywords":["cp","nocrits","nodmgspread","uncletopia"],"game_id":440,"stv_port":27016,"stv_name":"Uncletopia | New York City | 1 | All Maps | STV","players":[{"user_id":453,"name":"Femboy Medic Main","steam_id":76561198268225109,"connected_time":5095000000000,"state":"active","ping":82},{"user_id":483,"name":"Typh","steam_id":76561198315344079,"connected_time":2795000000000,"state":"active","ping":73},{"user_id":465,"name":"ndvr","steam_id":76561199379200102,"connected_time":4056000000000,"state":"active","ping":51},{"user_id":493,"name":"roman","steam_id":76561198170066797,"connected_time":2172000000000,"state":"active","ping":56},{"user_id":479,"name":"AlmondMilk","steam_id":76561198151229725,"connected_time":3205000000000,"state":"active","ping":47},{"user_id":452,"name":"Raine","steam_id":76561198055761141,"connected_time":5176000000000,"state":"active","ping":79},{"user_id":502,"name":"Thats one spicy meat'a'ball","steam_id":76561199230265354,"connected_time":972000000000,"state":"active","ping":76},{"user_id":401,"name":"GummybearKillr","steam_id":76561198031235750,"connected_time":7678000000000,"state":"active","ping":57},{"user_id":438,"name":"lexi","steam_id":76561198176299759,"connected_time":5858000000000,"state":"active","ping":94},{"user_id":449,"name":"Naffu","steam_id":76561198036945403,"connected_time":5409000000000,"state":"active","ping":57},{"user_id":490,"name":"dumbledore, the head master","steam_id":76561198424954118,"connected_time":2399000000000,"state":"active","ping":90},{"user_id":495,"name":"BeerPowder","steam_id":76561198058129400,"connected_time":2100000000000,"state":"active","ping":57},{"user_id":507,"name":"GooBer","steam_id":76561198402241505,"connected_time":267000000000,"state":"active","ping":89},{"user_id":508,"name":"playguy carter","steam_id":76561198080679337,"connected_time":140000000000,"state":"active","ping":68},{"user_id":486,"name":"Mirelas","steam_id":76561198839360212,"connected_time":2477000000000,"state":"active","ping":71},{"user_id":506,"name":"weeabruh","steam_id":76561198272083035,"connected_time":539000000000,"state":"active","ping":57},{"user_id":498,"name":"phungo","steam_id":76561198110430494,"connected_time":1336000000000,"state":"active","ping":52},{"user_id":481,"name":"filthy white trash","steam_id":76561198154176367,"connected_time":3110000000000,"state":"active","ping":84},{"user_id":467,"name":"Jaydyn","steam_id":76561198140326797,"connected_time":4002000000000,"state":"active","ping":66},{"user_id":503,"name":"Uwilson","steam_id":76561198416263102,"connected_time":875000000000,"state":"active","ping":85},{"user_id":504,"name":"Descenso","steam_id":76561198059290812,"connected_time":854000000000,"state":"active","ping":128},{"user_id":500,"name":"Urge-to-Splurge","steam_id":76561198367276158,"connected_time":1101000000000,"state":"active","ping":69},{"user_id":497,"name":"The Jar","steam_id":76561198146013385,"connected_time":1454000000000,"state":"active","ping":63},{"user_id":488,"name":"xochiquetzal","steam_id":76561199064278937,"connected_time":2429000000000,"state":"active","ping":76}]},{"server_id":14,"name":"Uncletopia | New York City | 2 | All Maps","name_short":"nyc-2","host":"nyc-1.us.uncletopia.com","port":27025,"enabled":true,"region":"us-east","cc":"us","latitude":40.73061,"longitude":-73.93524,"reserved":0,"last_update":"0001-01-01T00:00:00Z","name_a2s":"Uncletopia | New York City | 2 | All Maps","protocol":17,"map":"cp_process_final","folder":"tf","game":"Team Fortress","app_id":440,"player_count":24,"max_players":24,"Bots":0,"server_type":"Dedicated","server_os":"Linux","password":true,"vac":true,"version":"7961495","steam_id":85568392924469994,"keywords":["cp","nocrits","nodmgspread","uncletopia"],"game_id":440,"stv_port":27026,"stv_name":"Uncletopia | New York City | 2 | All Maps | STV","players":[{"user_id":192,"name":"Big_Beans888","steam_id":76561198100822287,"connected_time":4399000000000,"state":"active","ping":129},{"user_id":203,"name":"Vee (very cool)","steam_id":76561198330432889,"connected_time":3759000000000,"state":"active","ping":79},{"user_id":227,"name":"GlingGlop95","steam_id":76561198386865528,"connected_time":2190000000000,"state":"active","ping":86},{"user_id":222,"name":"Truffleoil","steam_id":76561198114689041,"connected_time":2465000000000,"state":"active","ping":48},{"user_id":198,"name":"Weebmcgee","steam_id":76561198081231557,"connected_time":3901000000000,"state":"active","ping":59},{"user_id":240,"name":"[CCP] franc | montuga;com","steam_id":76561198417807155,"connected_time":1204000000000,"state":"active","ping":46},{"user_id":218,"name":"bigSMALL","steam_id":76561198964101426,"connected_time":2801000000000,"state":"active","ping":41},{"user_id":169,"name":"Tea Enthusiast","steam_id":76561198185583925,"connected_time":5458000000000,"state":"active","ping":41},{"user_id":238,"name":"p4ka","steam_id":76561198315291317,"connected_time":1637000000000,"state":"active","ping":60},{"user_id":207,"name":"shaderoses","steam_id":76561198070800500,"connected_time":3545000000000,"state":"active","ping":53},{"user_id":214,"name":"legendgamer","steam_id":76561199027370935,"connected_time":2986000000000,"state":"active","ping":63},{"user_id":243,"name":"The Stallion","steam_id":76561198005301468,"connected_time":901000000000,"state":"active","ping":92},{"user_id":259,"name":"Pomegranate88","steam_id":76561198056385456,"connected_time":744000000000,"state":"active","ping":59},{"user_id":260,"name":"retinz","steam_id":76561198135563495,"connected_time":744000000000,"state":"active","ping":61},{"user_id":193,"name":"Avo","steam_id":76561197993340494,"connected_time":4394000000000,"state":"active","ping":76},{"user_id":226,"name":"Fish Fisherman","steam_id":76561198018656022,"connected_time":2199000000000,"state":"active","ping":58},{"user_id":197,"name":"Amnesiac","steam_id":76561199045608372,"connected_time":4110000000000,"state":"active","ping":59},{"user_id":262,"name":"BirdieNuke","steam_id":76561198244538150,"connected_time":729000000000,"state":"active","ping":65},{"user_id":263,"name":"freyja","steam_id":76561198249206656,"connected_time":726000000000,"state":"active","ping":75},{"user_id":205,"name":"Pango","steam_id":76561198069811545,"connected_time":3570000000000,"state":"active","ping":66},{"user_id":219,"name":"Decapitation Station","steam_id":76561198201796098,"connected_time":2782000000000,"state":"active","ping":95},{"user_id":261,"name":"ma0re","steam_id":76561199231971506,"connected_time":742000000000,"state":"active","ping":50},{"user_id":209,"name":"Splnter","steam_id":76561198874186629,"connected_time":3517000000000,"state":"active","ping":62},{"user_id":239,"name":"Lancer Fan Club","steam_id":76561198355495948,"connected_time":1389000000000,"state":"active","ping":77}]},{"server_id":15,"name":"Uncletopia | New York City | 3 | Stopwatch","name_short":"nyc-3","host":"nyc-1.us.uncletopia.com","port":27035,"enabled":true,"region":"us-east","cc":"us","latitude":40.73061,"longitude":-73.93524,"reserved":0,"last_update":"0001-01-01T00:00:00Z","name_a2s":"Uncletopia | New York City | 3 | Stopwatch","protocol":17,"map":"workshop/cp_process_f12.ugc2302948105","folder":"tf","game":"Team Fortress","app_id":440,"player_count":24,"max_players":24,"Bots":0,"server_type":"Dedicated","server_os":"Linux","password":true,"vac":true,"version":"7961495","steam_id":85568392924742820,"keywords":["cp","nocrits","nodmgspread","uncletopia"],"game_id":440,"stv_port":27036,"stv_name":"Uncletopia | New York City | 3 | Stopwatch | STV","players":[{"user_id":64,"name":"breakcore enjoyer","steam_id":76561198031400151,"connected_time":1647000000000,"state":"active","ping":45},{"user_id":67,"name":"Bogg","steam_id":76561198111417325,"connected_time":1615000000000,"state":"active","ping":84},{"user_id":95,"name":"NeoTenico","steam_id":76561198025938411,"connected_time":456000000000,"state":"active","ping":56},{"user_id":87,"name":"MOVEMENTPLAYER bladeefan12","steam_id":76561198274959371,"connected_time":873000000000,"state":"active","ping":55},{"user_id":98,"name":"jaydn","steam_id":76561198086615208,"connected_time":324000000000,"state":"active","ping":60},{"user_id":101,"name":"mountainkug","steam_id":76561199491802535,"connected_time":149000000000,"state":"active","ping":61},{"user_id":70,"name":"HUESO","steam_id":76561198276383681,"connected_time":1533000000000,"state":"active","ping":75},{"user_id":103,"name":"ArcticRescue","steam_id":76561198055362404,"connected_time":36000000000,"state":"active","ping":50},{"user_id":91,"name":"Joe the Hooligan","steam_id":76561198814429079,"connected_time":634000000000,"state":"active","ping":57},{"user_id":104,"name":"Detective Naoto","steam_id":76561198844310905,"connected_time":14000000000,"state":"spawning","ping":203},{"user_id":21,"name":"THE Grapist","steam_id":76561198069648668,"connected_time":3332000000000,"state":"active","ping":79},{"user_id":24,"name":"Rated_C","steam_id":76561199226478414,"connected_time":3160000000000,"state":"active","ping":132},{"user_id":65,"name":"msay","steam_id":76561198170888029,"connected_time":1635000000000,"state":"active","ping":72},{"user_id":92,"name":"Gluestick","steam_id":76561199013430308,"connected_time":600000000000,"state":"active","ping":108},{"user_id":94,"name":"㋛ countblanc","steam_id":76561197993171771,"connected_time":515000000000,"state":"active","ping":59},{"user_id":89,"name":"Spiral Mountain","steam_id":76561198058683715,"connected_time":769000000000,"state":"active","ping":67},{"user_id":73,"name":"GRIM GAMING","steam_id":76561198107491637,"connected_time":1517000000000,"state":"active","ping":77},{"user_id":85,"name":"resetter","steam_id":76561199130954509,"connected_time":979000000000,"state":"active","ping":52},{"user_id":90,"name":"bobbymcbobington","steam_id":76561199089411172,"connected_time":748000000000,"state":"active","ping":122},{"user_id":83,"name":"an autumn themed spy","steam_id":76561198082987296,"connected_time":1051000000000,"state":"active","ping":54},{"user_id":97,"name":"Alexthegreat","steam_id":76561197996796222,"connected_time":449000000000,"state":"active","ping":47},{"user_id":86,"name":"Foreman Spike","steam_id":76561198195420449,"connected_time":972000000000,"state":"active","ping":79},{"user_id":76,"name":"10 years in the joint","steam_id":76561198230849616,"connected_time":1464000000000,"state":"active","ping":180},{"user_id":93,"name":"Fairchild Republic A-10 Thndrbl","steam_id":76561199038043360,"connected_time":586000000000,"state":"active","ping":76}]},{"server_id":16,"name":"Uncletopia | New York City | 4 | Community","name_short":"nyc-4","host":"nyc-1.us.uncletopia.com","port":27045,"enabled":true,"region":"us-east","cc":"us","latitude":40.73061,"longitude":-73.93524,"reserved":0,"last_update":"0001-01-01T00:00:00Z","name_a2s":"Uncletopia | New York City | 4 | Community","protocol":17,"map":"workshop/pl_fifthcurve_rc1.ugc648227046","folder":"tf","game":"Team Fortress","app_id":440,"player_count":5,"max_players":24,"Bots":0,"server_type":"Dedicated","server_os":"Linux","password":true,"vac":true,"version":"7961495","steam_id":85568392924742821,"keywords":["nocrits","nodmgspread","payload","uncletopia"],"game_id":440,"stv_port":27046,"stv_name":"Uncletopia | New York City | 4 | Community | STV","players":[{"user_id":31,"name":"Sentry Gun On Steroids","steam_id":76561199232841314,"connected_time":3000000000,"state":"spawning","ping":62},{"user_id":17,"name":"Big Milk","steam_id":76561198066904836,"connected_time":1652000000000,"state":"active","ping":111},{"user_id":18,"name":"TheSmolPopato","steam_id":76561199076606348,"connected_time":1599000000000,"state":"active","ping":74},{"user_id":19,"name":"Varie","steam_id":76561199454930210,"connected_time":1290000000000,"state":"active","ping":88},{"user_id":24,"name":"Greydman24","steam_id":76561199006851250,"connected_time":1231000000000,"state":"active","ping":78}]},{"server_id":142,"name":"Uncletopia | São Paulo | 1 | All Maps","name_short":"sao-1","host":"sao-1.br.uncletopia.com","port":27015,"enabled":true,"region":"sa","cc":"br","latitude":-23.533773,"longitude":-46.62529,"reserved":0,"last_update":"0001-01-01T00:00:00Z","name_a2s":"Uncletopia | São Paulo | 1 | All Maps","protocol":17,"map":"koth_viaduct","folder":"tf","game":"Team Fortress","app_id":440,"player_count":0,"max_players":24,"Bots":0,"server_type":"Dedicated","server_os":"Linux","password":true,"vac":true,"version":"7961495","steam_id":85568392924469996,"keywords":["cp","nocrits","nodmgspread","uncletopia"],"game_id":440,"stv_port":27016,"stv_name":"Uncletopia | São Paulo | 1 | All Maps | STV","players":null},{"server_id":143,"name":"Uncletopia | São Paulo | 2 | Community","name_short":"sao-2","host":"sao-2.br.uncletopia.com","port":27015,"enabled":true,"region":"sa","cc":"br","latitude":-23.533773,"longitude":-46.62529,"reserved":0,"last_update":"0001-01-01T00:00:00Z","name_a2s":"Uncletopia | São Paulo | 2 | Community","protocol":17,"map":"workshop/koth_slaughter_rc1.ugc1712845210","folder":"tf","game":"Team Fortress","app_id":440,"player_count":0,"max_players":24,"Bots":0,"server_type":"Dedicated","server_os":"Linux","password":true,"vac":true,"version":"7961495","steam_id":85568392924485349,"keywords":["cp","nocrits","nodmgspread","uncletopia"],"game_id":440,"stv_port":27016,"stv_name":"Uncletopia | São Paulo | 2 | Community | STV","players":null},{"server_id":7,"name":"Uncletopia | Seattle | 1 | All Maps","name_short":"sea-1","host":"sea-1.us.uncletopia.com","port":27015,"enabled":true,"region":"us-west","cc":"us","latitude":47.608013,"longitude":-122.33517,"reserved":0,"last_update":"0001-01-01T00:00:00Z","name_a2s":"Uncletopia | Seattle | 1 | All Maps","protocol":17,"map":"cp_mountainlab","folder":"tf","game":"Team Fortress","app_id":440,"player_count":24,"max_players":24,"Bots":0,"server_type":"Dedicated","server_os":"Linux","password":true,"vac":true,"version":"7961495","steam_id":85568392924469997,"keywords":["cp","nocrits","nodmgspread","uncletopia"],"game_id":440,"stv_port":27016,"stv_name":"Uncletopia | Seattle | 1 | All Maps | STV","players":[{"user_id":397,"name":"Sentry Gun (they/them)","steam_id":76561198060846419,"connected_time":2903000000000,"state":"active","ping":47},{"user_id":410,"name":"Soundbyte_","steam_id":76561198173284173,"connected_time":1198000000000,"state":"active","ping":30},{"user_id":382,"name":"PJROCK101","steam_id":76561198070616561,"connected_time":4333000000000,"state":"active","ping":50},{"user_id":340,"name":"James The Juicer","steam_id":76561198153248257,"connected_time":7286000000000,"state":"active","ping":49},{"user_id":425,"name":"ShiningForce","steam_id":76561198026039048,"connected_time":85000000000,"state":"active","ping":56},{"user_id":402,"name":"ethan (real)","steam_id":76561198128868891,"connected_time":2700000000000,"state":"active","ping":47},{"user_id":389,"name":"Sudsen","steam_id":76561198370603787,"connected_time":3597000000000,"state":"active","ping":89},{"user_id":380,"name":"goofy goober","steam_id":76561199024079388,"connected_time":4612000000000,"state":"active","ping":46},{"user_id":417,"name":"evilOlive","steam_id":76561198106222025,"connected_time":922000000000,"state":"active","ping":81},{"user_id":424,"name":"Dapper","steam_id":76561198103189993,"connected_time":293000000000,"state":"active","ping":88},{"user_id":387,"name":"ed","steam_id":76561198080475712,"connected_time":3614000000000,"state":"active","ping":64},{"user_id":418,"name":"Manfred von Richthofen","steam_id":76561198881106202,"connected_time":918000000000,"state":"active","ping":111},{"user_id":404,"name":"benji","steam_id":76561198084417967,"connected_time":2012000000000,"state":"active","ping":52},{"user_id":358,"name":"monke12344","steam_id":76561199274757725,"connected_time":6148000000000,"state":"active","ping":91},{"user_id":419,"name":"Melly","steam_id":76561198045867175,"connected_time":893000000000,"state":"active","ping":74},{"user_id":393,"name":"thunderous prophet","steam_id":76561198131166135,"connected_time":3123000000000,"state":"active","ping":40},{"user_id":422,"name":"fungi","steam_id":76561198169755734,"connected_time":661000000000,"state":"active","ping":61},{"user_id":420,"name":"teleport goblin 2","steam_id":76561198882404753,"connected_time":860000000000,"state":"active","ping":100},{"user_id":423,"name":"toes","steam_id":76561198221151676,"connected_time":640000000000,"state":"active","ping":59},{"user_id":421,"name":"zuma deluxe","steam_id":76561198059041027,"connected_time":830000000000,"state":"active","ping":50},{"user_id":408,"name":"Cheezbeargur","steam_id":76561198164702899,"connected_time":1697000000000,"state":"active","ping":68},{"user_id":416,"name":"Spicy Chicken","steam_id":76561198074209737,"connected_time":945000000000,"state":"active","ping":91},{"user_id":415,"name":"Meepster","steam_id":76561198146305159,"connected_time":946000000000,"state":"active","ping":59},{"user_id":386,"name":"Owner of Serial Experiments Lai","steam_id":76561198160513092,"connected_time":3671000000000,"state":"active","ping":142}]},{"server_id":119,"name":"Uncletopia | Seattle | 2 | All Maps","name_short":"sea-2","host":"sea-1.us.uncletopia.com","port":27025,"enabled":true,"region":"us-west","cc":"us","latitude":47.608013,"longitude":-122.33517,"reserved":0,"last_update":"0001-01-01T00:00:00Z","name_a2s":"Uncletopia | Seattle | 2 | All Maps","protocol":17,"map":"pl_pier","folder":"tf","game":"Team Fortress","app_id":440,"player_count":18,"max_players":24,"Bots":0,"server_type":"Dedicated","server_os":"Linux","password":true,"vac":true,"version":"7961495","steam_id":85568392924469998,"keywords":["nocrits","nodmgspread","payload","uncletopia"],"game_id":440,"stv_port":27026,"stv_name":"Uncletopia | Seattle | 2 | All Maps | STV","players":[{"user_id":132,"name":"Fallout 4 for xbox one","steam_id":76561198824691581,"connected_time":1066000000000,"state":"active","ping":65},{"user_id":140,"name":"FishQueen's Advisor","steam_id":76561198728548389,"connected_time":724000000000,"state":"active","ping":56},{"user_id":141,"name":"Ketaboi Fox | Streaming","steam_id":76561198915758702,"connected_time":172000000000,"state":"active","ping":37},{"user_id":133,"name":"cob","steam_id":76561198040642125,"connected_time":1026000000000,"state":"active","ping":60},{"user_id":123,"name":"󠁳","steam_id":76561198200210289,"connected_time":1887000000000,"state":"active","ping":67},{"user_id":134,"name":"Mk","steam_id":76561198139790822,"connected_time":1006000000000,"state":"active","ping":122},{"user_id":67,"name":"IRUMBLERI","steam_id":76561198285541599,"connected_time":5283000000000,"state":"active","ping":61},{"user_id":119,"name":"big sister gaming","steam_id":76561198325980914,"connected_time":2026000000000,"state":"active","ping":168},{"user_id":135,"name":"ｇｏｏｂｓ","steam_id":76561198041331272,"connected_time":946000000000,"state":"active","ping":60},{"user_id":99,"name":"Villchip","steam_id":76561198198599982,"connected_time":3113000000000,"state":"active","ping":45},{"user_id":142,"name":"racist.randy2008","steam_id":76561198063533082,"connected_time":88000000000,"state":"active","ping":37},{"user_id":120,"name":"Bige Rone","steam_id":76561198066718191,"connected_time":1938000000000,"state":"active","ping":44},{"user_id":138,"name":"Mr.Bones","steam_id":76561198205170595,"connected_time":821000000000,"state":"active","ping":44},{"user_id":105,"name":"dirty30","steam_id":76561198021226566,"connected_time":3005000000000,"state":"active","ping":42},{"user_id":106,"name":"Shrimps","steam_id":76561198983016709,"connected_time":2964000000000,"state":"active","ping":57},{"user_id":122,"name":"vareh","steam_id":76561197993190926,"connected_time":1921000000000,"state":"active","ping":59},{"user_id":143,"name":"❤[S'more]❤","steam_id":76561198817361963,"connected_time":18000000000,"state":"spawning","ping":65},{"user_id":136,"name":"Havi","steam_id":76561198197832829,"connected_time":926000000000,"state":"active","ping":50}]},{"server_id":406,"name":"Uncletopia | Seattle | 3 | Stopwatch","name_short":"sea-3","host":"sea-1.us.uncletopia.com","port":27035,"enabled":true,"region":"us-west","cc":"us","latitude":47.608013,"longitude":-122.33517,"reserved":0,"last_update":"0001-01-01T00:00:00Z","name_a2s":"Uncletopia | Seattle | 3 | Stopwatch","protocol":17,"map":"pl_pier","folder":"tf","game":"Team Fortress","app_id":440,"player_count":0,"max_players":24,"Bots":0,"server_type":"Dedicated","server_os":"Linux","password":true,"vac":true,"version":"7961495","steam_id":85568392924515217,"keywords":["nocrits","nodmgspread","payload","uncletopia"],"game_id":440,"stv_port":27036,"stv_name":"Uncletopia | Seattle | 3 | Stopwatch | STV","players":null},{"server_id":17,"name":"Uncletopia | San Francisco | 1 | All Maps","name_short":"sfo-1","host":"sfo-1.us.uncletopia.com","port":27015,"enabled":true,"region":"us-west","cc":"us","latitude":37.77397,"longitude":-122.4313,"reserved":0,"last_update":"0001-01-01T00:00:00Z","name_a2s":"Uncletopia | San Francisco | 1 | All Maps","protocol":17,"map":"koth_highpass","folder":"tf","game":"Team Fortress","app_id":440,"player_count":21,"max_players":24,"Bots":0,"server_type":"Dedicated","server_os":"Linux","password":true,"vac":true,"version":"7961495","steam_id":85568392924469999,"keywords":["cp","nocrits","nodmgspread","uncletopia"],"game_id":440,"stv_port":27016,"stv_name":"Uncletopia | San Francisco | 1 | All Maps | STV","players":[{"user_id":12,"name":"asm_ghost","steam_id":76561199205363547,"connected_time":1496000000000,"state":"active","ping":90},{"user_id":30,"name":"Lucky","steam_id":76561198124910662,"connected_time":452000000000,"state":"active","ping":59},{"user_id":14,"name":"HailedClown","steam_id":76561199225239977,"connected_time":1384000000000,"state":"active","ping":72},{"user_id":16,"name":"SolarusD","steam_id":76561198029279861,"connected_time":977000000000,"state":"active","ping":44},{"user_id":31,"name":"[D3RP] Meserion","steam_id":76561198038471890,"connected_time":211000000000,"state":"active","ping":112},{"user_id":18,"name":"Poke Banana","steam_id":76561198059780866,"connected_time":872000000000,"state":"active","ping":101},{"user_id":19,"name":"Coolbreadguy","steam_id":76561198139544202,"connected_time":764000000000,"state":"active","ping":56},{"user_id":20,"name":"Trace","steam_id":76561198009486000,"connected_time":751000000000,"state":"active","ping":110},{"user_id":21,"name":"MithStyck","steam_id":76561198071538489,"connected_time":651000000000,"state":"active","ping":88},{"user_id":22,"name":"Spooko","steam_id":76561198838582643,"connected_time":642000000000,"state":"active","ping":118},{"user_id":32,"name":"Blitzoetic","steam_id":76561198053239412,"connected_time":204000000000,"state":"active","ping":64},{"user_id":24,"name":"Clorox Chugger 69","steam_id":76561198049508548,"connected_time":632000000000,"state":"active","ping":65},{"user_id":25,"name":"flarifier","steam_id":76561198315072848,"connected_time":618000000000,"state":"active","ping":103},{"user_id":37,"name":"Chef","steam_id":76561198037041957,"connected_time":7000000000,"state":"spawning","ping":249},{"user_id":28,"name":"yeetyfreety","steam_id":76561198882735886,"connected_time":558000000000,"state":"active","ping":90},{"user_id":29,"name":"MisterT","steam_id":76561198079868873,"connected_time":552000000000,"state":"active","ping":50},{"user_id":34,"name":"Fish Lambert","steam_id":76561198098279668,"connected_time":96000000000,"state":"active","ping":76},{"user_id":35,"name":"(Speaks in Spanish)","steam_id":76561198198704538,"connected_time":82000000000,"state":"active","ping":55},{"user_id":36,"name":"bible camp victim","steam_id":76561198370753110,"connected_time":68000000000,"state":"active","ping":55},{"user_id":38,"name":"mafia is mafia","steam_id":76561198042574722,"connected_time":2000000000,"state":"spawning","ping":50},{"user_id":39,"name":"Real","steam_id":76561198405830028,"connected_time":2000000000,"state":"spawning","ping":51}]},{"server_id":18,"name":"Uncletopia | San Francisco | 2 | All Maps","name_short":"sfo-2","host":"sfo-1.us.uncletopia.com","port":27025,"enabled":true,"region":"us-west","cc":"us","latitude":37.77397,"longitude":-122.4313,"reserved":0,"last_update":"0001-01-01T00:00:00Z","name_a2s":"Uncletopia | San Francisco | 2 | All Maps","protocol":17,"map":"cp_snakewater_final1","folder":"tf","game":"Team Fortress","app_id":440,"player_count":0,"max_players":24,"Bots":0,"server_type":"Dedicated","server_os":"Linux","password":true,"vac":true,"version":"7961495","steam_id":85568392924470000,"keywords":["cp","nocrits","nodmgspread","uncletopia"],"game_id":440,"stv_port":27026,"stv_name":"Uncletopia | San Francisco | 2 | All Maps | STV","players":null},{"server_id":19,"name":"Uncletopia | San Francisco | 3 | Stopwatch","name_short":"sfo-3","host":"sfo-1.us.uncletopia.com","port":27035,"enabled":true,"region":"us-west","cc":"us","latitude":37.77397,"longitude":-122.4313,"reserved":0,"last_update":"0001-01-01T00:00:00Z","name_a2s":"Uncletopia | San Francisco | 3 | Stopwatch","protocol":17,"map":"cp_process_final","folder":"tf","game":"Team Fortress","app_id":440,"player_count":0,"max_players":24,"Bots":0,"server_type":"Dedicated","server_os":"Linux","password":true,"vac":true,"version":"7961495","steam_id":85568392924742824,"keywords":["cp","nocrits","nodmgspread","uncletopia"],"game_id":440,"stv_port":27036,"stv_name":"Uncletopia | San Francisco | 3 | Stopwatch | STV","players":null},{"server_id":20,"name":"Uncletopia | San Francisco | 4 | Community","name_short":"sfo-4","host":"sfo-1.us.uncletopia.com","port":27045,"enabled":true,"region":"us-west","cc":"us","latitude":37.77397,"longitude":-122.4313,"reserved":0,"last_update":"0001-01-01T00:00:00Z","name_a2s":"Uncletopia | San Francisco | 4 | Community","protocol":17,"map":"workshop/koth_product_final.ugc454272353","folder":"tf","game":"Team Fortress","app_id":440,"player_count":0,"max_players":24,"Bots":0,"server_type":"Dedicated","server_os":"Linux","password":true,"vac":true,"version":"7961495","steam_id":85568392924742826,"keywords":["cp","nocrits","nodmgspread","uncletopia"],"game_id":440,"stv_port":27046,"stv_name":"Uncletopia | San Francisco | 4 | Community | STV","players":null},{"server_id":141,"name":"Uncletopia | Sydney | 1 | All Maps","name_short":"syd-1","host":"syd-1.au.uncletopia.com","port":27015,"enabled":true,"region":"au","cc":"au","latitude":-33.865143,"longitude":151.2099,"reserved":0,"last_update":"0001-01-01T00:00:00Z","name_a2s":"Uncletopia | Sydney | 1 | All Maps","protocol":17,"map":"koth_viaduct","folder":"tf","game":"Team Fortress","app_id":440,"player_count":0,"max_players":24,"Bots":0,"server_type":"Dedicated","server_os":"Linux","password":true,"vac":true,"version":"7961495","steam_id":85568392924470001,"keywords":["cp","nocrits","nodmgspread","uncletopia"],"game_id":440,"stv_port":27016,"stv_name":"Uncletopia | Sydney | 1 | All Maps | STV","players":null},{"server_id":123,"name":"Uncletopia | Sydney | 2 | All Maps","name_short":"syd-2","host":"syd-1.au.uncletopia.com","port":27025,"enabled":true,"region":"au","cc":"au","latitude":-33.865143,"longitude":151.2099,"reserved":0,"last_update":"0001-01-01T00:00:00Z","name_a2s":"Uncletopia | Sydney | 2 | All Maps","protocol":17,"map":"koth_cascade","folder":"tf","game":"Team Fortress","app_id":440,"player_count":0,"max_players":24,"Bots":0,"server_type":"Dedicated","server_os":"Linux","password":true,"vac":true,"version":"7961495","steam_id":85568392924470002,"keywords":["cp","nocrits","nodmgspread","uncletopia"],"game_id":440,"stv_port":27026,"stv_name":"Uncletopia | Sydney | 2 | All Maps | STV","players":null},{"server_id":395,"name":"Uncletopia | Sydney | 3 | All Maps","name_short":"syd-3","host":"syd-1.au.uncletopia.com","port":27035,"enabled":true,"region":"au","cc":"au","latitude":-33.865143,"longitude":151.2099,"reserved":0,"last_update":"0001-01-01T00:00:00Z","name_a2s":"Uncletopia | Sydney | 3 | All Maps","protocol":17,"map":"pl_frontier_final","folder":"tf","game":"Team Fortress","app_id":440,"player_count":0,"max_players":24,"Bots":0,"server_type":"Dedicated","server_os":"Linux","password":true,"vac":true,"version":"7961495","steam_id":85568392925194467,"keywords":["nocrits","nodmgspread","payload","uncletopia"],"game_id":440,"stv_port":27036,"stv_name":"Uncletopia | Sydney | 3 | All Maps | STV","players":null},{"server_id":396,"name":"Uncletopia | Sydney | 4 | All Maps","name_short":"syd-4","host":"syd-1.au.uncletopia.com","port":27045,"enabled":true,"region":"au","cc":"au","latitude":-33.865143,"longitude":151.2099,"reserved":0,"last_update":"0001-01-01T00:00:00Z","name_a2s":"Uncletopia | Sydney | 4 | All Maps","protocol":17,"map":"koth_lakeside_final","folder":"tf","game":"Team Fortress","app_id":440,"player_count":0,"max_players":24,"Bots":0,"server_type":"Dedicated","server_os":"Linux","password":true,"vac":true,"version":"7961495","steam_id":85568392925397958,"keywords":["cp","nocrits","nodmgspread","uncletopia"],"game_id":440,"stv_port":27046,"stv_name":"Uncletopia | Sydney | 4 | All Maps | STV","players":null},{"server_id":58,"name":"Uncletopia | Sydney | 5 | Stopwatch","name_short":"syd-5","host":"syd-1.au.uncletopia.com","port":27055,"enabled":true,"region":"au","cc":"au","latitude":-33.865143,"longitude":151.2099,"reserved":0,"last_update":"0001-01-01T00:00:00Z","name_a2s":"Uncletopia | Sydney | 5 | Stopwatch","protocol":17,"map":"pl_frontier_final","folder":"tf","game":"Team Fortress","app_id":440,"player_count":0,"max_players":24,"Bots":0,"server_type":"Dedicated","server_os":"Linux","password":true,"vac":true,"version":"7961495","steam_id":85568392925397959,"keywords":["nocrits","nodmgspread","payload","uncletopia"],"game_id":440,"stv_port":27056,"stv_name":"Uncletopia | Sydney | 5 | Stopwatch | STV","players":null},{"server_id":59,"name":"Uncletopia | Sydney | 6 | Community","name_short":"syd-6","host":"syd-1.au.uncletopia.com","port":27065,"enabled":true,"region":"au","cc":"au","latitude":-33.865143,"longitude":151.2099,"reserved":0,"last_update":"0001-01-01T00:00:00Z","name_a2s":"Uncletopia | Sydney | 6 | Community","protocol":17,"map":"cp_sunshine","folder":"tf","game":"Team Fortress","app_id":440,"player_count":0,"max_players":24,"Bots":0,"server_type":"Dedicated","server_os":"Linux","password":true,"vac":true,"version":"7961495","steam_id":85568392925397960,"keywords":["cp","nocrits","nodmgspread","uncletopia"],"game_id":440,"stv_port":27066,"stv_name":"Uncletopia | Sydney | 6 | Community | STV","players":null},{"server_id":49,"name":"Uncletopia | Warsaw | 1 | One Thousand Uncles","name_short":"waw-1","host":"waw-1.pl.uncletopia.com","port":27015,"enabled":true,"region":"eu","cc":"pl","latitude":52.2297,"longitude":21.017532,"reserved":0,"last_update":"0001-01-01T00:00:00Z","name_a2s":"Uncletopia | Warsaw | 1 | One Thousand Uncles","protocol":17,"map":"cp_egypt_final","folder":"tf","game":"Team Fortress","app_id":440,"player_count":29,"max_players":32,"Bots":16,"server_type":"Dedicated","server_os":"Linux","password":true,"vac":true,"version":"7961495","steam_id":85568392925397850,"keywords":["alltalk","bots","cp","danepve","increased_maxplayers","nocrits","norespawntime","uncletopia"],"game_id":440,"stv_port":0,"stv_name":"","players":[{"user_id":185,"name":"the one","steam_id":76561198037977091,"connected_time":728000000000,"state":"active","ping":133},{"user_id":206,"name":"Lukero","steam_id":76561198301594341,"connected_time":345000000000,"state":"active","ping":66},{"user_id":209,"name":"ChaosCadence","steam_id":76561198446324621,"connected_time":201000000000,"state":"active","ping":84},{"user_id":157,"name":"Jonah","steam_id":76561199122418062,"connected_time":3568000000000,"state":"active","ping":224},{"user_id":89,"name":"Scout","steam_id":76561198992898803,"connected_time":8421000000000,"state":"active","ping":75},{"user_id":130,"name":"zythe_","steam_id":76561198189909441,"connected_time":4650000000000,"state":"active","ping":74},{"user_id":158,"name":"Mönkey","steam_id":76561198120175506,"connected_time":3540000000000,"state":"active","ping":65},{"user_id":210,"name":"izua \u003c3","steam_id":76561199013142277,"connected_time":18000000000,"state":"active","ping":269},{"user_id":183,"name":"ninety9dragonfly","steam_id":76561198363406983,"connected_time":962000000000,"state":"active","ping":219},{"user_id":135,"name":"Vibe","steam_id":76561198052897361,"connected_time":4336000000000,"state":"active","ping":208},{"user_id":163,"name":"The Harold (Duck Enthusiast)","steam_id":76561199169616365,"connected_time":2343000000000,"state":"active","ping":79},{"user_id":137,"name":"Vibing Wave","steam_id":76561198866358613,"connected_time":3938000000000,"state":"active","ping":165},{"user_id":187,"name":"AccessViolation","steam_id":76561199220027107,"connected_time":694000000000,"state":"active","ping":371}]},{"server_id":50,"name":"Uncletopia | Warsaw | 2 | One Thousand Uncles","name_short":"waw-2","host":"waw-1.pl.uncletopia.com","port":27025,"enabled":true,"region":"eu","cc":"pl","latitude":52.2297,"longitude":21.017532,"reserved":0,"last_update":"0001-01-01T00:00:00Z","name_a2s":"Uncletopia | Warsaw | 2 | One Thousand Uncles","protocol":17,"map":"pl_badwater","folder":"tf","game":"Team Fortress","app_id":440,"player_count":0,"max_players":32,"Bots":0,"server_type":"Dedicated","server_os":"Linux","password":true,"vac":true,"version":"7961495","steam_id":85568392925397851,"keywords":["alltalk","danepve","increased_maxplayers","nocrits","norespawntime","payload","uncletopia"],"game_id":440,"stv_port":0,"stv_name":"","players":null},{"server_id":51,"name":"Uncletopia | Warsaw | 3 | All Maps","name_short":"waw-3","host":"waw-1.pl.uncletopia.com","port":27035,"enabled":true,"region":"eu","cc":"pl","latitude":52.2297,"longitude":21.017532,"reserved":0,"last_update":"0001-01-01T00:00:00Z","name_a2s":"Uncletopia | Warsaw | 3 | All Maps","protocol":17,"map":"cp_process_final","folder":"tf","game":"Team Fortress","app_id":440,"player_count":0,"max_players":24,"Bots":0,"server_type":"Dedicated","server_os":"Linux","password":true,"vac":true,"version":"7961495","steam_id":85568392925397852,"keywords":["cp","nocrits","nodmgspread","uncletopia"],"game_id":440,"stv_port":27036,"stv_name":"Uncletopia | Warsaw | 3 | All Maps | STV","players":null},{"server_id":52,"name":"Uncletopia | Warsaw | 4 | All Maps","name_short":"waw-4","host":"waw-1.pl.uncletopia.com","port":27045,"enabled":true,"region":"eu","cc":"pl","latitude":52.2297,"longitude":21.017532,"reserved":0,"last_update":"0001-01-01T00:00:00Z","name_a2s":"Uncletopia | Warsaw | 4 | All Maps","protocol":17,"map":"koth_cascade","folder":"tf","game":"Team Fortress","app_id":440,"player_count":0,"max_players":24,"Bots":0,"server_type":"Dedicated","server_os":"Linux","password":true,"vac":true,"version":"7961495","steam_id":85568392925397853,"keywords":["cp","nocrits","nodmgspread","uncletopia"],"game_id":440,"stv_port":27046,"stv_name":"Uncletopia | Warsaw | 4 | All Maps | STV","players":null},{"server_id":53,"name":"Uncletopia | Warsaw | 5 | Stopwatch","name_short":"waw-5","host":"waw-1.pl.uncletopia.com","port":27055,"enabled":true,"region":"eu","cc":"pl","latitude":52.2297,"longitude":21.017532,"reserved":0,"last_update":"0001-01-01T00:00:00Z","name_a2s":"Uncletopia | Warsaw | 5 | Stopwatch","protocol":17,"map":"workshop/koth_bagel_rc6.ugc2514036946","folder":"tf","game":"Team Fortress","app_id":440,"player_count":0,"max_players":24,"Bots":0,"server_type":"Dedicated","server_os":"Linux","password":true,"vac":true,"version":"7961495","steam_id":85568392925397854,"keywords":["cp","nocrits","nodmgspread","uncletopia"],"game_id":440,"stv_port":27056,"stv_name":"Uncletopia | Warsaw | 5 | Stopwatch | STV","players":null},{"server_id":54,"name":"Uncletopia | Warsaw | 6 | Community","name_short":"waw-6","host":"waw-1.pl.uncletopia.com","port":27065,"enabled":true,"region":"eu","cc":"pl","latitude":52.2297,"longitude":21.017532,"reserved":0,"last_update":"0001-01-01T00:00:00Z","name_a2s":"Uncletopia | Warsaw | 6 | Community","protocol":17,"map":"workshop/koth_trenchfoot_ab1.ugc731436616","folder":"tf","game":"Team Fortress","app_id":440,"player_count":0,"max_players":24,"Bots":0,"server_type":"Dedicated","server_os":"Linux","password":true,"vac":true,"version":"7961495","steam_id":85568392925397856,"keywords":["cp","nocrits","nodmgspread","uncletopia"],"game_id":440,"stv_port":27066,"stv_name":"Uncletopia | Warsaw | 6 | Community | STV","players":null}]}