{"status":true,"message":"","result":[{"server_id":9,"name":"Uncletopia | Atlanta | 1 | All Maps","name_short":"atl-1","host":"atl-1.us.uncletopia.com","port":27015,"enabled":true,"region":"us-east","cc":"us","latitude":33.753746,"longitude":-84.38633,"reserved":0,"last_update":"0001-01-01T00:00:00Z","name_a2s":"Uncletopia | Atlanta | 1 | All Maps","protocol":17,"map":"pl_wutville_event","folder":"tf","game":"Team Fortress","app_id":440,"player_count":23,"max_players":24,"Bots":0,"server_type":"Dedicated","server_os":"Linux","password":true,"vac":true,"version":"7723704","steam_id":85568392924469982,"keywords":["nocrits","nodmgspread","payload","uncletopia"],"game_id":440,"stv_port":27016,"stv_name":"Uncletopia | Atlanta | 1 | All Maps | STV","players":[{"user_id":232,"name":"jazztree14","steam_id":76561199239395356,"connected_time":1383000000000,"state":"active","ping":72},{"user_id":224,"name":"Granny Krissy","steam_id":76561197960848174,"connected_time":2155000000000,"state":"active","ping":60},{"user_id":183,"name":"Quiggles lft","steam_id":76561199177247655,"connected_time":4911000000000,"state":"active","ping":55},{"user_id":226,"name":"ATL1 | Lancer Fan Club","steam_id":76561198355495948,"connected_time":2124000000000,"state":"active","ping":78},{"user_id":251,"name":"Phestive Pango","steam_id":76561198069811545,"connected_time":172000000000,"state":"active","ping":44},{"user_id":237,"name":"Mung Daal","steam_id":76561198163420041,"connected_time":1291000000000,"state":"active","ping":106},{"user_id":229,"name":"vid_","steam_id":76561198065159053,"connected_time":1820000000000,"state":"active","ping":49},{"user_id":235,"name":"outplayed","steam_id":76561198260527412,"connected_time":1333000000000,"state":"active","ping":99},{"user_id":236,"name":"Red Physical","steam_id":76561198151864382,"connected_time":1297000000000,"state":"active","ping":95},{"user_id":244,"name":"jerry","steam_id":76561198090326126,"connected_time":765000000000,"state":"active","ping":60},{"user_id":249,"name":"Tribute","steam_id":76561198081594043,"connected_time":424000000000,"state":"active","ping":76},{"user_id":215,"name":"Apachegg","steam_id":76561199407948948,"connected_time":2461000000000,"state":"active","ping":88},{"user_id":246,"name":"Stoopid","steam_id":76561198295758396,"connected_time":575000000000,"state":"active","ping":58},{"user_id":220,"name":"M.L.JEW","steam_id":76561198997375055,"connected_time":2322000000000,"state":"active","ping":74},{"user_id":238,"name":"FruteBrute","steam_id":76561198803472441,"connected_time":1291000000000,"state":"active","ping":62},{"user_id":239,"name":"StarBrigade","steam_id":76561198150224428,"connected_time":1282000000000,"state":"active","ping":114},{"user_id":231,"name":"brae","steam_id":76561198116741891,"connected_time":1422000000000,"state":"active","ping":52},{"user_id":248,"name":"GreenChristmasMan","steam_id":76561198089167462,"connected_time":459000000000,"state":"active","ping":79},{"user_id":213,"name":"carter","steam_id":76561198285295764,"connected_time":2569000000000,"state":"active","ping":63},{"user_id":250,"name":"ATL1 | merryy","steam_id":76561198968001329,"connected_time":345000000000,"state":"active","ping":46},{"user_id":189,"name":"David De Bergerac","steam_id":76561198010306294,"connected_time":4143000000000,"state":"active","ping":76},{"user_id":247,"name":"lu","steam_id":76561198080731872,"connected_time":472000000000,"state":"active","ping":71},{"user_id":242,"name":"CBTgaeming","steam_id":76561199089290128,"connected_time":1219000000000,"state":"active","ping":116}]},{"server_id":400,"name":"Uncletopia | Atlanta | 3 | Stopwatch Beta","name_short":"atl-3","host":"atl-1.us.uncletopia.com","port":27035,"enabled":true,"region":"us-east","cc":"us","latitude":33.753746,"longitude":-84.38633,"reserved":0,"last_update":"0001-01-01T00:00:00Z","name_a2s":"Uncletopia | Atlanta | 3 | Stopwatch Beta","protocol":17,"map":"koth_cascade","folder":"tf","game":"Team Fortress","app_id":440,"player_count":0,"max_players":24,"Bots":0,"server_type":"Dedicated","server_os":"Linux","password":true,"vac":true,"version":"7723704","steam_id":85568392924515187,"keywords":["cp","nocrits","nodmgspread","uncletopia"],"game_id":440,"stv_port":27036,"stv_name":"Uncletopia | Atlanta | 3 | Stopwatch Beta | STV","players":null},{"server_id":401,"name":"Uncletopia | Atlanta | 4 | No Payload","name_short":"atl-4","host":"atl-1.us.uncletopia.com","port":27045,"enabled":true,"region":"us-east","cc":"us","latitude":33.753746,"longitude":-84.38633,"reserved":0,"last_update":"0001-01-01T00:00:00Z","name_a2s":"Uncletopia | Atlanta | 4 | No Payload","protocol":17,"map":"pl_pier","folder":"tf","game":"Team Fortress","app_id":440,"player_count":0,"max_players":24,"Bots":0,"server_type":"Dedicated","server_os":"Linux","password":true,"vac":true,"version":"7723704","steam_id":85568392924515188,"keywords":["nocrits","nodmgspread","payload","uncletopia"],"game_id":440,"stv_port":27046,"stv_name":"Uncletopia | Atlanta | 4 | No Payload | STV","players":null},{"server_id":2,"name":"Uncletopia | Chicago | 1 | All Maps","name_short":"chi-1","host":"chi-1.us.uncletopia.com","port":27015,"enabled":true,"region":"us-central","cc":"us","latitude":41.881832,"longitude":-87.62318,"reserved":0,"last_update":"0001-01-01T00:00:00Z","name_a2s":"Uncletopia | Chicago | 1 | All Maps","protocol":17,"map":"koth_harvest_final","folder":"tf","game":"Team Fortress","app_id":440,"player_count":24,"max_players":24,"Bots":0,"server_type":"Dedicated","server_os":"Linux","password":true,"vac":true,"version":"7723704","steam_id":85568392924469984,"keywords":["cp","nocrits","nodmgspread","uncletopia"],"game_id":440,"stv_port":27016,"stv_name":"Uncletopia | Chicago | 1 | All Maps | STV","players":[{"user_id":328,"name":"xXcLaImEd__ReApErXx [F2P]","steam_id":76561198067232540,"connected_time":1162000000000,"state":"connecting","ping":98},{"user_id":327,"name":"Lyra","steam_id":76561198043601838,"connected_time":1224000000000,"state":"connecting","ping":177},{"user_id":335,"name":"‚ìà Ranger ‚ìà","steam_id":76561198957524134,"connected_time":680000000000,"state":"connecting","ping":93},{"user_id":336,"name":"SirJellyRolls","steam_id":76561198119277244,"connected_time":522000000000,"state":"connecting","ping":77},{"user_id":342,"name":"Buckytr","steam_id":76561198096335025,"connected_time":30000000000,"state":"connecting","ping":77},{"user_id":329,"name":"ùôë ùôÄ ùôá ùôä ùôê ùôç","steam_id":76561198170055754,"connected_time":1123000000000,"state":"connecting","ping":72},{"user_id":334,"name":"D:","steam_id":76561198149919360,"connected_time":721000000000,"state":"connecting","ping":128},{"user_id":343,"name":"Caught a Thundah","steam_id":76561198054495572,"connected_time":29000000000,"state":"connecting","ping":87},{"user_id":344,"name":"Blorgus_J_Blart","steam_id":76561198430926135,"connected_time":26000000000,"state":"connecting","ping":109},{"user_id":312,"name":"Huge","steam_id":76561199030987614,"connected_time":1851000000000,"state":"connecting","ping":84},{"user_id":333,"name":"HorseCooker","steam_id":76561198076588370,"connected_time":746000000000,"state":"connecting","ping":81},{"user_id":243,"name":"Le","steam_id":76561198817754233,"connected_time":8429000000000,"state":"connecting","ping":71},{"user_id":305,"name":"Quansen","steam_id":76561198151594550,"connected_time":2076000000000,"state":"connecting","ping":54},{"user_id":337,"name":"Snake Handler","steam_id":76561198027198306,"connected_time":512000000000,"state":"connecting","ping":61},{"user_id":287,"name":"Do Moose go Moo?","steam_id":76561198073550620,"connected_time":3331000000000,"state":"connecting","ping":57},{"user_id":331,"name":"Evolution","steam_id":76561198144767370,"connected_time":839000000000,"state":"connecting","ping":59},{"user_id":325,"name":"TheRealWeiner","steam_id":76561198056871257,"connected_time":1280000000000,"state":"connecting","ping":79},{"user_id":321,"name":"Pixeled","steam_id":76561198088917077,"connected_time":1510000000000,"state":"connecting","ping":86},{"user_id":345,"name":"lag","steam_id":76561197963872739,"connected_time":25000000000,"state":"connecting","ping":97},{"user_id":341,"name":"Tuki","steam_id":76561198226746584,"connected_time":154000000000,"state":"connecting","ping":134},{"user_id":277,"name":"// €ûE–ØiC€û //","steam_id":76561197968436818,"connected_time":4407000000000,"state":"connecting","ping":64},{"user_id":346,"name":"name him golfball","steam_id":76561198068958789,"connected_time":4000000000,"state":"connecting","ping":123},{"user_id":278,"name":"John Darksoul","steam_id":76561198031675881,"connected_time":4354000000000,"state":"connecting","ping":75},{"user_id":317,"name":"[TrC] Dackstrus","steam_id":76561197973518509,"connected_time":1586000000000,"state":"connecting","ping":134}]},{"server_id":106,"name":"Uncletopia | Chicago | 2 | All Maps","name_short":"chi-2","host":"chi-1.us.uncletopia.com","port":27025,"enabled":true,"region":"us-central","cc":"us","latitude":41.881832,"longitude":-87.62318,"reserved":0,"last_update":"0001-01-01T00:00:00Z","name_a2s":"Uncletopia | Chicago | 2 | All Maps","protocol":17,"map":"pl_badwater","folder":"tf","game":"Team Fortress","app_id":440,"player_count":24,"max_players":24,"Bots":0,"server_type":"Dedicated","server_os":"Linux","password":true,"vac":true,"version":"7723704","steam_id":85568392924469985,"keywords":["nocrits","nodmgspread","payload","uncletopia"],"game_id":440,"stv_port":27026,"stv_name":"Uncletopia | Chicago | 2 | All Maps | STV","players":[{"user_id":136,"name":"Ziath","steam_id":76561198094009164,"connected_time":3425000000000,"state":"active","ping":61},{"user_id":155,"name":"Revenant","steam_id":76561198074139416,"connected_time":2479000000000,"state":"active","ping":71},{"user_id":175,"name":"jae are","steam_id":76561198027906463,"connected_time":492000000000,"state":"active","ping":45},{"user_id":172,"name":"Wilco's SugarDaddy","steam_id":76561198054009620,"connected_time":823000000000,"state":"active","ping":157},{"user_id":171,"name":"Majestic-A","steam_id":76561198988062101,"connected_time":925000000000,"state":"active","ping":97},{"user_id":162,"name":"AstroHusky","steam_id":76561197965970648,"connected_time":1730000000000,"state":"active","ping":141},{"user_id":153,"name":"Misanthrope","steam_id":76561198090692884,"connected_time":2497000000000,"state":"active","ping":80},{"user_id":107,"name":"Blitzy","steam_id":76561198149472890,"connected_time":4947000000000,"state":"active","ping":76},{"user_id":176,"name":"yeyoi","steam_id":76561198069821885,"connected_time":444000000000,"state":"active","ping":64},{"user_id":166,"name":"River","steam_id":76561198137529294,"connected_time":1221000000000,"state":"active","ping":60},{"user_id":131,"name":"GrapeGoodra","steam_id":76561198042141579,"connected_time":4023000000000,"state":"active","ping":50},{"user_id":146,"name":"QuarticalPhysics","steam_id":76561198061386266,"connected_time":3065000000000,"state":"active","ping":69},{"user_id":178,"name":"tbm john","steam_id":76561198304194081,"connected_time":431000000000,"state":"active","ping":82},{"user_id":177,"name":"averted","steam_id":76561198067784310,"connected_time":433000000000,"state":"active","ping":68},{"user_id":168,"name":"William Wallace","steam_id":76561199343316814,"connected_time":1089000000000,"state":"active","ping":69},{"user_id":180,"name":"lorem ipsum","steam_id":76561198354622099,"connected_time":131000000000,"state":"active","ping":70},{"user_id":110,"name":"ratie","steam_id":76561198059399661,"connected_time":4932000000000,"state":"active","ping":81},{"user_id":154,"name":"kris krueger","steam_id":76561198268654031,"connected_time":2495000000000,"state":"active","ping":45},{"user_id":161,"name":"chirp","steam_id":76561198109916563,"connected_time":1779000000000,"state":"active","ping":78},{"user_id":125,"name":"Tyler\u0026Fingers","steam_id":76561198085154485,"connected_time":4471000000000,"state":"active","ping":72},{"user_id":173,"name":"ATL1 | on my hunting trip","steam_id":76561198315341646,"connected_time":760000000000,"state":"active","ping":83},{"user_id":147,"name":"Dukeofspook","steam_id":76561198052896687,"connected_time":2952000000000,"state":"active","ping":73},{"user_id":165,"name":"cy","steam_id":76561198885893295,"connected_time":1315000000000,"state":"active","ping":46},{"user_id":179,"name":"GekoGeek","steam_id":76561199153658015,"connected_time":345000000000,"state":"active","ping":94}]},{"server_id":402,"name":"Uncletopia | Chicago | 3 | All Maps","name_short":"chi-3","host":"chi-1.us.uncletopia.com","port":27035,"enabled":true,"region":"us-central","cc":"us","latitude":41.881832,"longitude":-87.62318,"reserved":0,"last_update":"0001-01-01T00:00:00Z","name_a2s":"Uncletopia | Chicago | 3 | All Maps","protocol":17,"map":"pl_upward","folder":"tf","game":"Team Fortress","app_id":440,"player_count":0,"max_players":24,"Bots":0,"server_type":"Dedicated","server_os":"Linux","password":true,"vac":true,"version":"7723704","steam_id":85568392924515191,"keywords":["nocrits","nodmgspread","payload","uncletopia"],"game_id":440,"stv_port":27036,"stv_name":"Uncletopia | Chicago | 3 | All Maps | STV","players":null},{"server_id":403,"name":"Uncletopia | Chicago | 4 | All Maps","name_short":"chi-4","host":"chi-1.us.uncletopia.com","port":27045,"enabled":true,"region":"us-central","cc":"us","latitude":41.881832,"longitude":-87.62318,"reserved":0,"last_update":"0001-01-01T00:00:00Z","name_a2s":"Uncletopia | Chicago | 4 | All Maps","protocol":17,"map":"cp_mountainlab","folder":"tf","game":"Team Fortress","app_id":440,"player_count":0,"max_players":24,"Bots":0,"server_type":"Dedicated","server_os":"Linux","password":true,"vac":true,"version":"7723704","steam_id":85568392924515193,"keywords":["cp","nocrits","nodmgspread","uncletopia"],"game_id":440,"stv_port":27046,"stv_name":"Uncletopia | Chicago | 4 | All Maps | STV","players":null},{"server_id":36,"name":"Uncletopia | Chicago | 5 | All Maps","name_short":"chi-5","host":"chi-2.us.uncletopia.com","port":27015,"enabled":true,"region":"us-central","cc":"us","latitude":41.881832,"longitude":-87.62318,"reserved":0,"last_update":"0001-01-01T00:00:00Z","name_a2s":"Uncletopia | Chicago | 5 | All Maps","protocol":17,"map":"plr_hightower","folder":"tf","game":"Team Fortress","app_id":440,"player_count":24,"max_players":24,"Bots":0,"server_type":"Dedicated","server_os":"Linux","password":true,"vac":true,"version":"7723704","steam_id":85568392924866362,"keywords":["nocrits","nodmgspread","payload","uncletopia"],"game_id":440,"stv_port":27016,"stv_name":"Uncletopia | Chicago | 5 | All Maps | STV","players":[{"user_id":119,"name":"moe","steam_id":76561198929586245,"connected_time":308000000000,"state":"active","ping":101},{"user_id":64,"name":"therizzmaster7421","steam_id":76561197989592141,"connected_time":4637000000000,"state":"active","ping":57},{"user_id":116,"name":"BigOrca54","steam_id":76561198181360271,"connected_time":523000000000,"state":"active","ping":49},{"user_id":104,"name":"Karrot","steam_id":76561198058970903,"connected_time":1374000000000,"state":"active","ping":60},{"user_id":41,"name":"science_fan.1948","steam_id":76561199076453501,"connected_time":5898000000000,"state":"active","ping":103},{"user_id":113,"name":"bikerkid207","steam_id":76561198390782783,"connected_time":640000000000,"state":"active","ping":61},{"user_id":107,"name":"amagicowl","steam_id":76561199060487814,"connected_time":1060000000000,"state":"active","ping":80},{"user_id":44,"name":"tinkercrab11","steam_id":76561198881792140,"connected_time":5730000000000,"state":"active","ping":70},{"user_id":103,"name":"crumbles","steam_id":76561198168707036,"connected_time":1417000000000,"state":"active","ping":104},{"user_id":62,"name":"Max_Attack","steam_id":76561198944028607,"connected_time":4676000000000,"state":"active","ping":73},{"user_id":89,"name":"SweetLou","steam_id":76561198064569582,"connected_time":2364000000000,"state":"active","ping":94},{"user_id":123,"name":"Spike Bones","steam_id":76561198234926120,"connected_time":6000000000,"state":"spawning","ping":88},{"user_id":121,"name":"Lesser Hero","steam_id":76561198351785386,"connected_time":142000000000,"state":"active","ping":52},{"user_id":45,"name":"Cuttle's Fish","steam_id":76561198280483257,"connected_time":5702000000000,"state":"active","ping":60},{"user_id":91,"name":"Love Being an Owl","steam_id":76561198293422282,"connected_time":2354000000000,"state":"active","ping":82},{"user_id":92,"name":"Vanny","steam_id":76561198297961039,"connected_time":2346000000000,"state":"active","ping":60},{"user_id":118,"name":"tictak211","steam_id":76561198128091924,"connected_time":370000000000,"state":"active","ping":172},{"user_id":57,"name":"Stormartillery","steam_id":76561198408982577,"connected_time":4821000000000,"state":"active","ping":76},{"user_id":98,"name":"Mr.Manman","steam_id":76561198826448660,"connected_time":1987000000000,"state":"active","ping":72},{"user_id":100,"name":"squid game","steam_id":76561199248960166,"connected_time":1707000000000,"state":"active","ping":81},{"user_id":108,"name":"Intergalacdude","steam_id":76561198802785099,"connected_time":1042000000000,"state":"active","ping":75},{"user_id":120,"name":"I like cheese (real)","steam_id":76561198882837408,"connected_time":234000000000,"state":"active","ping":94},{"user_id":96,"name":"Spectre","steam_id":76561198025652246,"connected_time":2159000000000,"state":"active","ping":36},{"user_id":112,"name":"PinkAndPathetic","steam_id":76561198047109016,"connected_time":664000000000,"state":"active","ping":84}]},{"server_id":37,"name":"Uncletopia | Chicago | 6 | All Maps","name_short":"chi-6","host":"chi-2.us.uncletopia.com","port":27025,"enabled":true,"region":"us-central","cc":"us","latitude":41.881832,"longitude":-87.62318,"reserved":0,"last_update":"0001-01-01T00:00:00Z","name_a2s":"Uncletopia | Chicago | 6 | All Maps","protocol":17,"map":"koth_viaduct","folder":"tf","game":"Team Fortress","app_id":440,"player_count":0,"max_players":24,"Bots":0,"server_type":"Dedicated","server_os":"Linux","password":true,"vac":true,"version":"7723704","steam_id":85568392924866363,"keywords":["cp","nocrits","nodmgspread","uncletopia"],"game_id":440,"stv_port":27026,"stv_name":"Uncletopia | Chicago | 6 | All Maps | STV","players":null},{"server_id":38,"name":"Uncletopia | Chicago | 7 | Stopwatch Beta","name_short":"chi-7","host":"chi-2.us.uncletopia.com","port":27035,"enabled":true,"region":"us-central","cc":"us","latitude":41.881832,"longitude":-87.62318,"reserved":0,"last_update":"0001-01-01T00:00:00Z","name_a2s":"Uncletopia | Chicago | 7 | Stopwatch Beta","protocol":17,"map":"workshop/pl_vigil_rc9.ugc1266210012","folder":"tf","game":"Team Fortress","app_id":440,"player_count":25,"max_players":24,"Bots":0,"server_type":"Dedicated","server_os":"Linux","password":true,"vac":true,"version":"7723704","steam_id":85568392924866364,"keywords":["nocrits","nodmgspread","payload","uncletopia"],"game_id":440,"stv_port":27036,"stv_name":"Uncletopia | Chicago | 7 | Stopwatch Beta | STV","players":[{"user_id":52,"name":"CFDv20","steam_id":76561198450073779,"connected_time":438000000000,"state":"active","ping":104},{"user_id":34,"name":"Slice","steam_id":76561198046508636,"connected_time":952000000000,"state":"active","ping":65},{"user_id":11,"name":"lukamine","steam_id":76561198166827208,"connected_time":2364000000000,"state":"active","ping":91},{"user_id":10,"name":"whimsy.","steam_id":76561198878171763,"connected_time":3215000000000,"state":"active","ping":159},{"user_id":50,"name":"Hertz","steam_id":76561198245322982,"connected_time":483000000000,"state":"active","ping":49},{"user_id":14,"name":"The Gremlin","steam_id":76561198419066993,"connected_time":1679000000000,"state":"active","ping":104},{"user_id":63,"name":"Tywhip","steam_id":76561199207545191,"connected_time":5000000000,"state":"spawning","ping":161},{"user_id":35,"name":"sand","steam_id":76561198086193212,"connected_time":846000000000,"state":"active","ping":56},{"user_id":57,"name":"Heppeh","steam_id":76561198068049507,"connected_time":187000000000,"state":"active","ping":79},{"user_id":19,"name":"Seru","steam_id":76561199219827214,"connected_time":1521000000000,"state":"active","ping":111},{"user_id":30,"name":"newboi (former F2P)","steam_id":76561199273882768,"connected_time":1095000000000,"state":"active","ping":69},{"user_id":60,"name":"Bee","steam_id":76561198074681324,"connected_time":168000000000,"state":"active","ping":69},{"user_id":22,"name":"TheBiggerIron","steam_id":76561198257043605,"connected_time":1417000000000,"state":"active","ping":99},{"user_id":62,"name":"buddy","steam_id":76561197988733568,"connected_time":66000000000,"state":"active","ping":144},{"user_id":38,"name":"Freestylo","steam_id":76561198144284189,"connected_time":813000000000,"state":"active","ping":69},{"user_id":39,"name":"Beanbag","steam_id":76561198101393625,"connected_time":782000000000,"state":"active","ping":68},{"user_id":40,"name":"Stagred","steam_id":76561198055973266,"connected_time":780000000000,"state":"active","ping":65},{"user_id":55,"name":"vortexgamer","steam_id":76561197999435527,"connected_time":259000000000,"state":"active","ping":68},{"user_id":42,"name":"GeraldyJones65","steam_id":76561199122297098,"connected_time":722000000000,"state":"active","ping":75},{"user_id":44,"name":"JOABEID","steam_id":76561198797782963,"connected_time":715000000000,"state":"active","ping":188},{"user_id":58,"name":"decision","steam_id":76561199128573593,"connected_time":184000000000,"state":"active","ping":120},{"user_id":46,"name":"gangstalker","steam_id":76561198363267009,"connected_time":706000000000,"state":"active","ping":72},{"user_id":59,"name":"The Potato Romancer","steam_id":76561198204197648,"connected_time":178000000000,"state":"active","ping":100},{"user_id":54,"name":"KingSteve42","steam_id":76561198409455888,"connected_time":360000000000,"state":"active","ping":101},{"user_id":61,"name":"Copter_Boy","steam_id":76561198322921312,"connected_time":165000000000,"state":"connecting","ping":0}]},{"server_id":39,"name":"Uncletopia | Chicago | 8 | Community","name_short":"chi-8","host":"chi-2.us.uncletopia.com","port":27045,"enabled":true,"region":"us-central","cc":"us","latitude":41.881832,"longitude":-87.62318,"reserved":0,"last_update":"0001-01-01T00:00:00Z","name_a2s":"Uncletopia | Chicago | 8 | Community","protocol":17,"map":"pl_frontier_final","folder":"tf","game":"Team Fortress","app_id":440,"player_count":0,"max_players":24,"Bots":0,"server_type":"Dedicated","server_os":"Linux","password":true,"vac":true,"version":"7723704","steam_id":85568392924866365,"keywords":["nocrits","nodmgspread","payload","uncletopia"],"game_id":440,"stv_port":27046,"stv_name":"Uncletopia | Chicago | 8 | Community | STV","players":null},{"server_id":8,"name":"Uncletopia | Dallas | 1 | All Maps","name_short":"dal-1","host":"dal-1.us.uncletopia.com","port":27015,"enabled":true,"region":"us-central","cc":"us","latitude":32.779167,"longitude":-96.80889,"reserved":0,"last_update":"0001-01-01T00:00:00Z","name_a2s":"Uncletopia | Dallas | 1 | All Maps","protocol":17,"map":"cp_sunshine","folder":"tf","game":"Team Fortress","app_id":440,"player_count":24,"max_players":24,"Bots":0,"server_type":"Dedicated","server_os":"Linux","password":true,"vac":true,"version":"7723704","steam_id":85568392924469986,"keywords":["cp","nocrits","nodmgspread","uncletopia"],"game_id":440,"stv_port":27016,"stv_name":"Uncletopia | Dallas | 1 | All Maps | STV","players":[{"user_id":180,"name":"Squagol","steam_id":76561197987486159,"connected_time":471000000000,"state":"active","ping":69},{"user_id":177,"name":"seats","steam_id":76561197998756039,"connected_time":911000000000,"state":"active","ping":74},{"user_id":175,"name":"Toasterduds","steam_id":76561198163477584,"connected_time":1033000000000,"state":"active","ping":73},{"user_id":184,"name":"bigboimarven","steam_id":76561198844778810,"connected_time":85000000000,"state":"active","ping":55},{"user_id":157,"name":"[]{}#^*+=","steam_id":76561198127039453,"connected_time":2312000000000,"state":"active","ping":69},{"user_id":183,"name":"Randy has a Burger","steam_id":76561199160246785,"connected_time":209000000000,"state":"active","ping":63},{"user_id":161,"name":"todd","steam_id":76561198140689842,"connected_time":1811000000000,"state":"active","ping":56},{"user_id":165,"name":"Rat Smacker","steam_id":76561199090197628,"connected_time":1494000000000,"state":"active","ping":67},{"user_id":166,"name":"Ultra\u003c3","steam_id":76561198352021493,"connected_time":1453000000000,"state":"active","ping":78},{"user_id":91,"name":"Power With Flower","steam_id":76561198798123834,"connected_time":6067000000000,"state":"active","ping":67},{"user_id":108,"name":"[SAW] Lost Darkrai","steam_id":76561198021034873,"connected_time":5166000000000,"state":"active","ping":48},{"user_id":172,"name":"Jailbreak","steam_id":76561198802085218,"connected_time":1331000000000,"state":"active","ping":53},{"user_id":181,"name":"furrein","steam_id":76561198318777982,"connected_time":232000000000,"state":"active","ping":54},{"user_id":146,"name":"[AS]","steam_id":76561198094990358,"connected_time":2969000000000,"state":"active","ping":75},{"user_id":138,"name":"ENORMOUS HOG","steam_id":76561198079923652,"connected_time":3298000000000,"state":"active","ping":57},{"user_id":142,"name":"Lolxdloldx","steam_id":76561198136887125,"connected_time":3121000000000,"state":"active","ping":76},{"user_id":178,"name":"Toripollo","steam_id":76561198251665862,"connected_time":904000000000,"state":"active","ping":105},{"user_id":135,"name":"lily","steam_id":76561198102681457,"connected_time":3381000000000,"state":"active","ping":76},{"user_id":125,"name":"yo pierre wanna cum out here","steam_id":76561198800324957,"connected_time":3832000000000,"state":"active","ping":57},{"user_id":182,"name":"Moonflower ‚ú¶","steam_id":76561198191782483,"connected_time":220000000000,"state":"active","ping":55},{"user_id":139,"name":"mommy hog","steam_id":76561199230929836,"connected_time":3281000000000,"state":"active","ping":63},{"user_id":171,"name":"GuyGoom","steam_id":76561198254522178,"connected_time":1405000000000,"state":"active","ping":74},{"user_id":98,"name":"Arizona","steam_id":76561198113748347,"connected_time":5444000000000,"state":"active","ping":64},{"user_id":164,"name":"Eightyy  Fourr","steam_id":76561197960374225,"connected_time":1636000000000,"state":"active","ping":56}]},{"server_id":108,"name":"Uncletopia | Dallas | 2 | All Maps","name_short":"dal-2","host":"dal-1.us.uncletopia.com","port":27025,"enabled":true,"region":"us-central","cc":"us","latitude":32.779167,"longitude":-96.80889,"reserved":0,"last_update":"0001-01-01T00:00:00Z","name_a2s":"Uncletopia | Dallas | 2 | All Maps","protocol":17,"map":"pl_upward","folder":"tf","game":"Team Fortress","app_id":440,"player_count":0,"max_players":24,"Bots":0,"server_type":"Dedicated","server_os":"Linux","password":true,"vac":true,"version":"7723704","steam_id":85568392924469988,"keywords":["nocrits","nodmgspread","payload","uncletopia"],"game_id":440,"stv_port":27026,"stv_name":"Uncletopia | Dallas | 2 | All Maps | STV","players":null},{"server_id":5,"name":"Uncletopia | Frankfurt | 1 | All Maps","name_short":"frk-1","host":"frk-1.de.uncletopia.com","port":27015,"enabled":true,"region":"eu","cc":"de","latitude":50.110924,"longitude":8.682127,"reserved":0,"last_update":"0001-01-01T00:00:00Z","name_a2s":"Uncletopia | Frankfurt | 1 | All Maps","protocol":17,"map":"pl_badwater","folder":"tf","game":"Team Fortress","app_id":440,"player_count":24,"max_players":24,"Bots":0,"server_type":"Dedicated","server_os":"Linux","password":true,"vac":true,"version":"7723704","steam_id":85568392924469989,"keywords":["nocrits","nodmgspread","payload","uncletopia"],"game_id":440,"stv_port":27016,"stv_name":"Uncletopia | Frankfurt | 1 | All Maps | STV","players":[{"user_id":447,"name":"akciq ‚Åß‚Åßrespect","steam_id":76561198390963456,"connected_time":113000000000,"state":"active","ping":144},{"user_id":417,"name":"Diamhair","steam_id":76561198109020178,"connected_time":1645000000000,"state":"active","ping":60},{"user_id":365,"name":"masutaaa","steam_id":76561198072233046,"connected_time":4686000000000,"state":"active","ping":81},{"user_id":433,"name":"Birne","steam_id":76561198001335120,"connected_time":1200000000000,"state":"active","ping":66},{"user_id":406,"name":"Crazedspicy","steam_id":76561199004590962,"connected_time":2359000000000,"state":"active","ping":64},{"user_id":437,"name":"PixelHyde","steam_id":76561198040878617,"connected_time":818000000000,"state":"active","ping":63},{"user_id":436,"name":"hushhx","steam_id":76561198216200092,"connected_time":898000000000,"state":"active","ping":71},{"user_id":419,"name":"vuggie","steam_id":76561198042227249,"connected_time":1632000000000,"state":"active","ping":45},{"user_id":439,"name":"TheRubberDuccy","steam_id":76561199023194086,"connected_time":522000000000,"state":"active","ping":61},{"user_id":381,"name":"Atronic","steam_id":76561198354960567,"connected_time":3884000000000,"state":"active","ping":60},{"user_id":445,"name":" ô Ä·¥ú·¥Ñ ú·¥ò…™ ü√∏·¥õ","steam_id":76561198152205547,"connected_time":130000000000,"state":"active","ping":65},{"user_id":438,"name":"hsgg","steam_id":76561198057603612,"connected_time":692000000000,"state":"active","ping":58},{"user_id":414,"name":"Deltafire300","steam_id":76561198071999847,"connected_time":1675000000000,"state":"active","ping":67},{"user_id":448,"name":"Cippo95","steam_id":76561198255311582,"connected_time":47000000000,"state":"active","ping":76},{"user_id":409,"name":"Use The Finger","steam_id":76561198050203563,"connected_time":2132000000000,"state":"active","ping":70},{"user_id":432,"name":"Zateske","steam_id":76561198047446276,"connected_time":1274000000000,"state":"active","ping":61},{"user_id":379,"name":"R3inis","steam_id":76561199030393569,"connected_time":4040000000000,"state":"active","ping":89},{"user_id":434,"name":"Toaster1337","steam_id":76561198103706881,"connected_time":1136000000000,"state":"active","ping":51},{"user_id":446,"name":"Ben Dover","steam_id":76561198034264020,"connected_time":130000000000,"state":"active","ping":120},{"user_id":441,"name":"Syr8x","steam_id":76561198128162221,"connected_time":484000000000,"state":"active","ping":76},{"user_id":423,"name":"QuB","steam_id":76561198086443034,"connected_time":1605000000000,"state":"active","ping":66},{"user_id":424,"name":"JakeTheBoi","steam_id":76561199278135331,"connected_time":1586000000000,"state":"active","ping":174},{"user_id":411,"name":"Cuthbert","steam_id":76561198204649481,"connected_time":2050000000000,"state":"active","ping":95},{"user_id":443,"name":"Hubba","steam_id":76561199447136263,"connected_time":290000000000,"state":"active","ping":57}]},{"server_id":110,"name":"Uncletopia | Frankfurt | 2 | All Maps","name_short":"frk-2","host":"frk-1.de.uncletopia.com","port":27025,"enabled":true,"region":"eu","cc":"de","latitude":50.110924,"longitude":8.682127,"reserved":0,"last_update":"0001-01-01T00:00:00Z","name_a2s":"Uncletopia | Frankfurt | 2 | All Maps","protocol":17,"map":"cp_5gorge","folder":"tf","game":"Team Fortress","app_id":440,"player_count":0,"max_players":24,"Bots":0,"server_type":"Dedicated","server_os":"Linux","password":true,"vac":true,"version":"7723704","steam_id":85568392924469990,"keywords":["cp","nocrits","nodmgspread","uncletopia"],"game_id":440,"stv_port":27026,"stv_name":"Uncletopia | Frankfurt | 2 | All Maps | STV","players":null},{"server_id":308,"name":"Uncletopia | Frankfurt | 3 | All Maps","name_short":"frk-3","host":"frk-1.de.uncletopia.com","port":27035,"enabled":true,"region":"eu","cc":"de","latitude":50.110924,"longitude":8.682127,"reserved":0,"last_update":"0001-01-01T00:00:00Z","name_a2s":"Uncletopia | Frankfurt | 3 | All Maps","protocol":17,"map":"pl_badwater","folder":"tf","game":"Team Fortress","app_id":440,"player_count":24,"max_players":24,"Bots":0,"server_type":"Dedicated","server_os":"Linux","password":true,"vac":true,"version":"7723704","steam_id":85568392924504274,"keywords":["nocrits","nodmgspread","payload","uncletopia"],"game_id":440,"stv_port":27036,"stv_name":"Uncletopia | Frankfurt | 3 | All Maps | STV","players":[{"user_id":283,"name":"jeff","steam_id":76561198025815509,"connected_time":5158000000000,"state":"active","ping":54},{"user_id":339,"name":"pl_z≈Çawoda","steam_id":76561198040588109,"connected_time":2434000000000,"state":"active","ping":75},{"user_id":367,"name":"JAR OF PISS","steam_id":76561199068731584,"connected_time":553000000000,"state":"active","ping":55},{"user_id":345,"name":"invis","steam_id":76561198120668070,"connected_time":1626000000000,"state":"active","ping":59},{"user_id":346,"name":"AshCup","steam_id":76561198166795156,"connected_time":1564000000000,"state":"active","ping":181},{"user_id":344,"name":"barni","steam_id":76561198170420173,"connected_time":1701000000000,"state":"active","ping":75},{"user_id":369,"name":"–ò–Ω—Å–ø–µ–∫—Ç–æ—Ä –ê—Ç–∞—Å","steam_id":76561199175688390,"connected_time":477000000000,"state":"active","ping":74},{"user_id":371,"name":"Hexagon","steam_id":76561198151205758,"connected_time":414000000000,"state":"active","ping":50},{"user_id":355,"name":"filo","steam_id":76561198103633797,"connected_time":1113000000000,"state":"active","ping":83},{"user_id":291,"name":"arcticcu the croc","steam_id":76561198002435882,"connected_time":4032000000000,"state":"active","ping":87},{"user_id":375,"name":"Jedi Knight","steam_id":76561198039030709,"connected_time":161000000000,"state":"active","ping":49},{"user_id":340,"name":"Mr.Schnittlauch","steam_id":76561198295868113,"connected_time":2322000000000,"state":"active","ping":59},{"user_id":350,"name":"Estamie","steam_id":76561198058527691,"connected_time":1141000000000,"state":"active","ping":64},{"user_id":368,"name":"Solid","steam_id":76561198357049292,"connected_time":549000000000,"state":"active","ping":88},{"user_id":373,"name":"Mr. Mundy","steam_id":76561198132008918,"connected_time":211000000000,"state":"active","ping":75},{"user_id":365,"name":"Clitorina","steam_id":76561198077570815,"connected_time":632000000000,"state":"active","ping":56},{"user_id":357,"name":"name","steam_id":76561198152620745,"connected_time":1049000000000,"state":"active","ping":70},{"user_id":294,"name":"sham","steam_id":76561197972856152,"connected_time":3870000000000,"state":"active","ping":100},{"user_id":309,"name":"DOMINOS","steam_id":76561198334591211,"connected_time":3533000000000,"state":"active","ping":59},{"user_id":364,"name":"DeCypher","steam_id":76561198171992619,"connected_time":652000000000,"state":"active","ping":54},{"user_id":372,"name":"Peaced.old","steam_id":76561197993682469,"connected_time":311000000000,"state":"active","ping":57},{"user_id":322,"name":"ugly","steam_id":76561199050412617,"connected_time":3040000000000,"state":"active","ping":108},{"user_id":356,"name":"Dr. Cox","steam_id":76561198246629218,"connected_time":1107000000000,"state":"active","ping":93},{"user_id":377,"name":"generic alias","steam_id":76561198271607226,"connected_time":127000000000,"state":"active","ping":88}]},{"server_id":309,"name":"Uncletopia | Frankfurt | 4 | All Maps","name_short":"frk-4","host":"frk-1.de.uncletopia.com","port":27045,"enabled":true,"region":"eu","cc":"de","latitude":50.110924,"longitude":8.682127,"reserved":0,"last_update":"0001-01-01T00:00:00Z","name_a2s":"Uncletopia | Frankfurt | 4 | All Maps","protocol":17,"map":"pl_snowycoast","folder":"tf","game":"Team Fortress","app_id":440,"player_count":24,"max_players":24,"Bots":0,"server_type":"Dedicated","server_os":"Linux","password":true,"vac":true,"version":"7723704","steam_id":85568392924504275,"keywords":["nocrits","nodmgspread","payload","uncletopia"],"game_id":440,"stv_port":27046,"stv_name":"Uncletopia | Frankfurt | 4 | All Maps | STV","players":[{"user_id":334,"name":"the white wizard","steam_id":76561198853566184,"connected_time":124000000000,"state":"active","ping":80},{"user_id":311,"name":"„ÄåK I L L E R  Q U E E N„Äç","steam_id":76561198010269803,"connected_time":1028000000000,"state":"active","ping":61},{"user_id":330,"name":"Karsapaali","steam_id":76561198322322739,"connected_time":199000000000,"state":"active","ping":89},{"user_id":295,"name":"Wardruna96","steam_id":76561199057083828,"connected_time":2153000000000,"state":"active","ping":73},{"user_id":343,"name":"Smuggs","steam_id":76561197999456003,"connected_time":25000000000,"state":"active","ping":41},{"user_id":335,"name":"Bug","steam_id":76561198168268048,"connected_time":103000000000,"state":"active","ping":50},{"user_id":317,"name":"ŒøŒøŒ≥","steam_id":76561198058126122,"connected_time":918000000000,"state":"active","ping":76},{"user_id":336,"name":"p√§hekuulitaja","steam_id":76561198072295938,"connected_time":97000000000,"state":"active","ping":63},{"user_id":279,"name":"Kocksaku Kawajiri","steam_id":76561198815127418,"connected_time":2526000000000,"state":"active","ping":80},{"user_id":300,"name":"Rappin' Sebastian","steam_id":76561198453928256,"connected_time":1680000000000,"state":"active","ping":76},{"user_id":322,"name":"Your Lovely Medic","steam_id":76561198039326848,"connected_time":686000000000,"state":"active","ping":63},{"user_id":337,"name":"cslevi","steam_id":76561198142858923,"connected_time":89000000000,"state":"active","ping":69},{"user_id":270,"name":"TTV/pablo_ricco","steam_id":76561198279839318,"connected_time":2868000000000,"state":"active","ping":107},{"user_id":286,"name":"Spenji","steam_id":76561198126634202,"connected_time":2308000000000,"state":"active","ping":71},{"user_id":338,"name":"Yony","steam_id":76561199070569941,"connected_time":82000000000,"state":"active","ping":65},{"user_id":339,"name":"series of bad decisions","steam_id":76561198079524152,"connected_time":81000000000,"state":"active","ping":55},{"user_id":340,"name":"Dzan50","steam_id":76561198059758591,"connected_time":79000000000,"state":"active","ping":308},{"user_id":283,"name":"DrExplosive","steam_id":76561198063678579,"connected_time":2420000000000,"state":"active","ping":53},{"user_id":341,"name":"üå≠ tendon *dafran junkrat","steam_id":76561198870764276,"connected_time":78000000000,"state":"active","ping":74},{"user_id":342,"name":"jt7","steam_id":76561198073655162,"connected_time":71000000000,"state":"active","ping":65},{"user_id":328,"name":"NothingMan","steam_id":76561198051284446,"connected_time":441000000000,"state":"active","ping":54},{"user_id":315,"name":"wootabs","steam_id":76561198831766743,"connected_time":954000000000,"state":"active","ping":74},{"user_id":294,"name":"Pronton","steam_id":76561198082502910,"connected_time":2244000000000,"state":"active","ping":58},{"user_id":320,"name":"Kapitan Polska","steam_id":76561197968069413,"connected_time":782000000000,"state":"active","ping":76}]},{"server_id":310,"name":"Uncletopia | Frankfurt | 5 | All Maps","name_short":"frk-5","host":"frk-1.de.uncletopia.com","port":27055,"enabled":true,"region":"eu","cc":"de","latitude":50.110924,"longitude":8.682127,"reserved":0,"last_update":"0001-01-01T00:00:00Z","name_a2s":"Uncletopia | Frankfurt | 5 | All Maps","protocol":17,"map":"pl_snowycoast","folder":"tf","game":"Team Fortress","app_id":440,"player_count":24,"max_players":24,"Bots":0,"server_type":"Dedicated","server_os":"Linux","password":true,"vac":true,"version":"7723704","steam_id":85568392924504277,"keywords":["nocrits","nodmgspread","payload","uncletopia"],"game_id":440,"stv_port":27056,"stv_name":"Uncletopia | Frankfurt | 5 | All Maps | STV","players":[{"user_id":312,"name":"toidi","steam_id":76561198029148234,"connected_time":3221000000000,"state":"active","ping":72},{"user_id":228,"name":"0xDEADBEEF","steam_id":76561199075416111,"connected_time":8267000000000,"state":"active","ping":90},{"user_id":316,"name":"loge","steam_id":76561198046307460,"connected_time":3200000000000,"state":"active","ping":49},{"user_id":343,"name":"LoboPaciente","steam_id":76561198088870962,"connected_time":1274000000000,"state":"active","ping":66},{"user_id":346,"name":"Turbo Unge","steam_id":76561199067700855,"connected_time":1245000000000,"state":"active","ping":71},{"user_id":344,"name":"Carpe diem.","steam_id":76561199065917088,"connected_time":1261000000000,"state":"active","ping":68},{"user_id":374,"name":"Mari_Kross","steam_id":76561198130863086,"connected_time":5000000000,"state":"spawning","ping":84},{"user_id":324,"name":"r06u3","steam_id":76561198254099253,"connected_time":2891000000000,"state":"active","ping":182},{"user_id":361,"name":"alexander","steam_id":76561198257069012,"connected_time":680000000000,"state":"active","ping":65},{"user_id":327,"name":"Herzeleid","steam_id":76561198148668665,"connected_time":2809000000000,"state":"active","ping":74},{"user_id":341,"name":"Raven","steam_id":76561198087296188,"connected_time":1329000000000,"state":"active","ping":67},{"user_id":369,"name":"imrealylazy","steam_id":76561198878574518,"connected_time":436000000000,"state":"active","ping":66},{"user_id":229,"name":":)","steam_id":76561198039964082,"connected_time":8076000000000,"state":"active","ping":58},{"user_id":363,"name":"Condigium","steam_id":76561198838929185,"connected_time":613000000000,"state":"active","ping":39},{"user_id":319,"name":"simn","steam_id":76561198159182269,"connected_time":3138000000000,"state":"active","ping":49},{"user_id":367,"name":"festive FoOz","steam_id":76561197998636728,"connected_time":534000000000,"state":"active","ping":65},{"user_id":373,"name":"Kenopsia","steam_id":76561198126750888,"connected_time":7000000000,"state":"spawning","ping":84},{"user_id":358,"name":"Crisps","steam_id":76561198088973774,"connected_time":784000000000,"state":"active","ping":56},{"user_id":355,"name":"alvinulv","steam_id":76561198024487177,"connected_time":1021000000000,"state":"active","ping":60},{"user_id":337,"name":"[HOL] Solringen","steam_id":76561198003584681,"connected_time":2273000000000,"state":"active","ping":69},{"user_id":338,"name":"ReDsinat0r","steam_id":76561198365973345,"connected_time":1512000000000,"state":"active","ping":51},{"user_id":360,"name":"TheBeardedM1G","steam_id":76561198040208946,"connected_time":759000000000,"state":"active","ping":75},{"user_id":353,"name":"Mrpg","steam_id":76561198183722103,"connected_time":1170000000000,"state":"active","ping":72},{"user_id":372,"name":"WolfmanCZ","steam_id":76561199157141414,"connected_time":40000000000,"state":"active","ping":69}]},{"server_id":311,"name":"Uncletopia | Frankfurt | 6 | All Maps","name_short":"frk-6","host":"frk-1.de.uncletopia.com","port":27065,"enabled":true,"region":"eu","cc":"de","latitude":50.110924,"longitude":8.682127,"reserved":0,"last_update":"0001-01-01T00:00:00Z","name_a2s":"Uncletopia | Frankfurt | 6 | All Maps","protocol":17,"map":"pl_frontier_final","folder":"tf","game":"Team Fortress","app_id":440,"player_count":24,"max_players":24,"Bots":0,"server_type":"Dedicated","server_os":"Linux","password":true,"vac":true,"version":"7723704","steam_id":85568392924504278,"keywords":["nocrits","nodmgspread","payload","uncletopia"],"game_id":440,"stv_port":27066,"stv_name":"Uncletopia | Frankfurt | 6 | All Maps | STV","players":[{"user_id":251,"name":"Mr. Bean","steam_id":76561198086929777,"connected_time":831000000000,"state":"active","ping":45},{"user_id":249,"name":"peach soup","steam_id":76561199366403155,"connected_time":947000000000,"state":"active","ping":73},{"user_id":231,"name":"TSx* {Demon-Angel}","steam_id":76561198151486463,"connected_time":2030000000000,"state":"active","ping":66},{"user_id":226,"name":"Mclovin567","steam_id":76561198799105302,"connected_time":2089000000000,"state":"active","ping":57},{"user_id":136,"name":"After8","steam_id":76561198090750865,"connected_time":7519000000000,"state":"active","ping":68},{"user_id":262,"name":"Rubi","steam_id":76561198139410003,"connected_time":174000000000,"state":"active","ping":83},{"user_id":257,"name":"Tresnov","steam_id":76561198068106802,"connected_time":659000000000,"state":"active","ping":51},{"user_id":259,"name":"Largo","steam_id":76561198844368927,"connected_time":633000000000,"state":"active","ping":68},{"user_id":192,"name":"Marcos","steam_id":76561198798925721,"connected_time":3654000000000,"state":"active","ping":66},{"user_id":247,"name":"MCMC","steam_id":76561198049308162,"connected_time":1124000000000,"state":"active","ping":68},{"user_id":261,"name":"i am bread","steam_id":76561199180277321,"connected_time":322000000000,"state":"active","ping":67},{"user_id":253,"name":"Haggabah,WhoPliesTheUmbralPath","steam_id":76561198846984399,"connected_time":784000000000,"state":"active","ping":85},{"user_id":225,"name":"Ducky[WADZ]üê§","steam_id":76561198060341245,"connected_time":2267000000000,"state":"active","ping":37},{"user_id":154,"name":"lulu","steam_id":76561199147764133,"connected_time":5793000000000,"state":"active","ping":86},{"user_id":250,"name":"Garden Freeman","steam_id":76561199073314677,"connected_time":931000000000,"state":"active","ping":64},{"user_id":242,"name":"Explosion","steam_id":76561198033465837,"connected_time":1330000000000,"state":"active","ping":87},{"user_id":229,"name":"TSx* Osa__PL","steam_id":76561198027016799,"connected_time":2048000000000,"state":"active","ping":72},{"user_id":230,"name":"TSx* Naxer","steam_id":76561198011986779,"connected_time":2038000000000,"state":"active","ping":70},{"user_id":233,"name":"PONCHO 90","steam_id":76561198412197820,"connected_time":2015000000000,"state":"active","ping":77},{"user_id":248,"name":"Poodle","steam_id":76561198015483504,"connected_time":960000000000,"state":"active","ping":69},{"user_id":239,"name":"zooom132","steam_id":76561198314426404,"connected_time":1455000000000,"state":"active","ping":139},{"user_id":256,"name":"KoraSona","steam_id":76561199000322836,"connected_time":671000000000,"state":"active","ping":94},{"user_id":255,"name":"The Pyro Chef","steam_id":76561198069610259,"connected_time":758000000000,"state":"active","ping":55},{"user_id":245,"name":"ti ebanutiy?","steam_id":76561198244445226,"connected_time":1279000000000,"state":"active","ping":80}]},{"server_id":23,"name":"Uncletopia | Frankfurt | 7 | Stopwatch Beta","name_short":"frk-7","host":"frk-1.de.uncletopia.com","port":27075,"enabled":true,"region":"eu","cc":"de","latitude":50.110924,"longitude":8.682127,"reserved":0,"last_update":"0001-01-01T00:00:00Z","name_a2s":"Uncletopia | Frankfurt | 7 | Stopwatch Beta","protocol":17,"map":"workshop/pl_barnblitz_pro7.ugc582280235","folder":"tf","game":"Team Fortress","app_id":440,"player_count":0,"max_players":24,"Bots":0,"server_type":"Dedicated","server_os":"Linux","password":true,"vac":true,"version":"7723704","steam_id":85568392924742827,"keywords":["nocrits","nodmgspread","payload","uncletopia"],"game_id":440,"stv_port":27076,"stv_name":"Uncletopia | Frankfurt | 7 | Stopwatch Beta | STV","players":null},{"server_id":24,"name":"Uncletopia | Frankfurt | 8 | Community","name_short":"frk-8","host":"frk-1.de.uncletopia.com","port":27085,"enabled":true,"region":"eu","cc":"de","latitude":50.110924,"longitude":8.682127,"reserved":0,"last_update":"0001-01-01T00:00:00Z","name_a2s":"Uncletopia | Frankfurt | 8 | Community","protocol":17,"map":"workshop/pl_fifthcurve_rc1.ugc648227046","folder":"tf","game":"Team Fortress","app_id":440,"player_count":2,"max_players":24,"Bots":0,"server_type":"Dedicated","server_os":"Linux","password":true,"vac":true,"version":"7723704","steam_id":85568392924742828,"keywords":["nocrits","nodmgspread","payload","uncletopia"],"game_id":440,"stv_port":27086,"stv_name":"Uncletopia | Frankfurt | 8 | Community | STV","players":[{"user_id":31,"name":"Bash","steam_id":76561198013235573,"connected_time":137000000000,"state":"active","ping":75},{"user_id":32,"name":"Superior Turtle","steam_id":76561199051735799,"connected_time":37000000000,"state":"active","ping":53}]},{"server_id":202,"name":"Uncletopia | Hong Kong | 1 | All Maps","name_short":"hgk-1","host":"hgk-1.hk.uncletopia.com","port":27015,"enabled":true,"region":"asia","cc":"hk","latitude":22.302711,"longitude":114.177216,"reserved":0,"last_update":"0001-01-01T00:00:00Z","name_a2s":"Uncletopia | Hong Kong | 1 | All Maps","protocol":17,"map":"ctf_2fort","folder":"tf","game":"Team Fortress","app_id":440,"player_count":0,"max_players":24,"Bots":0,"server_type":"Dedicated","server_os":"Linux","password":true,"vac":true,"version":"7723704","steam_id":85568392924494504,"keywords":["ctf","nocrits","nodmgspread","uncletopia"],"game_id":440,"stv_port":27016,"stv_name":"Uncletopia | Hong Kong | 1 | All Maps | STV","players":null},{"server_id":1,"name":"Uncletopia | Los Angeles | 1 | All Maps","name_short":"lax-1","host":"lax-1.us.uncletopia.com","port":27015,"enabled":true,"region":"us-west","cc":"us","latitude":33.94279,"longitude":-118.41004,"reserved":0,"last_update":"0001-01-01T00:00:00Z","name_a2s":"Uncletopia | Los Angeles | 1 | All Maps","protocol":17,"map":"pl_thundermountain","folder":"tf","game":"Team Fortress","app_id":440,"player_count":22,"max_players":24,"Bots":0,"server_type":"Dedicated","server_os":"Linux","password":true,"vac":true,"version":"7723704","steam_id":85568392924469991,"keywords":["nocrits","nodmgspread","payload","uncletopia"],"game_id":440,"stv_port":27016,"stv_name":"Uncletopia | Los Angeles | 1 | All Maps | STV","players":[{"user_id":59,"name":"EatSomeBEES","steam_id":76561198047334307,"connected_time":161000000000,"state":"active","ping":67},{"user_id":35,"name":"A Puppy","steam_id":76561198828184456,"connected_time":2638000000000,"state":"active","ping":95},{"user_id":58,"name":"adorable","steam_id":76561199065645094,"connected_time":233000000000,"state":"active","ping":90},{"user_id":9,"name":"SlitherDoodle","steam_id":76561198000275473,"connected_time":3932000000000,"state":"active","ping":48},{"user_id":54,"name":"roln","steam_id":76561198041066271,"connected_time":853000000000,"state":"active","ping":75},{"user_id":60,"name":"vee","steam_id":76561198370757687,"connected_time":93000000000,"state":"active","ping":63},{"user_id":12,"name":"Klexo17","steam_id":76561199228704272,"connected_time":3680000000000,"state":"active","ping":52},{"user_id":43,"name":"Tohru Adachi","steam_id":76561198302118756,"connected_time":2414000000000,"state":"active","ping":53},{"user_id":20,"name":"StarWither","steam_id":76561198383264295,"connected_time":3080000000000,"state":"active","ping":80},{"user_id":61,"name":"BuhByeFalecia","steam_id":76561198364710587,"connected_time":51000000000,"state":"active","ping":78},{"user_id":62,"name":"Shark Sandwich","steam_id":76561198025007938,"connected_time":4000000000,"state":"spawning","ping":87},{"user_id":28,"name":"hoboways","steam_id":76561198168035195,"connected_time":2790000000000,"state":"active","ping":119},{"user_id":30,"name":"spyackaso spyu","steam_id":76561198039728594,"connected_time":2763000000000,"state":"active","ping":70},{"user_id":55,"name":"cinna.gamer.2007","steam_id":76561198309760791,"connected_time":679000000000,"state":"active","ping":89},{"user_id":53,"name":"benglengenlrer","steam_id":76561198150137369,"connected_time":977000000000,"state":"active","ping":45},{"user_id":32,"name":"Terra","steam_id":76561199095390353,"connected_time":2717000000000,"state":"active","ping":71},{"user_id":33,"name":"ZoomPickle","steam_id":76561198801107779,"connected_time":2685000000000,"state":"active","ping":108},{"user_id":56,"name":"The Toucher","steam_id":76561198263739357,"connected_time":466000000000,"state":"active","ping":62},{"user_id":57,"name":"eyeball","steam_id":76561198307697528,"connected_time":427000000000,"state":"active","ping":48},{"user_id":44,"name":"ArnoldGaming","steam_id":76561198040140247,"connected_time":2404000000000,"state":"active","ping":125},{"user_id":47,"name":"TheBold","steam_id":76561199194787298,"connected_time":2110000000000,"state":"active","ping":47},{"user_id":51,"name":"cookiegenius2398.r2","steam_id":76561198970759258,"connected_time":1638000000000,"state":"active","ping":58}]},{"server_id":112,"name":"Uncletopia | Los Angeles | 2 | All Maps","name_short":"lax-2","host":"lax-1.us.uncletopia.com","port":27025,"enabled":true,"region":"us-west","cc":"us","latitude":33.94279,"longitude":-118.41004,"reserved":0,"last_update":"0001-01-01T00:00:00Z","name_a2s":"Uncletopia | Los Angeles | 2 | All Maps","protocol":17,"map":"koth_viaduct","folder":"tf","game":"Team Fortress","app_id":440,"player_count":0,"max_players":24,"Bots":0,"server_type":"Dedicated","server_os":"Linux","password":true,"vac":true,"version":"7723704","steam_id":85568392924469992,"keywords":["cp","nocrits","nodmgspread","uncletopia"],"game_id":440,"stv_port":27026,"stv_name":"Uncletopia | Los Angeles | 2 | All Maps | STV","players":null},{"server_id":324,"name":"Uncletopia | Los Angeles | 3 | All Maps","name_short":"lax-3","host":"lax-1.us.uncletopia.com","port":27035,"enabled":true,"region":"us-west","cc":"us","latitude":33.94279,"longitude":-118.41004,"reserved":0,"last_update":"0001-01-01T00:00:00Z","name_a2s":"Uncletopia | Los Angeles | 3 | All Maps","protocol":17,"map":"koth_viaduct","folder":"tf","game":"Team Fortress","app_id":440,"player_count":0,"max_players":24,"Bots":0,"server_type":"Dedicated","server_os":"Linux","password":true,"vac":true,"version":"7723704","steam_id":85568392924510198,"keywords":["cp","nocrits","nodmgspread","uncletopia"],"game_id":440,"stv_port":27036,"stv_name":"Uncletopia | Los Angeles | 3 | All Maps | STV","players":null},{"server_id":25,"name":"Uncletopia | Los Angeles | 4 | Stopwatch Beta","name_short":"lax-4","host":"lax-1.us.uncletopia.com","port":27045,"enabled":true,"region":"us-west","cc":"us","latitude":33.94279,"longitude":-118.41004,"reserved":0,"last_update":"0001-01-01T00:00:00Z","name_a2s":"Uncletopia | Los Angeles | 4 | Stopwatch Beta","protocol":17,"map":"cp_sunshine","folder":"tf","game":"Team Fortress","app_id":440,"player_count":0,"max_players":24,"Bots":0,"server_type":"Dedicated","server_os":"Linux","password":true,"vac":true,"version":"7723704","steam_id":85568392924510199,"keywords":["cp","nocrits","nodmgspread","uncletopia"],"game_id":440,"stv_port":27046,"stv_name":"Uncletopia | Los Angeles | 4 | Stopwatch Beta | STV","players":null},{"server_id":11,"name":"Uncletopia | London | 1 | All Maps","name_short":"lon-1","host":"lon-1.uk.uncletopia.com","port":27015,"enabled":true,"region":"eu","cc":"gb","latitude":51.509865,"longitude":-0.118092,"reserved":0,"last_update":"0001-01-01T00:00:00Z","name_a2s":"Uncletopia | London | 1 | All Maps","protocol":17,"map":"pl_borneo","folder":"tf","game":"Team Fortress","app_id":440,"player_count":24,"max_players":24,"Bots":0,"server_type":"Dedicated","server_os":"Linux","password":true,"vac":true,"version":"7723704","steam_id":85568392924367362,"keywords":["nocrits","nodmgspread","payload","uncletopia"],"game_id":440,"stv_port":27016,"stv_name":"Uncletopia | London | 1 | All Maps | STV","players":[{"user_id":673,"name":"No Status","steam_id":76561198119526557,"connected_time":1709000000000,"state":"active","ping":36},{"user_id":688,"name":"Waste Of Oxygen","steam_id":76561198042269998,"connected_time":637000000000,"state":"active","ping":62},{"user_id":662,"name":"cheesecake.","steam_id":76561198426604784,"connected_time":2220000000000,"state":"active","ping":46},{"user_id":691,"name":"CookD Bread","steam_id":76561199293209500,"connected_time":432000000000,"state":"active","ping":54},{"user_id":682,"name":"unbelievable polish behavior","steam_id":76561198126524735,"connected_time":1151000000000,"state":"active","ping":84},{"user_id":561,"name":"Bones","steam_id":76561198065081225,"connected_time":8504000000000,"state":"active","ping":28},{"user_id":565,"name":"LarsInABox","steam_id":76561198028329262,"connected_time":8127000000000,"state":"active","ping":74},{"user_id":660,"name":"Newax","steam_id":76561198020758511,"connected_time":2303000000000,"state":"active","ping":75},{"user_id":668,"name":"Windows Vista Cruiser","steam_id":76561198064102233,"connected_time":2060000000000,"state":"active","ping":54},{"user_id":687,"name":"Jaxonfogcap","steam_id":76561198327688357,"connected_time":656000000000,"state":"active","ping":36},{"user_id":685,"name":"Ariel ‚®Å ·ö®·ö±·õÅ·õñ·õöüå™","steam_id":76561198011340227,"connected_time":668000000000,"state":"active","ping":61},{"user_id":686,"name":"eggslut","steam_id":76561198010752241,"connected_time":668000000000,"state":"active","ping":64},{"user_id":689,"name":"nudjura","steam_id":76561198281986139,"connected_time":533000000000,"state":"active","ping":46},{"user_id":693,"name":"Do not kill the friendly","steam_id":76561198084982609,"connected_time":90000000000,"state":"active","ping":164},{"user_id":665,"name":"Maranhadas","steam_id":76561198152856761,"connected_time":2121000000000,"state":"active","ping":154},{"user_id":692,"name":"Salesman","steam_id":76561198045527771,"connected_time":230000000000,"state":"active","ping":51},{"user_id":690,"name":"Sloppy polish handyman","steam_id":76561198126398022,"connected_time":455000000000,"state":"active","ping":75},{"user_id":667,"name":"Videogamer","steam_id":76561198106012909,"connected_time":2087000000000,"state":"active","ping":72},{"user_id":676,"name":"Pungkrockaren","steam_id":76561198050214002,"connected_time":1526000000000,"state":"active","ping":61},{"user_id":675,"name":"djirek","steam_id":76561199012963376,"connected_time":1680000000000,"state":"active","ping":64},{"user_id":678,"name":"Gr√∏nkj√¶r","steam_id":76561198041075280,"connected_time":1465000000000,"state":"active","ping":72},{"user_id":566,"name":"Serton‚ôù","steam_id":76561198011061126,"connected_time":7981000000000,"state":"active","ping":80},{"user_id":645,"name":"ghost","steam_id":76561198189940229,"connected_time":3765000000000,"state":"active","ping":60},{"user_id":681,"name":"Boobs grader","steam_id":76561198062107879,"connected_time":1283000000000,"state":"active","ping":84}]},{"server_id":114,"name":"Uncletopia | London | 2 | All Maps","name_short":"lon-2","host":"lon-1.uk.uncletopia.com","port":27025,"enabled":true,"region":"eu","cc":"gb","latitude":51.509865,"longitude":-0.118092,"reserved":0,"last_update":"0001-01-01T00:00:00Z","name_a2s":"Uncletopia | London | 2 | All Maps","protocol":17,"map":"pl_badwater","folder":"tf","game":"Team Fortress","app_id":440,"player_count":24,"max_players":24,"Bots":0,"server_type":"Dedicated","server_os":"Linux","password":true,"vac":true,"version":"7723704","steam_id":85568392924470941,"keywords":["nocrits","nodmgspread","payload","uncletopia"],"game_id":440,"stv_port":27026,"stv_name":"Uncletopia | London | 2 | All Maps | STV","players":[{"user_id":436,"name":"Jingleboob's 1# Elf","steam_id":76561198067204908,"connected_time":4649000000000,"state":"active","ping":54},{"user_id":489,"name":"DefinitelyNotClorox","steam_id":76561198056801474,"connected_time":371000000000,"state":"active","ping":54},{"user_id":467,"name":"steve","steam_id":76561198170409402,"connected_time":2017000000000,"state":"active","ping":78},{"user_id":476,"name":"stun","steam_id":76561198276681691,"connected_time":1101000000000,"state":"active","ping":46},{"user_id":448,"name":"Boil em mash em","steam_id":76561198026508026,"connected_time":2816000000000,"state":"active","ping":61},{"user_id":496,"name":"System","steam_id":76561199442503973,"connected_time":154000000000,"state":"active","ping":55},{"user_id":418,"name":"bio\"boner killer\"fun","steam_id":76561198170609049,"connected_time":5003000000000,"state":"active","ping":60},{"user_id":494,"name":"himbolover","steam_id":76561199052017231,"connected_time":267000000000,"state":"active","ping":60},{"user_id":481,"name":"Jayco","steam_id":76561198122497262,"connected_time":693000000000,"state":"active","ping":52},{"user_id":449,"name":"Hey, I¬¥m Andy!","steam_id":76561198060337777,"connected_time":2801000000000,"state":"active","ping":75},{"user_id":456,"name":"professional yellow man","steam_id":76561198060200599,"connected_time":2373000000000,"state":"active","ping":105},{"user_id":458,"name":"PASTAMANIA!","steam_id":76561197967858558,"connected_time":2353000000000,"state":"active","ping":38},{"user_id":475,"name":"demoknight","steam_id":76561198320028262,"connected_time":1370000000000,"state":"active","ping":84},{"user_id":482,"name":"[GER] Catman","steam_id":76561198105028151,"connected_time":660000000000,"state":"active","ping":60},{"user_id":483,"name":"wolfgang","steam_id":76561199111818670,"connected_time":653000000000,"state":"active","ping":97},{"user_id":484,"name":"LOBZIK","steam_id":76561198114830120,"connected_time":641000000000,"state":"active","ping":77},{"user_id":463,"name":"Caramel","steam_id":76561198021214844,"connected_time":2208000000000,"state":"active","ping":46},{"user_id":451,"name":"tob:ias","steam_id":76561198832146626,"connected_time":2753000000000,"state":"active","ping":50},{"user_id":426,"name":"jingleboob","steam_id":76561198097507847,"connected_time":4872000000000,"state":"active","ping":77},{"user_id":452,"name":"dnl","steam_id":76561198074156929,"connected_time":2752000000000,"state":"active","ping":72},{"user_id":495,"name":"KeNNy L.O.L","steam_id":76561198041918418,"connected_time":225000000000,"state":"active","ping":104},{"user_id":477,"name":"Flint","steam_id":76561197995920776,"connected_time":895000000000,"state":"active","ping":47},{"user_id":471,"name":"Dark Lord","steam_id":76561198047359132,"connected_time":1875000000000,"state":"active","ping":75},{"user_id":469,"name":"Typical","steam_id":76561199009805172,"connected_time":1995000000000,"state":"active","ping":48}]},{"server_id":320,"name":"Uncletopia | London | 3 | All Maps","name_short":"lon-3","host":"lon-1.uk.uncletopia.com","port":27035,"enabled":true,"region":"eu","cc":"gb","latitude":51.509865,"longitude":-0.118092,"reserved":0,"last_update":"0001-01-01T00:00:00Z","name_a2s":"Uncletopia | London | 3 | All Maps","protocol":17,"map":"ctf_2fort","folder":"tf","game":"Team Fortress","app_id":440,"player_count":25,"max_players":24,"Bots":0,"server_type":"Dedicated","server_os":"Linux","password":true,"vac":true,"version":"7723704","steam_id":85568392924510192,"keywords":["ctf","nocrits","nodmgspread","uncletopia"],"game_id":440,"stv_port":27036,"stv_name":"Uncletopia | London | 3 | All Maps | STV","players":[{"user_id":410,"name":"padillacampos","steam_id":76561198161923970,"connected_time":1680000000000,"state":"active","ping":70},{"user_id":433,"name":"‡∂ûbominasus 2137  #SaveTF2","steam_id":76561198030062981,"connected_time":421000000000,"state":"active","ping":67},{"user_id":424,"name":"Multi","steam_id":76561197998338481,"connected_time":853000000000,"state":"active","ping":63},{"user_id":438,"name":"SK:NaikoN Piss|xit?","steam_id":76561199033423134,"connected_time":169000000000,"state":"active","ping":70},{"user_id":439,"name":"Niko","steam_id":76561198425404395,"connected_time":168000000000,"state":"active","ping":62},{"user_id":399,"name":"Svilar","steam_id":76561198828348612,"connected_time":2576000000000,"state":"active","ping":56},{"user_id":326,"name":"Nexosert","steam_id":76561198941142018,"connected_time":8855000000000,"state":"active","ping":67},{"user_id":444,"name":"UNO, The Ubisoft Original","steam_id":76561198846784757,"connected_time":99000000000,"state":"active","ping":52},{"user_id":413,"name":"Dr. Funkenstein","steam_id":76561197977816210,"connected_time":1436000000000,"state":"active","ping":50},{"user_id":338,"name":"YILK","steam_id":76561198077913307,"connected_time":7994000000000,"state":"active","ping":45},{"user_id":395,"name":"Bigson","steam_id":76561198114214362,"connected_time":3010000000000,"state":"active","ping":47},{"user_id":418,"name":"Equinox","steam_id":76561199055592635,"connected_time":1413000000000,"state":"active","ping":54},{"user_id":434,"name":"Creative","steam_id":76561198835034247,"connected_time":371000000000,"state":"active","ping":89},{"user_id":443,"name":"F","steam_id":76561199149462792,"connected_time":100000000000,"state":"active","ping":59},{"user_id":446,"name":"vitalij.ochs","steam_id":76561199438809382,"connected_time":52000000000,"state":"connecting","ping":0},{"user_id":447,"name":"Le Chevalier Pingouin","steam_id":76561198221355000,"connected_time":48000000000,"state":"active","ping":38},{"user_id":429,"name":"EvilMelon.","steam_id":76561197975718875,"connected_time":681000000000,"state":"active","ping":45},{"user_id":409,"name":"kayblu","steam_id":76561198182394257,"connected_time":1739000000000,"state":"active","ping":80},{"user_id":435,"name":"Ecton","steam_id":76561198025103720,"connected_time":364000000000,"state":"active","ping":55},{"user_id":426,"name":"Lightbulb Monkey","steam_id":76561198045033173,"connected_time":805000000000,"state":"active","ping":52},{"user_id":432,"name":"dilpil","steam_id":76561199125789943,"connected_time":484000000000,"state":"active","ping":49},{"user_id":436,"name":"Pinguyay","steam_id":76561199116483680,"connected_time":342000000000,"state":"active","ping":65},{"user_id":391,"name":"heisenburger","steam_id":76561198284589853,"connected_time":3781000000000,"state":"active","ping":94},{"user_id":448,"name":"Michael","steam_id":76561198003146906,"connected_time":40000000000,"state":"active","ping":45},{"user_id":440,"name":"Pauler le one","steam_id":76561198398152855,"connected_time":168000000000,"state":"active","ping":100}]},{"server_id":321,"name":"Uncletopia | London | 4 | All Maps","name_short":"lon-4","host":"lon-1.uk.uncletopia.com","port":27045,"enabled":true,"region":"eu","cc":"gb","latitude":51.509865,"longitude":-0.118092,"reserved":0,"last_update":"0001-01-01T00:00:00Z","name_a2s":"Uncletopia | London | 4 | All Maps","protocol":17,"map":"pl_frontier_final","folder":"tf","game":"Team Fortress","app_id":440,"player_count":18,"max_players":24,"Bots":0,"server_type":"Dedicated","server_os":"Linux","password":true,"vac":true,"version":"7723704","steam_id":85568392924510193,"keywords":["nocrits","nodmgspread","payload","uncletopia"],"game_id":440,"stv_port":27046,"stv_name":"Uncletopia | London | 4 | All Maps | STV","players":[{"user_id":177,"name":"calywtrawie","steam_id":76561197986723054,"connected_time":10000000000,"state":"spawning","ping":62},{"user_id":175,"name":"simon","steam_id":76561198880361394,"connected_time":208000000000,"state":"active","ping":62},{"user_id":160,"name":"cum fart","steam_id":76561198382533813,"connected_time":1485000000000,"state":"active","ping":46},{"user_id":176,"name":"mental","steam_id":76561198235959132,"connected_time":92000000000,"state":"active","ping":76},{"user_id":154,"name":"zek","steam_id":76561198862763731,"connected_time":1883000000000,"state":"active","ping":73},{"user_id":131,"name":"still the best 1973 #savetf2","steam_id":76561199221139822,"connected_time":3477000000000,"state":"active","ping":94},{"user_id":161,"name":"SaltyCupcakes","steam_id":76561198256386417,"connected_time":1412000000000,"state":"active","ping":37},{"user_id":126,"name":"Miros10","steam_id":76561198196667978,"connected_time":3631000000000,"state":"active","ping":65},{"user_id":98,"name":"Atomic homo","steam_id":76561198058944826,"connected_time":4432000000000,"state":"active","ping":58},{"user_id":167,"name":"Elijah Wood","steam_id":76561198174318447,"connected_time":718000000000,"state":"active","ping":60},{"user_id":151,"name":"BigManlyMan123","steam_id":76561198051369028,"connected_time":1914000000000,"state":"active","ping":55},{"user_id":168,"name":"aphex only child","steam_id":76561198058897463,"connected_time":627000000000,"state":"active","ping":48},{"user_id":138,"name":"|WS| Don't_Taze_Me_Bro","steam_id":76561198043289495,"connected_time":2790000000000,"state":"active","ping":137},{"user_id":170,"name":"jankomit","steam_id":76561198043024857,"connected_time":523000000000,"state":"active","ping":103},{"user_id":127,"name":"kapsel","steam_id":76561198126564423,"connected_time":3576000000000,"state":"active","ping":69},{"user_id":148,"name":"MS","steam_id":76561198037560108,"connected_time":1975000000000,"state":"active","ping":32},{"user_id":173,"name":"scarf","steam_id":76561198118873912,"connected_time":482000000000,"state":"active","ping":85},{"user_id":166,"name":"Zero","steam_id":76561199383267408,"connected_time":1110000000000,"state":"active","ping":140}]},{"server_id":21,"name":"Uncletopia | London | 5 | All Maps","name_short":"lon-5","host":"lon-1.uk.uncletopia.com","port":27055,"enabled":true,"region":"eu","cc":"gb","latitude":51.509865,"longitude":-0.118092,"reserved":0,"last_update":"0001-01-01T00:00:00Z","name_a2s":"Uncletopia | London | 5 | All Maps","protocol":17,"map":"pl_borneo","folder":"tf","game":"Team Fortress","app_id":440,"player_count":24,"max_players":24,"Bots":0,"server_type":"Dedicated","server_os":"Linux","password":true,"vac":true,"version":"7723704","steam_id":85568392924742829,"keywords":["nocrits","nodmgspread","payload","uncletopia"],"game_id":440,"stv_port":27056,"stv_name":"Uncletopia | London | 5 | All Maps | STV","players":[{"user_id":170,"name":"YS üë∫","steam_id":76561198040128985,"connected_time":3964000000000,"state":"active","ping":58},{"user_id":212,"name":"wombatty","steam_id":76561198046873337,"connected_time":557000000000,"state":"active","ping":54},{"user_id":132,"name":"dairy","steam_id":76561198117033273,"connected_time":6230000000000,"state":"active","ping":59},{"user_id":161,"name":"raccoon toddler","steam_id":76561198015876799,"connected_time":5008000000000,"state":"active","ping":71},{"user_id":138,"name":"wombly bombly :3","steam_id":76561198010662796,"connected_time":5898000000000,"state":"active","ping":59},{"user_id":188,"name":"Thesis","steam_id":76561199308784371,"connected_time":2352000000000,"state":"active","ping":70},{"user_id":211,"name":"AwterSix","steam_id":76561198042561678,"connected_time":622000000000,"state":"active","ping":62},{"user_id":214,"name":"Wombasticious","steam_id":76561198133901720,"connected_time":282000000000,"state":"active","ping":65},{"user_id":208,"name":"Dr. Hannibal Erekter","steam_id":76561198256093319,"connected_time":817000000000,"state":"active","ping":79},{"user_id":205,"name":"soap lore","steam_id":76561198058879767,"connected_time":997000000000,"state":"active","ping":50},{"user_id":194,"name":"ev1lboyo","steam_id":76561199199499453,"connected_time":2082000000000,"state":"active","ping":85},{"user_id":144,"name":"wombat","steam_id":76561198076219289,"connected_time":5617000000000,"state":"active","ping":56},{"user_id":190,"name":"Gramma!","steam_id":76561198340989175,"connected_time":2199000000000,"state":"active","ping":162},{"user_id":206,"name":"British Disapproval","steam_id":76561198001375260,"connected_time":987000000000,"state":"active","ping":50},{"user_id":192,"name":"sock","steam_id":76561199117597830,"connected_time":2143000000000,"state":"active","ping":125},{"user_id":199,"name":"ArekanPL","steam_id":76561198306811916,"connected_time":1763000000000,"state":"active","ping":64},{"user_id":203,"name":"gamer man","steam_id":76561198436817109,"connected_time":1137000000000,"state":"active","ping":54},{"user_id":210,"name":"garthag","steam_id":76561198042039318,"connected_time":673000000000,"state":"active","ping":37},{"user_id":198,"name":"bAdmon","steam_id":76561197961785793,"connected_time":1968000000000,"state":"active","ping":51},{"user_id":217,"name":"supermariogrows","steam_id":76561198200238915,"connected_time":51000000000,"state":"active","ping":36},{"user_id":181,"name":"Smissmin","steam_id":76561198005342133,"connected_time":3156000000000,"state":"active","ping":38},{"user_id":204,"name":"Hugz","steam_id":76561198069572147,"connected_time":1027000000000,"state":"active","ping":50},{"user_id":216,"name":"owo","steam_id":76561199042470246,"connected_time":161000000000,"state":"active","ping":67},{"user_id":213,"name":"jaMie","steam_id":76561198170148783,"connected_time":523000000000,"state":"active","ping":37}]},{"server_id":22,"name":"Uncletopia | London | 6 | All Maps","name_short":"lon-6","host":"lon-1.uk.uncletopia.com","port":27065,"enabled":true,"region":"eu","cc":"gb","latitude":51.509865,"longitude":-0.118092,"reserved":0,"last_update":"0001-01-01T00:00:00Z","name_a2s":"Uncletopia | London | 6 | All Maps","protocol":17,"map":"pl_barnblitz","folder":"tf","game":"Team Fortress","app_id":440,"player_count":0,"max_players":24,"Bots":0,"server_type":"Dedicated","server_os":"Linux","password":true,"vac":true,"version":"7723704","steam_id":85568392924742830,"keywords":["nocrits","nodmgspread","payload","uncletopia"],"game_id":440,"stv_port":27066,"stv_name":"Uncletopia | London | 6 | All Maps | STV","players":null},{"server_id":40,"name":"Uncletopia | London | 7 | No Payload","name_short":"lon-7","host":"lon-1.uk.uncletopia.com","port":27075,"enabled":true,"region":"eu","cc":"gb","latitude":51.509865,"longitude":-0.118092,"reserved":0,"last_update":"0001-01-01T00:00:00Z","name_a2s":"Uncletopia | London | 7 | No Payload","protocol":17,"map":"plr_nightfall_final","folder":"tf","game":"Team Fortress","app_id":440,"player_count":0,"max_players":24,"Bots":0,"server_type":"Dedicated","server_os":"Linux","password":true,"vac":true,"version":"7723704","steam_id":85568392924964314,"keywords":["nocrits","nodmgspread","payload","uncletopia"],"game_id":440,"stv_port":27076,"stv_name":"Uncletopia | London | 7 | No Payload | STV","players":null},{"server_id":41,"name":"Uncletopia | London | 8 | Community","name_short":"lon-8","host":"lon-1.uk.uncletopia.com","port":27085,"enabled":true,"region":"eu","cc":"gb","latitude":51.509865,"longitude":-0.118092,"reserved":0,"last_update":"0001-01-01T00:00:00Z","name_a2s":"Uncletopia | London | 8 | Community","protocol":17,"map":"koth_highpass","folder":"tf","game":"Team Fortress","app_id":440,"player_count":0,"max_players":24,"Bots":0,"server_type":"Dedicated","server_os":"Linux","password":true,"vac":true,"version":"7723704","steam_id":85568392924964315,"keywords":["cp","nocrits","nodmgspread","uncletopia"],"game_id":440,"stv_port":27086,"stv_name":"Uncletopia | London | 8 | Community | STV","players":null},{"server_id":300,"name":"Uncletopia | Montr√©al | 1 | All Maps","name_short":"mtl-1","host":"mtl-1.ca.uncletopia.com","port":27015,"enabled":true,"region":"us-east","cc":"ca","latitude":45.50889,"longitude":-73.56167,"reserved":0,"last_update":"0001-01-01T00:00:00Z","name_a2s":"Uncletopia | Montr√©al | 1 | All Maps","protocol":17,"map":"cp_mountainlab","folder":"tf","game":"Team Fortress","app_id":440,"player_count":0,"max_players":24,"Bots":0,"server_type":"Dedicated","server_os":"Linux","password":true,"vac":true,"version":"7723704","steam_id":85568392924500087,"keywords":["cp","nocrits","nodmgspread","uncletopia"],"game_id":440,"stv_port":27016,"stv_name":"Uncletopia | Montr√©al | 1 | All Maps | STV","players":null},{"server_id":301,"name":"Uncletopia | Montr√©al | 2 | All Maps","name_short":"mtl-2","host":"mtl-1.ca.uncletopia.com","port":27025,"enabled":true,"region":"us-east","cc":"ca","latitude":45.50889,"longitude":-73.56167,"reserved":0,"last_update":"0001-01-01T00:00:00Z","name_a2s":"Uncletopia | Montr√©al | 2 | All Maps","protocol":17,"map":"cp_process_final","folder":"tf","game":"Team Fortress","app_id":440,"player_count":0,"max_players":24,"Bots":0,"server_type":"Dedicated","server_os":"Linux","password":true,"vac":true,"version":"7723704","steam_id":85568392924500088,"keywords":["cp","nocrits","nodmgspread","uncletopia"],"game_id":440,"stv_port":27026,"stv_name":"Uncletopia | Montr√©al | 2 | All Maps | STV","players":null},{"server_id":302,"name":"Uncletopia | Montr√©al | 3 | All Maps","name_short":"mtl-3","host":"mtl-1.ca.uncletopia.com","port":27035,"enabled":true,"region":"us-east","cc":"ca","latitude":45.50889,"longitude":-73.56167,"reserved":0,"last_update":"0001-01-01T00:00:00Z","name_a2s":"Uncletopia | Montr√©al | 3 | All Maps","protocol":17,"map":"pl_barnblitz","folder":"tf","game":"Team Fortress","app_id":440,"player_count":0,"max_players":24,"Bots":0,"server_type":"Dedicated","server_os":"Linux","password":true,"vac":true,"version":"7723704","steam_id":85568392924500089,"keywords":["nocrits","nodmgspread","payload","uncletopia"],"game_id":440,"stv_port":27036,"stv_name":"Uncletopia | Montr√©al | 3 | All Maps | STV","players":null},{"server_id":303,"name":"Uncletopia | Montr√©al | 4 | No Payload","name_short":"mtl-4","host":"mtl-1.ca.uncletopia.com","port":27045,"enabled":true,"region":"us-east","cc":"ca","latitude":45.50889,"longitude":-73.56167,"reserved":0,"last_update":"0001-01-01T00:00:00Z","name_a2s":"Uncletopia | Montr√©al | 4 | No Payload","protocol":17,"map":"koth_cascade","folder":"tf","game":"Team Fortress","app_id":440,"player_count":0,"max_players":24,"Bots":0,"server_type":"Dedicated","server_os":"Linux","password":true,"vac":true,"version":"7723704","steam_id":85568392924500090,"keywords":["cp","nocrits","nodmgspread","uncletopia"],"game_id":440,"stv_port":27046,"stv_name":"Uncletopia | Montr√©al | 4 | No Payload | STV","players":null},{"server_id":13,"name":"Uncletopia | New York City | 1 | All Maps","name_short":"nyc-1","host":"nyc-1.us.uncletopia.com","port":27015,"enabled":true,"region":"us-east","cc":"us","latitude":40.73061,"longitude":-73.93524,"reserved":0,"last_update":"0001-01-01T00:00:00Z","name_a2s":"Uncletopia | New York City | 1 | All Maps","protocol":17,"map":"pl_upward","folder":"tf","game":"Team Fortress","app_id":440,"player_count":1,"max_players":24,"Bots":0,"server_type":"Dedicated","server_os":"Linux","password":true,"vac":true,"version":"7723704","steam_id":85568392924469993,"keywords":["nocrits","nodmgspread","payload","uncletopia"],"game_id":440,"stv_port":27016,"stv_name":"Uncletopia | New York City | 1 | All Maps | STV","players":[{"user_id":5,"name":"dizzroll69","steam_id":76561199422394716,"connected_time":187000000000,"state":"active","ping":118}]},{"server_id":14,"name":"Uncletopia | New York City | 2 | All Maps","name_short":"nyc-2","host":"nyc-1.us.uncletopia.com","port":27025,"enabled":true,"region":"us-east","cc":"us","latitude":40.73061,"longitude":-73.93524,"reserved":0,"last_update":"0001-01-01T00:00:00Z","name_a2s":"Uncletopia | New York City | 2 | All Maps","protocol":17,"map":"pl_barnblitz","folder":"tf","game":"Team Fortress","app_id":440,"player_count":0,"max_players":24,"Bots":0,"server_type":"Dedicated","server_os":"Linux","password":true,"vac":true,"version":"7723704","steam_id":85568392924469994,"keywords":["nocrits","nodmgspread","payload","uncletopia"],"game_id":440,"stv_port":27026,"stv_name":"Uncletopia | New York City | 2 | All Maps | STV","players":null},{"server_id":15,"name":"Uncletopia | New York City | 3 | Stopwatch Beta","name_short":"nyc-3","host":"nyc-1.us.uncletopia.com","port":27035,"enabled":true,"region":"us-east","cc":"us","latitude":40.73061,"longitude":-73.93524,"reserved":0,"last_update":"0001-01-01T00:00:00Z","name_a2s":"Uncletopia | New York City | 3 | Stopwatch Beta","protocol":17,"map":"cp_process_final","folder":"tf","game":"Team Fortress","app_id":440,"player_count":0,"max_players":24,"Bots":0,"server_type":"Dedicated","server_os":"Linux","password":true,"vac":true,"version":"7723704","steam_id":85568392924742820,"keywords":["cp","nocrits","nodmgspread","uncletopia"],"game_id":440,"stv_port":27036,"stv_name":"Uncletopia | New York City | 3 | Stopwatch Beta | STV","players":null},{"server_id":16,"name":"Uncletopia | New York City | 4 | Community","name_short":"nyc-4","host":"nyc-1.us.uncletopia.com","port":27045,"enabled":true,"region":"us-east","cc":"us","latitude":40.73061,"longitude":-73.93524,"reserved":0,"last_update":"0001-01-01T00:00:00Z","name_a2s":"Uncletopia | New York City | 4 | Community","protocol":17,"map":"workshop/cp_caldera_rc2.ugc2834196889","folder":"tf","game":"Team Fortress","app_id":440,"player_count":0,"max_players":24,"Bots":0,"server_type":"Dedicated","server_os":"Linux","password":true,"vac":true,"version":"7723704","steam_id":85568392924742821,"keywords":["cp","nocrits","nodmgspread","uncletopia"],"game_id":440,"stv_port":27046,"stv_name":"Uncletopia | New York City | 4 | Community | STV","players":null},{"server_id":142,"name":"Uncletopia | S√£o Paulo | 1 | All Maps","name_short":"sao-1","host":"sao-1.br.uncletopia.com","port":27015,"enabled":true,"region":"sa","cc":"br","latitude":-23.533773,"longitude":-46.62529,"reserved":0,"last_update":"0001-01-01T00:00:00Z","name_a2s":"Uncletopia | S√£o Paulo | 1 | All Maps","protocol":17,"map":"koth_cascade","folder":"tf","game":"Team Fortress","app_id":440,"player_count":0,"max_players":24,"Bots":0,"server_type":"Dedicated","server_os":"Linux","password":true,"vac":true,"version":"7723704","steam_id":85568392924469996,"keywords":["cp","nocrits","nodmgspread","uncletopia"],"game_id":440,"stv_port":27016,"stv_name":"Uncletopia | S√£o Paulo | 1 | All Maps | STV","players":null},{"server_id":143,"name":"Uncletopia | S√£o Paulo | 2 | All Maps","name_short":"sao-2","host":"sao-2.br.uncletopia.com","port":27015,"enabled":true,"region":"sa","cc":"br","latitude":-23.533773,"longitude":-46.62529,"reserved":0,"last_update":"0001-01-01T00:00:00Z","name_a2s":"Uncletopia | S√£o Paulo | 2 | All Maps","protocol":17,"map":"pl_borneo","folder":"tf","game":"Team Fortress","app_id":440,"player_count":0,"max_players":24,"Bots":0,"server_type":"Dedicated","server_os":"Linux","password":true,"vac":true,"version":"7723704","steam_id":85568392924485349,"keywords":["nocrits","nodmgspread","payload","uncletopia"],"game_id":440,"stv_port":27016,"stv_name":"Uncletopia | S√£o Paulo | 2 | All Maps | STV","players":null},{"server_id":7,"name":"Uncletopia | Seattle | 1 | All Maps","name_short":"sea-1","host":"sea-1.us.uncletopia.com","port":27015,"enabled":true,"region":"us-west","cc":"us","latitude":47.608013,"longitude":-122.33517,"reserved":0,"last_update":"0001-01-01T00:00:00Z","name_a2s":"Uncletopia | Seattle | 1 | All Maps","protocol":17,"map":"koth_cascade","folder":"tf","game":"Team Fortress","app_id":440,"player_count":0,"max_players":24,"Bots":0,"server_type":"Dedicated","server_os":"Linux","password":true,"vac":true,"version":"7723704","steam_id":85568392924469997,"keywords":["cp","nocrits","nodmgspread","uncletopia"],"game_id":440,"stv_port":27016,"stv_name":"Uncletopia | Seattle | 1 | All Maps | STV","players":null},{"server_id":119,"name":"Uncletopia | Seattle | 2 | All Maps","name_short":"sea-2","host":"sea-1.us.uncletopia.com","port":27025,"enabled":true,"region":"us-west","cc":"us","latitude":47.608013,"longitude":-122.33517,"reserved":0,"last_update":"0001-01-01T00:00:00Z","name_a2s":"Uncletopia | Seattle | 2 | All Maps","protocol":17,"map":"cp_process_final","folder":"tf","game":"Team Fortress","app_id":440,"player_count":0,"max_players":24,"Bots":0,"server_type":"Dedicated","server_os":"Linux","password":true,"vac":true,"version":"7723704","steam_id":85568392924469998,"keywords":["cp","nocrits","nodmgspread","uncletopia"],"game_id":440,"stv_port":27026,"stv_name":"Uncletopia | Seattle | 2 | All Maps | STV","players":null},{"server_id":406,"name":"Uncletopia | Seattle | 3 | Stopwatch Beta","name_short":"sea-3","host":"sea-1.us.uncletopia.com","port":27035,"enabled":true,"region":"us-west","cc":"us","latitude":47.608013,"longitude":-122.33517,"reserved":0,"last_update":"0001-01-01T00:00:00Z","name_a2s":"Uncletopia | Seattle | 3 | Stopwatch Beta","protocol":17,"map":"cp_altitude","folder":"tf","game":"Team Fortress","app_id":440,"player_count":0,"max_players":24,"Bots":0,"server_type":"Dedicated","server_os":"Linux","password":true,"vac":false,"version":"7723704","steam_id":0,"keywords":["cp","nocrits","nodmgspread","uncletopia"],"game_id":440,"stv_port":27036,"stv_name":"Uncletopia | Seattle | 3 | Stopwatch Beta | STV","players":null},{"server_id":17,"name":"Uncletopia | San Francisco | 1 | All Maps","name_short":"sfo-1","host":"sfo-1.us.uncletopia.com","port":27015,"enabled":true,"region":"us-west","cc":"us","latitude":37.77397,"longitude":-122.4313,"reserved":0,"last_update":"0001-01-01T00:00:00Z","name_a2s":"Uncletopia | San Francisco | 1 | All Maps","protocol":17,"map":"cp_sunshine","folder":"tf","game":"Team Fortress","app_id":440,"player_count":0,"max_players":24,"Bots":0,"server_type":"Dedicated","server_os":"Linux","password":true,"vac":true,"version":"7723704","steam_id":85568392924469999,"keywords":["cp","nocrits","nodmgspread","uncletopia"],"game_id":440,"stv_port":27016,"stv_name":"Uncletopia | San Francisco | 1 | All Maps | STV","players":null},{"server_id":18,"name":"Uncletopia | San Francisco | 2 | All Maps","name_short":"sfo-2","host":"sfo-1.us.uncletopia.com","port":27025,"enabled":true,"region":"us-west","cc":"us","latitude":37.77397,"longitude":-122.4313,"reserved":0,"last_update":"0001-01-01T00:00:00Z","name_a2s":"Uncletopia | San Francisco | 2 | All Maps","protocol":17,"map":"pl_borneo","folder":"tf","game":"Team Fortress","app_id":440,"player_count":0,"max_players":24,"Bots":0,"server_type":"Dedicated","server_os":"Linux","password":true,"vac":true,"version":"7723704","steam_id":85568392924470000,"keywords":["nocrits","nodmgspread","payload","uncletopia"],"game_id":440,"stv_port":27026,"stv_name":"Uncletopia | San Francisco | 2 | All Maps | STV","players":null},{"server_id":19,"name":"Uncletopia | San Francisco | 3 | Stopwatch Beta","name_short":"sfo-3","host":"sfo-1.us.uncletopia.com","port":27035,"enabled":true,"region":"us-west","cc":"us","latitude":37.77397,"longitude":-122.4313,"reserved":0,"last_update":"0001-01-01T00:00:00Z","name_a2s":"Uncletopia | San Francisco | 3 | Stopwatch Beta","protocol":17,"map":"pl_pier","folder":"tf","game":"Team Fortress","app_id":440,"player_count":0,"max_players":24,"Bots":0,"server_type":"Dedicated","server_os":"Linux","password":true,"vac":true,"version":"7723704","steam_id":85568392924742824,"keywords":["nocrits","nodmgspread","payload","uncletopia"],"game_id":440,"stv_port":27036,"stv_name":"Uncletopia | San Francisco | 3 | Stopwatch Beta | STV","players":null},{"server_id":20,"name":"Uncletopia | San Francisco | 4 | Community","name_short":"sfo-4","host":"sfo-1.us.uncletopia.com","port":27045,"enabled":true,"region":"us-west","cc":"us","latitude":37.77397,"longitude":-122.4313,"reserved":0,"last_update":"0001-01-01T00:00:00Z","name_a2s":"Uncletopia | San Francisco | 4 | Community","protocol":17,"map":"koth_cascade","folder":"tf","game":"Team Fortress","app_id":440,"player_count":0,"max_players":24,"Bots":0,"server_type":"Dedicated","server_os":"Linux","password":true,"vac":true,"version":"7723704","steam_id":85568392924742826,"keywords":["cp","nocrits","nodmgspread","uncletopia"],"game_id":440,"stv_port":27046,"stv_name":"Uncletopia | San Francisco | 4 | Community | STV","players":null},{"server_id":141,"name":"Uncletopia | Sydney | 1 | All Maps","name_short":"syd-1","host":"syd-1.au.uncletopia.com","port":27015,"enabled":true,"region":"au","cc":"au","latitude":-33.865143,"longitude":151.2099,"reserved":0,"last_update":"0001-01-01T00:00:00Z","name_a2s":"Uncletopia | Sydney | 1 | All Maps","protocol":17,"map":"cp_dustbowl","folder":"tf","game":"Team Fortress","app_id":440,"player_count":0,"max_players":24,"Bots":0,"server_type":"Dedicated","server_os":"Linux","password":true,"vac":true,"version":"7723704","steam_id":85568392924470001,"keywords":["cp","nocrits","nodmgspread","uncletopia"],"game_id":440,"stv_port":27016,"stv_name":"Uncletopia | Sydney | 1 | All Maps | STV","players":null},{"server_id":123,"name":"Uncletopia | Sydney | 2 | All Maps","name_short":"syd-2","host":"syd-1.au.uncletopia.com","port":27025,"enabled":true,"region":"au","cc":"au","latitude":-33.865143,"longitude":151.2099,"reserved":0,"last_update":"0001-01-01T00:00:00Z","name_a2s":"Uncletopia | Sydney | 2 | All Maps","protocol":17,"map":"cp_mountainlab","folder":"tf","game":"Team Fortress","app_id":440,"player_count":0,"max_players":24,"Bots":0,"server_type":"Dedicated","server_os":"Linux","password":true,"vac":true,"version":"7723704","steam_id":85568392924470002,"keywords":["cp","nocrits","nodmgspread","uncletopia"],"game_id":440,"stv_port":27026,"stv_name":"Uncletopia | Sydney | 2 | All Maps | STV","players":null},{"server_id":395,"name":"Uncletopia | Sydney | 3 | All Maps","name_short":"syd-3","host":"syd-1.au.uncletopia.com","port":27035,"enabled":true,"region":"au","cc":"au","latitude":-33.865143,"longitude":151.2099,"reserved":0,"last_update":"0001-01-01T00:00:00Z","name_a2s":"Uncletopia | Sydney | 3 | All Maps","protocol":17,"map":"pl_borneo","folder":"tf","game":"Team Fortress","app_id":440,"player_count":0,"max_players":24,"Bots":0,"server_type":"Dedicated","server_os":"Linux","password":true,"vac":true,"version":"7723704","steam_id":85568392925194467,"keywords":["nocrits","nodmgspread","payload","uncletopia"],"game_id":440,"stv_port":27036,"stv_name":"Uncletopia | Sydney | 3 | All Maps | STV","players":null},{"server_id":396,"name":"Uncletopia | Sydney | 4 | All Maps","name_short":"syd-4","host":"syd-1.au.uncletopia.com","port":27045,"enabled":true,"region":"au","cc":"au","latitude":-33.865143,"longitude":151.2099,"reserved":0,"last_update":"0001-01-01T00:00:00Z","name_a2s":"Uncletopia | Sydney | 4 | All Maps","protocol":17,"map":"pl_pier","folder":"tf","game":"Team Fortress","app_id":440,"player_count":0,"max_players":24,"Bots":0,"server_type":"Dedicated","server_os":"Linux","password":true,"vac":true,"version":"7723704","steam_id":85568392925397958,"keywords":["nocrits","nodmgspread","payload","uncletopia"],"game_id":440,"stv_port":27046,"stv_name":"Uncletopia | Sydney | 4 | All Maps | STV","players":null},{"server_id":58,"name":"Uncletopia | Sydney | 5 | Stopwatch Beta","name_short":"syd-5","host":"syd-1.au.uncletopia.com","port":27055,"enabled":true,"region":"au","cc":"au","latitude":-33.865143,"longitude":151.2099,"reserved":0,"last_update":"0001-01-01T00:00:00Z","name_a2s":"Uncletopia | Sydney | 5 | Stopwatch Beta","protocol":17,"map":"cp_altitude","folder":"tf","game":"Team Fortress","app_id":440,"player_count":0,"max_players":24,"Bots":0,"server_type":"Dedicated","server_os":"Linux","password":true,"vac":true,"version":"7723704","steam_id":85568392925397959,"keywords":["cp","nocrits","nodmgspread","uncletopia"],"game_id":440,"stv_port":27056,"stv_name":"Uncletopia | Sydney | 5 | Stopwatch Beta | STV","players":null},{"server_id":59,"name":"Uncletopia | Sydney | 6 | Community","name_short":"syd-6","host":"syd-1.au.uncletopia.com","port":27065,"enabled":true,"region":"au","cc":"au","latitude":-33.865143,"longitude":151.2099,"reserved":0,"last_update":"0001-01-01T00:00:00Z","name_a2s":"Uncletopia | Sydney | 6 | Community","protocol":17,"map":"pl_frontier_final","folder":"tf","game":"Team Fortress","app_id":440,"player_count":0,"max_players":24,"Bots":0,"server_type":"Dedicated","server_os":"Linux","password":true,"vac":true,"version":"7723704","steam_id":85568392925397960,"keywords":["nocrits","nodmgspread","payload","uncletopia"],"game_id":440,"stv_port":27066,"stv_name":"Uncletopia | Sydney | 6 | Community | STV","players":null},{"server_id":49,"name":"Uncletopia | Warsaw | 1 | All Maps","name_short":"waw-1","host":"waw-1.pl.uncletopia.com","port":27015,"enabled":true,"region":"eu","cc":"pl","latitude":52.2297,"longitude":21.017532,"reserved":0,"last_update":"0001-01-01T00:00:00Z","name_a2s":"Uncletopia | Warsaw | 1 | All Maps","protocol":17,"map":"cp_altitude","folder":"tf","game":"Team Fortress","app_id":440,"player_count":0,"max_players":24,"Bots":0,"server_type":"Dedicated","server_os":"Linux","password":true,"vac":true,"version":"7723704","steam_id":85568392925397850,"keywords":["cp","nocrits","nodmgspread","uncletopia"],"game_id":440,"stv_port":27016,"stv_name":"Uncletopia | Warsaw | 1 | All Maps | STV","players":null},{"server_id":50,"name":"Uncletopia | Warsaw | 2 | All Maps","name_short":"waw-2","host":"waw-1.pl.uncletopia.com","port":27025,"enabled":true,"region":"eu","cc":"pl","latitude":52.2297,"longitude":21.017532,"reserved":0,"last_update":"0001-01-01T00:00:00Z","name_a2s":"Uncletopia | Warsaw | 2 | All Maps","protocol":17,"map":"pl_barnblitz","folder":"tf","game":"Team Fortress","app_id":440,"player_count":0,"max_players":24,"Bots":0,"server_type":"Dedicated","server_os":"Linux","password":true,"vac":true,"version":"7723704","steam_id":85568392925397851,"keywords":["nocrits","nodmgspread","payload","uncletopia"],"game_id":440,"stv_port":27026,"stv_name":"Uncletopia | Warsaw | 2 | All Maps | STV","players":null},{"server_id":51,"name":"Uncletopia | Warsaw | 3 | All Maps","name_short":"waw-3","host":"waw-1.pl.uncletopia.com","port":27035,"enabled":true,"region":"eu","cc":"pl","latitude":52.2297,"longitude":21.017532,"reserved":0,"last_update":"0001-01-01T00:00:00Z","name_a2s":"Uncletopia | Warsaw | 3 | All Maps","protocol":17,"map":"koth_viaduct","folder":"tf","game":"Team Fortress","app_id":440,"player_count":0,"max_players":24,"Bots":0,"server_type":"Dedicated","server_os":"Linux","password":true,"vac":true,"version":"7723704","steam_id":85568392925397852,"keywords":["cp","nocrits","nodmgspread","uncletopia"],"game_id":440,"stv_port":27036,"stv_name":"Uncletopia | Warsaw | 3 | All Maps | STV","players":null},{"server_id":52,"name":"Uncletopia | Warsaw | 4 | All Maps","name_short":"waw-4","host":"waw-1.pl.uncletopia.com","port":27045,"enabled":true,"region":"eu","cc":"pl","latitude":52.2297,"longitude":21.017532,"reserved":0,"last_update":"0001-01-01T00:00:00Z","name_a2s":"Uncletopia | Warsaw | 4 | All Maps","protocol":17,"map":"pl_snowycoast","folder":"tf","game":"Team Fortress","app_id":440,"player_count":0,"max_players":24,"Bots":0,"server_type":"Dedicated","server_os":"Linux","password":true,"vac":true,"version":"7723704","steam_id":85568392925397853,"keywords":["nocrits","nodmgspread","payload","uncletopia"],"game_id":440,"stv_port":27046,"stv_name":"Uncletopia | Warsaw | 4 | All Maps | STV","players":null},{"server_id":53,"name":"Uncletopia | Warsaw | 5 | Stopwatch Beta","name_short":"waw-5","host":"waw-1.pl.uncletopia.com","port":27055,"enabled":true,"region":"eu","cc":"pl","latitude":52.2297,"longitude":21.017532,"reserved":0,"last_update":"0001-01-01T00:00:00Z","name_a2s":"Uncletopia | Warsaw | 5 | Stopwatch Beta","protocol":17,"map":"cp_sunshine","folder":"tf","game":"Team Fortress","app_id":440,"player_count":0,"max_players":24,"Bots":0,"server_type":"Dedicated","server_os":"Linux","password":true,"vac":true,"version":"7723704","steam_id":85568392925397854,"keywords":["cp","nocrits","nodmgspread","uncletopia"],"game_id":440,"stv_port":27056,"stv_name":"Uncletopia | Warsaw | 5 | Stopwatch Beta | STV","players":null},{"server_id":54,"name":"Uncletopia | Warsaw | 6 | Community","name_short":"waw-6","host":"waw-1.pl.uncletopia.com","port":27065,"enabled":true,"region":"eu","cc":"pl","latitude":52.2297,"longitude":21.017532,"reserved":0,"last_update":"0001-01-01T00:00:00Z","name_a2s":"Uncletopia | Warsaw | 6 | Community","protocol":17,"map":"workshop/koth_synthetic_rc6a.ugc1549817316","folder":"tf","game":"Team Fortress","app_id":440,"player_count":0,"max_players":24,"Bots":0,"server_type":"Dedicated","server_os":"Linux","password":true,"vac":true,"version":"7723704","steam_id":85568392925397856,"keywords":["cp","nocrits","nodmgspread","uncletopia"],"game_id":440,"stv_port":27066,"stv_name":"Uncletopia | Warsaw | 6 | Community | STV","players":null}]}