{"status":true,"message":"","result":[{"server_id":9,"name":"Uncletopia | Atlanta | 1 | All Maps","name_short":"atl-1","host":"atl-1.us.uncletopia.com","port":27015,"enabled":true,"region":"us-east","cc":"us","latitude":33.753746,"longitude":-84.38633,"reserved":0,"last_update":"0001-01-01T00:00:00Z","name_a2s":"Uncletopia | Atlanta | 1 | All Maps","protocol":17,"map":"pl_pier","folder":"tf","game":"Team Fortress","app_id":440,"player_count":24,"max_players":24,"Bots":0,"server_type":"Dedicated","server_os":"Linux","password":true,"vac":true,"version":"7757534","steam_id":85568392924469982,"keywords":["nocrits","nodmgspread","payload","uncletopia"],"game_id":440,"stv_port":27016,"stv_name":"Uncletopia | Atlanta | 1 | All Maps | STV","players":[{"user_id":601,"name":"Brutus","steam_id":76561198213163211,"connected_time":532000000000,"state":"active","ping":74},{"user_id":582,"name":"Mahon [29th ID]","steam_id":76561198984017277,"connected_time":2197000000000,"state":"active","ping":72},{"user_id":563,"name":"Joe Biden","steam_id":76561198238699798,"connected_time":3167000000000,"state":"active","ping":121},{"user_id":604,"name":"Jin Gulilo","steam_id":76561198065151242,"connected_time":149000000000,"state":"active","ping":70},{"user_id":605,"name":"manbearswineflu","steam_id":76561198083945137,"connected_time":81000000000,"state":"active","ping":85},{"user_id":606,"name":"Stapler","steam_id":76561198099295077,"connected_time":73000000000,"state":"active","ping":105},{"user_id":526,"name":"picnic blanket","steam_id":76561198308186037,"connected_time":5941000000000,"state":"active","ping":74},{"user_id":610,"name":"Legit_Jaxer","steam_id":76561198172234053,"connected_time":25000000000,"state":"active","ping":123},{"user_id":569,"name":"lil hog","steam_id":76561199230929836,"connected_time":2383000000000,"state":"active","ping":72},{"user_id":598,"name":"PeopleOrderOurPatties","steam_id":76561198323144922,"connected_time":891000000000,"state":"active","ping":79},{"user_id":607,"name":"shaderoses","steam_id":76561198070800500,"connected_time":55000000000,"state":"active","ping":65},{"user_id":591,"name":"Cooki","steam_id":76561198051705314,"connected_time":1157000000000,"state":"active","ping":97},{"user_id":589,"name":"Intro Bonito","steam_id":76561198119478838,"connected_time":1680000000000,"state":"active","ping":53},{"user_id":587,"name":"PurplePond","steam_id":76561199062421006,"connected_time":1963000000000,"state":"active","ping":75},{"user_id":595,"name":"Kekarot","steam_id":76561198074368187,"connected_time":1106000000000,"state":"active","ping":73},{"user_id":585,"name":"Nebula","steam_id":76561198795878862,"connected_time":2001000000000,"state":"active","ping":92},{"user_id":602,"name":"melancholy","steam_id":76561198024301465,"connected_time":404000000000,"state":"active","ping":44},{"user_id":608,"name":"DFR Le4n!!!","steam_id":76561198045522596,"connected_time":45000000000,"state":"active","ping":66},{"user_id":603,"name":"stink","steam_id":76561198099318923,"connected_time":224000000000,"state":"active","ping":75},{"user_id":596,"name":"witch","steam_id":76561198151071386,"connected_time":1011000000000,"state":"active","ping":74},{"user_id":609,"name":"BREAKING THE EXOSPHERE","steam_id":76561199100342013,"connected_time":36000000000,"state":"active","ping":106},{"user_id":594,"name":"skaj","steam_id":76561198082278586,"connected_time":1133000000000,"state":"active","ping":75},{"user_id":611,"name":"Jon Snuh","steam_id":76561198075298635,"connected_time":23000000000,"state":"active","ping":75},{"user_id":612,"name":"Sprinklze","steam_id":76561198163562681,"connected_time":10000000000,"state":"spawning","ping":62}]},{"server_id":104,"name":"Uncletopia | Atlanta | 2 | All Maps","name_short":"atl-2","host":"atl-1.us.uncletopia.com","port":27025,"enabled":true,"region":"us-east","cc":"us","latitude":33.753746,"longitude":-84.38633,"reserved":0,"last_update":"0001-01-01T00:00:00Z","name_a2s":"Uncletopia | Atlanta | 2 | All Maps","protocol":17,"map":"pl_borneo","folder":"tf","game":"Team Fortress","app_id":440,"player_count":23,"max_players":24,"Bots":0,"server_type":"Dedicated","server_os":"Linux","password":true,"vac":true,"version":"7757534","steam_id":85568392924469983,"keywords":["nocrits","nodmgspread","payload","uncletopia"],"game_id":440,"stv_port":27026,"stv_name":"Uncletopia | Atlanta | 2 | All Maps | STV","players":[{"user_id":474,"name":"Piccadilly Willy","steam_id":76561198000312126,"connected_time":853000000000,"state":"active","ping":92},{"user_id":451,"name":"△","steam_id":76561198060642242,"connected_time":2451000000000,"state":"active","ping":63},{"user_id":469,"name":"Penrose42","steam_id":76561198288577396,"connected_time":951000000000,"state":"active","ping":78},{"user_id":476,"name":"Kidzbopsicle","steam_id":76561198047660691,"connected_time":390000000000,"state":"active","ping":53},{"user_id":439,"name":"Winter the Witchie","steam_id":76561198151971178,"connected_time":3008000000000,"state":"active","ping":60},{"user_id":470,"name":"kazin","steam_id":76561198044263833,"connected_time":896000000000,"state":"active","ping":117},{"user_id":423,"name":"TDR","steam_id":76561198093243434,"connected_time":4108000000000,"state":"active","ping":73},{"user_id":376,"name":"Pulse Astra","steam_id":76561198199809253,"connected_time":7227000000000,"state":"active","ping":84},{"user_id":468,"name":"NewerCoke","steam_id":76561198042911847,"connected_time":1058000000000,"state":"active","ping":73},{"user_id":467,"name":"JohnnyJuice","steam_id":76561198803433538,"connected_time":1120000000000,"state":"active","ping":79},{"user_id":452,"name":"Nick Yarkovisch","steam_id":76561198044094859,"connected_time":2407000000000,"state":"active","ping":75},{"user_id":403,"name":"Fever Dreams","steam_id":76561198116614620,"connected_time":5161000000000,"state":"active","ping":71},{"user_id":471,"name":"Meatball1106","steam_id":76561199008238301,"connected_time":892000000000,"state":"active","ping":79},{"user_id":475,"name":"Atoc","steam_id":76561198300877325,"connected_time":833000000000,"state":"active","ping":61},{"user_id":432,"name":"BLACK MAN FROM JOJO","steam_id":76561198272948471,"connected_time":3546000000000,"state":"active","ping":62},{"user_id":444,"name":"Tahm","steam_id":76561198052104898,"connected_time":2766000000000,"state":"active","ping":74},{"user_id":473,"name":"Monty","steam_id":76561197993567253,"connected_time":884000000000,"state":"active","ping":113},{"user_id":454,"name":"Ugly Mick Mars (Plz Duel Me)","steam_id":76561198051504563,"connected_time":2137000000000,"state":"active","ping":122},{"user_id":436,"name":"Demoman","steam_id":76561198101850500,"connected_time":3345000000000,"state":"active","ping":105},{"user_id":447,"name":"The BallSmasher","steam_id":76561198107810115,"connected_time":2732000000000,"state":"active","ping":72},{"user_id":464,"name":"Crunchy","steam_id":76561199065412274,"connected_time":1474000000000,"state":"active","ping":58},{"user_id":466,"name":"Redux","steam_id":76561199447074695,"connected_time":1213000000000,"state":"active","ping":71},{"user_id":449,"name":"old man jenkins","steam_id":76561198053826019,"connected_time":2715000000000,"state":"active","ping":61}]},{"server_id":400,"name":"Uncletopia | Atlanta | 3 | Community","name_short":"atl-3","host":"atl-1.us.uncletopia.com","port":27035,"enabled":true,"region":"us-east","cc":"us","latitude":33.753746,"longitude":-84.38633,"reserved":0,"last_update":"0001-01-01T00:00:00Z","name_a2s":"Uncletopia | Atlanta | 3 | Community","protocol":17,"map":"workshop/koth_ashville_final.ugc2130459942","folder":"tf","game":"Team Fortress","app_id":440,"player_count":22,"max_players":24,"Bots":0,"server_type":"Dedicated","server_os":"Linux","password":true,"vac":true,"version":"7757534","steam_id":85568392924515187,"keywords":["cp","nocrits","nodmgspread","uncletopia"],"game_id":440,"stv_port":27036,"stv_name":"Uncletopia | Atlanta | 3 | Community | STV","players":[{"user_id":160,"name":"Harold","steam_id":76561198057317770,"connected_time":1145000000000,"state":"active","ping":100},{"user_id":73,"name":"Sanic","steam_id":76561198083124962,"connected_time":7797000000000,"state":"active","ping":51},{"user_id":173,"name":"Quiver Cakes ._.","steam_id":76561198243155576,"connected_time":351000000000,"state":"active","ping":70},{"user_id":155,"name":"Spha","steam_id":76561198796297800,"connected_time":2357000000000,"state":"active","ping":90},{"user_id":172,"name":"DAS SCHNITZELSTIEN","steam_id":76561198051137159,"connected_time":617000000000,"state":"active","ping":123},{"user_id":146,"name":"chanoc","steam_id":76561198026734746,"connected_time":2596000000000,"state":"active","ping":105},{"user_id":70,"name":"Mr.Pan","steam_id":76561198069030613,"connected_time":7895000000000,"state":"active","ping":76},{"user_id":177,"name":"♡Hunter♡","steam_id":76561199109153042,"connected_time":123000000000,"state":"active","ping":90},{"user_id":161,"name":"Ellen Baker","steam_id":76561198065712435,"connected_time":1138000000000,"state":"active","ping":120},{"user_id":162,"name":"MrFrost","steam_id":76561198800061541,"connected_time":1136000000000,"state":"active","ping":127},{"user_id":156,"name":"DO THE DEVIL CHALLENGE","steam_id":76561198045437723,"connected_time":2013000000000,"state":"active","ping":61},{"user_id":163,"name":"big dog status","steam_id":76561198179192579,"connected_time":1087000000000,"state":"active","ping":84},{"user_id":175,"name":"H.","steam_id":76561198074951179,"connected_time":293000000000,"state":"active","ping":75},{"user_id":164,"name":"Saxy_Jr","steam_id":76561198866004724,"connected_time":1075000000000,"state":"active","ping":160},{"user_id":116,"name":"gas chambers for pit bulls","steam_id":76561198045340743,"connected_time":5201000000000,"state":"active","ping":121},{"user_id":178,"name":"monke","steam_id":76561198308289194,"connected_time":44000000000,"state":"spawning","ping":271},{"user_id":136,"name":"m-Seq","steam_id":76561198114922735,"connected_time":2791000000000,"state":"active","ping":64},{"user_id":170,"name":"Perfume Department","steam_id":76561198128299594,"connected_time":854000000000,"state":"active","ping":104},{"user_id":53,"name":"b.net queue waiter","steam_id":76561197968787431,"connected_time":8668000000000,"state":"active","ping":118},{"user_id":167,"name":"Hoofuyu","steam_id":76561199022142345,"connected_time":939000000000,"state":"active","ping":70},{"user_id":168,"name":"Rin \"Hindwing\" Redtail","steam_id":76561199074865638,"connected_time":872000000000,"state":"active","ping":61},{"user_id":129,"name":"Ink","steam_id":76561198389914633,"connected_time":3339000000000,"state":"active","ping":145}]},{"server_id":401,"name":"Uncletopia | Atlanta | 4 | No Payload","name_short":"atl-4","host":"atl-1.us.uncletopia.com","port":27045,"enabled":true,"region":"us-east","cc":"us","latitude":33.753746,"longitude":-84.38633,"reserved":0,"last_update":"0001-01-01T00:00:00Z","name_a2s":"","protocol":0,"map":"","folder":"","game":"","app_id":0,"player_count":0,"max_players":0,"Bots":0,"server_type":"","server_os":"","password":false,"vac":false,"version":"","steam_id":0,"keywords":null,"game_id":0,"stv_port":0,"stv_name":"","players":null},{"server_id":2,"name":"Uncletopia | Chicago | 1 | All Maps","name_short":"chi-1","host":"chi-1.us.uncletopia.com","port":27015,"enabled":true,"region":"us-central","cc":"us","latitude":41.881832,"longitude":-87.62318,"reserved":0,"last_update":"0001-01-01T00:00:00Z","name_a2s":"Uncletopia | Chicago | 1 | All Maps","protocol":17,"map":"pl_upward","folder":"tf","game":"Team Fortress","app_id":440,"player_count":22,"max_players":24,"Bots":0,"server_type":"Dedicated","server_os":"Linux","password":true,"vac":true,"version":"7757534","steam_id":85568392924469984,"keywords":["alltalk","nocrits","nodmgspread","payload","uncletopia"],"game_id":440,"stv_port":27016,"stv_name":"Uncletopia | Chicago | 1 | All Maps | STV","players":[{"user_id":523,"name":"[يهودي] Bill Clinton [אל","steam_id":76561198163291190,"connected_time":2548000000000,"state":"active","ping":87},{"user_id":562,"name":"Cum Time™","steam_id":76561198003137065,"connected_time":34000000000,"state":"active","ping":61},{"user_id":550,"name":"Hypurr","steam_id":76561198062705584,"connected_time":385000000000,"state":"active","ping":62},{"user_id":536,"name":"Adam (Cursed Confetti Creature)","steam_id":76561198317690197,"connected_time":1342000000000,"state":"active","ping":46},{"user_id":552,"name":"Jezzus","steam_id":76561199289676387,"connected_time":295000000000,"state":"active","ping":80},{"user_id":559,"name":"Vanilla","steam_id":76561199202761955,"connected_time":77000000000,"state":"active","ping":116},{"user_id":557,"name":"Snail BoB","steam_id":76561198152672443,"connected_time":154000000000,"state":"active","ping":93},{"user_id":556,"name":"laptop_gaming","steam_id":76561199086696628,"connected_time":189000000000,"state":"active","ping":46},{"user_id":526,"name":"roast pig with apple in mouth","steam_id":76561198051353647,"connected_time":2526000000000,"state":"active","ping":57},{"user_id":543,"name":"DeadErebus","steam_id":76561198286117045,"connected_time":862000000000,"state":"active","ping":30},{"user_id":471,"name":".JIFF","steam_id":76561198045181760,"connected_time":9149000000000,"state":"active","ping":59},{"user_id":518,"name":"Bearegard","steam_id":76561198061926542,"connected_time":2944000000000,"state":"active","ping":62},{"user_id":545,"name":"yoru","steam_id":76561198388123421,"connected_time":757000000000,"state":"active","ping":99},{"user_id":533,"name":"Valentineless AYAYA!!!","steam_id":76561198992102180,"connected_time":1950000000000,"state":"active","ping":47},{"user_id":546,"name":"TeeTree","steam_id":76561198862307874,"connected_time":746000000000,"state":"active","ping":60},{"user_id":547,"name":"chiswola","steam_id":76561198046920142,"connected_time":741000000000,"state":"active","ping":80},{"user_id":500,"name":"peppino from pizza tower","steam_id":76561198997708598,"connected_time":4823000000000,"state":"active","ping":75},{"user_id":487,"name":"Droop","steam_id":76561198856700517,"connected_time":6874000000000,"state":"active","ping":70},{"user_id":549,"name":"Matisguy","steam_id":76561199020903681,"connected_time":725000000000,"state":"active","ping":84},{"user_id":509,"name":"moistwalnut1967","steam_id":76561198044489449,"connected_time":3791000000000,"state":"active","ping":51},{"user_id":521,"name":"HumFreY","steam_id":76561198076639682,"connected_time":2748000000000,"state":"active","ping":72},{"user_id":439,"name":"Lia_Rein","steam_id":76561198151569597,"connected_time":11098000000000,"state":"active","ping":147}]},{"server_id":106,"name":"Uncletopia | Chicago | 2 | All Maps","name_short":"chi-2","host":"chi-1.us.uncletopia.com","port":27025,"enabled":true,"region":"us-central","cc":"us","latitude":41.881832,"longitude":-87.62318,"reserved":0,"last_update":"0001-01-01T00:00:00Z","name_a2s":"Uncletopia | Chicago | 2 | All Maps","protocol":17,"map":"pl_barnblitz","folder":"tf","game":"Team Fortress","app_id":440,"player_count":24,"max_players":24,"Bots":0,"server_type":"Dedicated","server_os":"Linux","password":true,"vac":true,"version":"7757534","steam_id":85568392924469985,"keywords":["nocrits","nodmgspread","payload","uncletopia"],"game_id":440,"stv_port":27026,"stv_name":"Uncletopia | Chicago | 2 | All Maps | STV","players":[{"user_id":292,"name":"United Bank of M O N E Y","steam_id":76561198251647556,"connected_time":2387000000000,"state":"active","ping":102},{"user_id":336,"name":"An1m3 最高","steam_id":76561198178514473,"connected_time":1301000000000,"state":"active","ping":96},{"user_id":351,"name":"BackwardsEagle","steam_id":76561199013712612,"connected_time":177000000000,"state":"active","ping":91},{"user_id":264,"name":"A Puppy","steam_id":76561198828184456,"connected_time":4547000000000,"state":"active","ping":57},{"user_id":293,"name":"Auynonymous","steam_id":76561198027509458,"connected_time":2379000000000,"state":"active","ping":78},{"user_id":291,"name":"soup","steam_id":76561198099977572,"connected_time":2416000000000,"state":"active","ping":59},{"user_id":297,"name":"SOLDIER TF2","steam_id":76561198203170652,"connected_time":2332000000000,"state":"active","ping":80},{"user_id":337,"name":"Иван съедобный (ha","steam_id":76561198967850131,"connected_time":1288000000000,"state":"active","ping":73},{"user_id":349,"name":"thecal","steam_id":76561198307893384,"connected_time":643000000000,"state":"active","ping":54},{"user_id":295,"name":"harmless_nerd","steam_id":76561199470510373,"connected_time":2355000000000,"state":"active","ping":146},{"user_id":350,"name":"Baka!⑨⑨⑨⑨","steam_id":76561198152948254,"connected_time":211000000000,"state":"active","ping":71},{"user_id":347,"name":"Spooky Daddy","steam_id":76561198359279278,"connected_time":828000000000,"state":"active","ping":78},{"user_id":287,"name":"vv","steam_id":76561198134813102,"connected_time":2520000000000,"state":"active","ping":60},{"user_id":355,"name":"java","steam_id":76561198030276792,"connected_time":43000000000,"state":"active","ping":60},{"user_id":338,"name":"proud owner of a large tongue","steam_id":76561198106690989,"connected_time":1272000000000,"state":"active","ping":74},{"user_id":352,"name":"Rukks","steam_id":76561197993918954,"connected_time":173000000000,"state":"active","ping":89},{"user_id":282,"name":"kermitcreeper(ZAZA)","steam_id":76561199222829972,"connected_time":3487000000000,"state":"active","ping":50},{"user_id":339,"name":"Vial of Throbb","steam_id":76561198348095996,"connected_time":1267000000000,"state":"active","ping":45},{"user_id":340,"name":"garit","steam_id":76561198000564263,"connected_time":1264000000000,"state":"active","ping":75},{"user_id":334,"name":"loyaldandan0764","steam_id":76561199231020424,"connected_time":1631000000000,"state":"active","ping":115},{"user_id":341,"name":"dbelow_","steam_id":76561198056148853,"connected_time":1259000000000,"state":"active","ping":61},{"user_id":346,"name":"Pika","steam_id":76561198068063436,"connected_time":1066000000000,"state":"active","ping":48},{"user_id":356,"name":"Xii","steam_id":76561198860209947,"connected_time":33000000000,"state":"active","ping":53},{"user_id":343,"name":"Cosmic Torgue","steam_id":76561198828724945,"connected_time":1249000000000,"state":"active","ping":88}]},{"server_id":402,"name":"Uncletopia | Chicago | 3 | All Maps","name_short":"chi-3","host":"chi-1.us.uncletopia.com","port":27035,"enabled":true,"region":"us-central","cc":"us","latitude":41.881832,"longitude":-87.62318,"reserved":0,"last_update":"0001-01-01T00:00:00Z","name_a2s":"Uncletopia | Chicago | 3 | All Maps","protocol":17,"map":"cp_egypt_final","folder":"tf","game":"Team Fortress","app_id":440,"player_count":19,"max_players":24,"Bots":0,"server_type":"Dedicated","server_os":"Linux","password":true,"vac":true,"version":"7757534","steam_id":85568392924515191,"keywords":["cp","nocrits","nodmgspread","uncletopia"],"game_id":440,"stv_port":27036,"stv_name":"Uncletopia | Chicago | 3 | All Maps | STV","players":[{"user_id":338,"name":"MissQueeny","steam_id":76561198079744510,"connected_time":98000000000,"state":"active","ping":58},{"user_id":335,"name":"botox","steam_id":76561198100557947,"connected_time":140000000000,"state":"active","ping":59},{"user_id":332,"name":"steve89291982","steam_id":76561199088355714,"connected_time":370000000000,"state":"active","ping":80},{"user_id":330,"name":"a narwhal","steam_id":76561198014527353,"connected_time":649000000000,"state":"active","ping":73},{"user_id":336,"name":"pissbaby","steam_id":76561198155434598,"connected_time":135000000000,"state":"active","ping":86},{"user_id":337,"name":"girl smell","steam_id":76561198118962168,"connected_time":128000000000,"state":"active","ping":101},{"user_id":326,"name":"N0SNitro","steam_id":76561198026157327,"connected_time":930000000000,"state":"active","ping":63},{"user_id":333,"name":"zapphique","steam_id":76561198083575802,"connected_time":302000000000,"state":"active","ping":73},{"user_id":248,"name":"Moriko Yumi","steam_id":76561198058380065,"connected_time":3269000000000,"state":"active","ping":82},{"user_id":331,"name":"JetZ","steam_id":76561199122488957,"connected_time":464000000000,"state":"active","ping":58},{"user_id":341,"name":"Aristotle Voulton","steam_id":76561198100174923,"connected_time":80000000000,"state":"active","ping":87},{"user_id":329,"name":"Chinese \"Weather\" Balloon","steam_id":76561198031675881,"connected_time":841000000000,"state":"active","ping":57},{"user_id":323,"name":"TheGhostThatWas","steam_id":76561198055836483,"connected_time":1363000000000,"state":"active","ping":59},{"user_id":322,"name":"Horrizan","steam_id":76561197965028480,"connected_time":1417000000000,"state":"active","ping":71},{"user_id":249,"name":"Worst Scenario","steam_id":76561199052130229,"connected_time":3265000000000,"state":"active","ping":53},{"user_id":225,"name":"Mr. Dry Lips","steam_id":76561198028157625,"connected_time":3952000000000,"state":"active","ping":86},{"user_id":271,"name":"CheeseCake488","steam_id":76561199407617942,"connected_time":2744000000000,"state":"active","ping":138},{"user_id":140,"name":"Dogman15","steam_id":76561198071246716,"connected_time":5679000000000,"state":"active","ping":103},{"user_id":143,"name":"Noah ♥","steam_id":76561198061549087,"connected_time":5625000000000,"state":"active","ping":42}]},{"server_id":403,"name":"Uncletopia | Chicago | 4 | All Maps","name_short":"chi-4","host":"chi-1.us.uncletopia.com","port":27045,"enabled":true,"region":"us-central","cc":"us","latitude":41.881832,"longitude":-87.62318,"reserved":0,"last_update":"0001-01-01T00:00:00Z","name_a2s":"Uncletopia | Chicago | 4 | All Maps","protocol":17,"map":"pl_borneo","folder":"tf","game":"Team Fortress","app_id":440,"player_count":21,"max_players":24,"Bots":0,"server_type":"Dedicated","server_os":"Linux","password":true,"vac":true,"version":"7757534","steam_id":85568392924515193,"keywords":["nocrits","nodmgspread","payload","uncletopia"],"game_id":440,"stv_port":27046,"stv_name":"Uncletopia | Chicago | 4 | All Maps | STV","players":[{"user_id":274,"name":"kman_kangaroo","steam_id":76561199379271462,"connected_time":123000000000,"state":"active","ping":87},{"user_id":278,"name":"i manipulate men","steam_id":76561198038479821,"connected_time":69000000000,"state":"active","ping":61},{"user_id":216,"name":"Battery Acid Addict","steam_id":76561198439793697,"connected_time":3250000000000,"state":"active","ping":74},{"user_id":275,"name":"neurotic","steam_id":76561198081545480,"connected_time":122000000000,"state":"active","ping":128},{"user_id":233,"name":"Crazy Insane Proboscis Monkey","steam_id":76561198061011176,"connected_time":2055000000000,"state":"active","ping":88},{"user_id":277,"name":"tanavast","steam_id":76561198152297274,"connected_time":89000000000,"state":"active","ping":44},{"user_id":264,"name":"mineblast99","steam_id":76561199065648954,"connected_time":427000000000,"state":"active","ping":74},{"user_id":270,"name":"I Am Alpharius","steam_id":76561198799197135,"connected_time":390000000000,"state":"active","ping":59},{"user_id":266,"name":"Toasty Gyro","steam_id":76561198001026643,"connected_time":402000000000,"state":"active","ping":45},{"user_id":191,"name":"playing while mortally wounded","steam_id":76561198116908911,"connected_time":5020000000000,"state":"active","ping":75},{"user_id":273,"name":"Poyo Boyo","steam_id":76561198010201227,"connected_time":184000000000,"state":"active","ping":71},{"user_id":236,"name":"lowtierdeity","steam_id":76561199154440770,"connected_time":1976000000000,"state":"active","ping":89},{"user_id":267,"name":"crotuslovershanks","steam_id":76561199091300223,"connected_time":401000000000,"state":"active","ping":61},{"user_id":262,"name":"stevemarshall","steam_id":76561198405982285,"connected_time":934000000000,"state":"active","ping":44},{"user_id":263,"name":"Loleo","steam_id":76561198348132374,"connected_time":707000000000,"state":"active","ping":75},{"user_id":279,"name":"jorjor wells","steam_id":76561199073429082,"connected_time":10000000000,"state":"active","ping":60},{"user_id":206,"name":"nova","steam_id":76561198143528814,"connected_time":4856000000000,"state":"active","ping":56},{"user_id":254,"name":"Brian","steam_id":76561198144650969,"connected_time":1530000000000,"state":"active","ping":89},{"user_id":242,"name":"rxqueen","steam_id":76561198049258493,"connected_time":1706000000000,"state":"active","ping":121},{"user_id":268,"name":"THICCBEEF GRANDPA","steam_id":76561197993550572,"connected_time":400000000000,"state":"active","ping":70},{"user_id":244,"name":"a crystal lizard","steam_id":76561197997661928,"connected_time":1682000000000,"state":"active","ping":68}]},{"server_id":36,"name":"Uncletopia | Chicago | 5 | All Maps","name_short":"chi-5","host":"chi-2.us.uncletopia.com","port":27015,"enabled":true,"region":"us-central","cc":"us","latitude":41.881832,"longitude":-87.62318,"reserved":0,"last_update":"0001-01-01T00:00:00Z","name_a2s":"Uncletopia | Chicago | 5 | All Maps","protocol":17,"map":"pl_upward","folder":"tf","game":"Team Fortress","app_id":440,"player_count":19,"max_players":24,"Bots":0,"server_type":"Dedicated","server_os":"Linux","password":true,"vac":true,"version":"7757534","steam_id":85568392924866362,"keywords":["nocrits","nodmgspread","payload","uncletopia"],"game_id":440,"stv_port":27016,"stv_name":"Uncletopia | Chicago | 5 | All Maps | STV","players":[{"user_id":881,"name":"Dr. Dick","steam_id":76561198138011922,"connected_time":887000000000,"state":"active","ping":83},{"user_id":850,"name":"vareh","steam_id":76561197993190926,"connected_time":3545000000000,"state":"active","ping":107},{"user_id":872,"name":"Dweblenod","steam_id":76561199439263908,"connected_time":1174000000000,"state":"active","ping":68},{"user_id":853,"name":"dirty30","steam_id":76561198021226566,"connected_time":3498000000000,"state":"active","ping":97},{"user_id":885,"name":"Apricot","steam_id":76561198355699935,"connected_time":148000000000,"state":"active","ping":58},{"user_id":874,"name":"Fleetway","steam_id":76561198392105594,"connected_time":1102000000000,"state":"active","ping":69},{"user_id":854,"name":"Jar Jar Kinks","steam_id":76561199087748803,"connected_time":3488000000000,"state":"active","ping":83},{"user_id":866,"name":"MizukiFluffle","steam_id":76561198069559782,"connected_time":1894000000000,"state":"active","ping":90},{"user_id":838,"name":"BubbaBasher","steam_id":76561198829909547,"connected_time":3694000000000,"state":"active","ping":53},{"user_id":887,"name":"Parker Bradley","steam_id":76561198121756894,"connected_time":20000000000,"state":"active","ping":90},{"user_id":829,"name":"Wet Deer","steam_id":76561198145045927,"connected_time":3983000000000,"state":"active","ping":71},{"user_id":871,"name":"twinArmageddons","steam_id":76561198297961039,"connected_time":1205000000000,"state":"active","ping":62},{"user_id":844,"name":"SHADOW (he/him)","steam_id":76561198207768148,"connected_time":3581000000000,"state":"active","ping":107},{"user_id":845,"name":"zowey its yaoi","steam_id":76561198097637080,"connected_time":3580000000000,"state":"active","ping":84},{"user_id":862,"name":"rjsly","steam_id":76561198036573271,"connected_time":2721000000000,"state":"active","ping":70},{"user_id":848,"name":"2Fort Cactus","steam_id":76561199273395913,"connected_time":3569000000000,"state":"active","ping":96},{"user_id":849,"name":"cat (real)","steam_id":76561198885041703,"connected_time":3567000000000,"state":"active","ping":73},{"user_id":882,"name":"Se_Rious","steam_id":76561198040671133,"connected_time":865000000000,"state":"active","ping":55},{"user_id":884,"name":"☭ The Cop Fentanyl Debuff ☭","steam_id":76561197991817974,"connected_time":530000000000,"state":"active","ping":99}]},{"server_id":37,"name":"Uncletopia | Chicago | 6 | All Maps","name_short":"chi-6","host":"chi-2.us.uncletopia.com","port":27025,"enabled":true,"region":"us-central","cc":"us","latitude":41.881832,"longitude":-87.62318,"reserved":0,"last_update":"0001-01-01T00:00:00Z","name_a2s":"Uncletopia | Chicago | 6 | All Maps","protocol":17,"map":"pl_goldrush","folder":"tf","game":"Team Fortress","app_id":440,"player_count":18,"max_players":24,"Bots":0,"server_type":"Dedicated","server_os":"Linux","password":true,"vac":true,"version":"7757534","steam_id":85568392924866363,"keywords":["nocrits","nodmgspread","payload","uncletopia"],"game_id":440,"stv_port":27026,"stv_name":"Uncletopia | Chicago | 6 | All Maps | STV","players":[{"user_id":380,"name":"Phil Collins","steam_id":76561198068868644,"connected_time":216000000000,"state":"active","ping":95},{"user_id":347,"name":"They could be starlings","steam_id":76561198441020995,"connected_time":1919000000000,"state":"active","ping":97},{"user_id":381,"name":"banan team fortes","steam_id":76561199073621650,"connected_time":212000000000,"state":"active","ping":91},{"user_id":384,"name":"mrLollicop (also buy lollichops","steam_id":76561199230423122,"connected_time":62000000000,"state":"active","ping":83},{"user_id":385,"name":"DerrickHenryFan2012","steam_id":76561198254452687,"connected_time":39000000000,"state":"active","ping":99},{"user_id":348,"name":"veryscaryreaper","steam_id":76561198380018244,"connected_time":1912000000000,"state":"active","ping":66},{"user_id":368,"name":"Calypso","steam_id":76561198082939544,"connected_time":920000000000,"state":"active","ping":86},{"user_id":376,"name":"Mister Fister","steam_id":76561199059653595,"connected_time":615000000000,"state":"active","ping":92},{"user_id":349,"name":"Chubby Monarch","steam_id":76561198027487285,"connected_time":1893000000000,"state":"active","ping":111},{"user_id":377,"name":"griff928","steam_id":76561198149614679,"connected_time":536000000000,"state":"active","ping":44},{"user_id":375,"name":"Butter Beyond The Binary","steam_id":76561198128408544,"connected_time":797000000000,"state":"active","ping":58},{"user_id":383,"name":"Mysteryred12","steam_id":76561199206772814,"connected_time":91000000000,"state":"active","ping":91},{"user_id":382,"name":"JellyParrot","steam_id":76561199190990163,"connected_time":201000000000,"state":"active","ping":65},{"user_id":352,"name":"Kraul","steam_id":76561198043682060,"connected_time":1861000000000,"state":"active","ping":86},{"user_id":355,"name":"Hammerhead","steam_id":76561198897122890,"connected_time":1819000000000,"state":"active","ping":56},{"user_id":356,"name":"Fuzzy","steam_id":76561199100612353,"connected_time":1817000000000,"state":"active","ping":54},{"user_id":379,"name":"Lore","steam_id":76561198098407538,"connected_time":383000000000,"state":"active","ping":45},{"user_id":360,"name":"BoopBerry","steam_id":76561198871571711,"connected_time":1718000000000,"state":"active","ping":59}]},{"server_id":38,"name":"Uncletopia | Chicago | 7 | Stopwatch Beta","name_short":"chi-7","host":"chi-2.us.uncletopia.com","port":27035,"enabled":true,"region":"us-central","cc":"us","latitude":41.881832,"longitude":-87.62318,"reserved":0,"last_update":"0001-01-01T00:00:00Z","name_a2s":"Uncletopia | Chicago | 7 | Stopwatch Beta","protocol":17,"map":"pl_barnblitz","folder":"tf","game":"Team Fortress","app_id":440,"player_count":0,"max_players":24,"Bots":0,"server_type":"Dedicated","server_os":"Linux","password":true,"vac":true,"version":"7757534","steam_id":85568392924866364,"keywords":["nocrits","nodmgspread","payload","uncletopia"],"game_id":440,"stv_port":27036,"stv_name":"Uncletopia | Chicago | 7 | Stopwatch Beta | STV","players":null},{"server_id":39,"name":"Uncletopia | Chicago | 8 | Community","name_short":"chi-8","host":"chi-2.us.uncletopia.com","port":27045,"enabled":true,"region":"us-central","cc":"us","latitude":41.881832,"longitude":-87.62318,"reserved":0,"last_update":"0001-01-01T00:00:00Z","name_a2s":"Uncletopia | Chicago | 8 | Community","protocol":17,"map":"workshop/pl_highwood_b13.ugc1769496557","folder":"tf","game":"Team Fortress","app_id":440,"player_count":20,"max_players":24,"Bots":0,"server_type":"Dedicated","server_os":"Linux","password":true,"vac":true,"version":"7757534","steam_id":85568392924866365,"keywords":["nocrits","nodmgspread","payload","uncletopia"],"game_id":440,"stv_port":27046,"stv_name":"Uncletopia | Chicago | 8 | Community | STV","players":[{"user_id":141,"name":"Dr Spaceman","steam_id":76561197969755657,"connected_time":6099000000000,"state":"active","ping":48},{"user_id":176,"name":"Yuri Tarded","steam_id":76561198034339940,"connected_time":2382000000000,"state":"active","ping":52},{"user_id":197,"name":"Bottle","steam_id":76561198044031558,"connected_time":497000000000,"state":"active","ping":70},{"user_id":193,"name":"Sono","steam_id":76561199077527007,"connected_time":571000000000,"state":"active","ping":53},{"user_id":175,"name":"poop tbh","steam_id":76561198056186750,"connected_time":2389000000000,"state":"active","ping":45},{"user_id":202,"name":"Monky duh luppy","steam_id":76561198035410427,"connected_time":376000000000,"state":"active","ping":90},{"user_id":188,"name":"brinks truck","steam_id":76561198126489501,"connected_time":1007000000000,"state":"active","ping":55},{"user_id":204,"name":"Chillin Turt","steam_id":76561198025796849,"connected_time":235000000000,"state":"active","ping":69},{"user_id":203,"name":"Nuwrox1","steam_id":76561198406951007,"connected_time":329000000000,"state":"active","ping":66},{"user_id":200,"name":"Shin","steam_id":76561198149886500,"connected_time":450000000000,"state":"active","ping":89},{"user_id":205,"name":"\u003e\u003e=","steam_id":76561198337705174,"connected_time":158000000000,"state":"active","ping":64},{"user_id":196,"name":"tmbshark","steam_id":76561198184072185,"connected_time":543000000000,"state":"active","ping":87},{"user_id":190,"name":"DOMO_MR_ROBOTO","steam_id":76561198077108345,"connected_time":944000000000,"state":"active","ping":93},{"user_id":162,"name":"Daz","steam_id":76561198041431938,"connected_time":4484000000000,"state":"active","ping":74},{"user_id":179,"name":"Red","steam_id":76561198001939529,"connected_time":2303000000000,"state":"active","ping":102},{"user_id":128,"name":"strawberry shortcock","steam_id":76561198032040831,"connected_time":6483000000000,"state":"active","ping":83},{"user_id":171,"name":"Superman123389","steam_id":76561198267472539,"connected_time":3092000000000,"state":"active","ping":101},{"user_id":146,"name":"OctillionaireSigmaMale","steam_id":76561198816005207,"connected_time":5615000000000,"state":"active","ping":71},{"user_id":182,"name":"Helix_The_Virus","steam_id":76561198321305698,"connected_time":2199000000000,"state":"active","ping":60},{"user_id":201,"name":"Elongated Muskrat","steam_id":76561198314501346,"connected_time":450000000000,"state":"active","ping":93}]},{"server_id":8,"name":"Uncletopia | Dallas | 1 | All Maps","name_short":"dal-1","host":"dal-1.us.uncletopia.com","port":27015,"enabled":true,"region":"us-central","cc":"us","latitude":32.779167,"longitude":-96.80889,"reserved":0,"last_update":"0001-01-01T00:00:00Z","name_a2s":"Uncletopia | Dallas | 1 | All Maps","protocol":17,"map":"cp_dustbowl","folder":"tf","game":"Team Fortress","app_id":440,"player_count":24,"max_players":24,"Bots":0,"server_type":"Dedicated","server_os":"Linux","password":true,"vac":true,"version":"7757534","steam_id":85568392924469986,"keywords":["cp","nocrits","nodmgspread","uncletopia"],"game_id":440,"stv_port":27016,"stv_name":"Uncletopia | Dallas | 1 | All Maps | STV","players":[{"user_id":377,"name":"Outlander","steam_id":76561197998995746,"connected_time":2789000000000,"state":"active","ping":67},{"user_id":383,"name":"R.Y.","steam_id":76561199384459715,"connected_time":1457000000000,"state":"active","ping":133},{"user_id":379,"name":"Mr. Morton, CEO of Caber Corp\ufffd\ufffd","steam_id":76561198092130334,"connected_time":2244000000000,"state":"active","ping":49},{"user_id":384,"name":"Remy the rat","steam_id":76561198080519558,"connected_time":1456000000000,"state":"active","ping":57},{"user_id":385,"name":"starrk","steam_id":76561198246066894,"connected_time":1426000000000,"state":"active","ping":121},{"user_id":391,"name":"DonWaldo","steam_id":76561199430514237,"connected_time":1249000000000,"state":"active","ping":124},{"user_id":378,"name":"double tap 2.0","steam_id":76561198062146253,"connected_time":2519000000000,"state":"active","ping":173},{"user_id":396,"name":"Big Cat","steam_id":76561198115695203,"connected_time":820000000000,"state":"active","ping":53},{"user_id":394,"name":"creamy","steam_id":76561198157435832,"connected_time":920000000000,"state":"active","ping":100},{"user_id":392,"name":"Mister Kano ☭","steam_id":76561198123029166,"connected_time":1066000000000,"state":"active","ping":45},{"user_id":365,"name":"iluvtoust","steam_id":76561198869269207,"connected_time":3618000000000,"state":"active","ping":54},{"user_id":346,"name":"Ballista","steam_id":76561197983182562,"connected_time":5009000000000,"state":"active","ping":53},{"user_id":403,"name":"01000101","steam_id":76561198027981956,"connected_time":294000000000,"state":"active","ping":63},{"user_id":398,"name":"Ping","steam_id":76561199206514106,"connected_time":546000000000,"state":"active","ping":78},{"user_id":399,"name":"Gary Budussy","steam_id":76561197969793969,"connected_time":540000000000,"state":"active","ping":54},{"user_id":359,"name":"Woodstock","steam_id":76561198041442667,"connected_time":4205000000000,"state":"active","ping":106},{"user_id":401,"name":"Anor","steam_id":76561198356139775,"connected_time":525000000000,"state":"active","ping":82},{"user_id":371,"name":"liftin'","steam_id":76561199089515791,"connected_time":3527000000000,"state":"active","ping":91},{"user_id":388,"name":"big ol' buford","steam_id":76561198290675957,"connected_time":1398000000000,"state":"active","ping":45},{"user_id":402,"name":"Furrio","steam_id":76561198174104607,"connected_time":502000000000,"state":"active","ping":63},{"user_id":382,"name":"Joe Swanson","steam_id":76561199089907740,"connected_time":1522000000000,"state":"active","ping":72},{"user_id":375,"name":"Ghaeril","steam_id":76561198047880019,"connected_time":3134000000000,"state":"active","ping":63},{"user_id":389,"name":"you've been deuced on!","steam_id":76561198236028020,"connected_time":1368000000000,"state":"active","ping":113},{"user_id":251,"name":"Insert_Name_Here","steam_id":76561198089428414,"connected_time":12279000000000,"state":"active","ping":82}]},{"server_id":108,"name":"Uncletopia | Dallas | 2 | All Maps","name_short":"dal-2","host":"dal-1.us.uncletopia.com","port":27025,"enabled":true,"region":"us-central","cc":"us","latitude":32.779167,"longitude":-96.80889,"reserved":0,"last_update":"0001-01-01T00:00:00Z","name_a2s":"Uncletopia | Dallas | 2 | All Maps","protocol":17,"map":"pl_swiftwater_final1","folder":"tf","game":"Team Fortress","app_id":440,"player_count":21,"max_players":24,"Bots":0,"server_type":"Dedicated","server_os":"Linux","password":true,"vac":true,"version":"7757534","steam_id":85568392924469988,"keywords":["nocrits","nodmgspread","payload","uncletopia"],"game_id":440,"stv_port":27026,"stv_name":"Uncletopia | Dallas | 2 | All Maps | STV","players":[{"user_id":242,"name":"bauxoffdagloop","steam_id":76561199196442823,"connected_time":1964000000000,"state":"active","ping":158},{"user_id":253,"name":"Hedsik","steam_id":76561198045797773,"connected_time":135000000000,"state":"active","ping":53},{"user_id":254,"name":"❤ Ashley ❤","steam_id":76561198056428303,"connected_time":84000000000,"state":"active","ping":83},{"user_id":239,"name":"Hunter Biden's laptop","steam_id":76561199475829930,"connected_time":2457000000000,"state":"active","ping":59},{"user_id":255,"name":"saucy jack","steam_id":76561198307012859,"connected_time":81000000000,"state":"active","ping":99},{"user_id":185,"name":"Shylo","steam_id":76561199276858045,"connected_time":7389000000000,"state":"active","ping":55},{"user_id":256,"name":"A Fruit","steam_id":76561198951830050,"connected_time":68000000000,"state":"active","ping":41},{"user_id":210,"name":"enderlord99","steam_id":76561198158152954,"connected_time":4916000000000,"state":"active","ping":84},{"user_id":245,"name":"Scrappy","steam_id":76561198093789113,"connected_time":1301000000000,"state":"active","ping":92},{"user_id":250,"name":"Concolor","steam_id":76561198027734150,"connected_time":403000000000,"state":"active","ping":93},{"user_id":251,"name":"TTV/ArcticFlesh","steam_id":76561198099678868,"connected_time":326000000000,"state":"active","ping":74},{"user_id":223,"name":"Centipede on a Game Boy","steam_id":76561199016285746,"connected_time":3708000000000,"state":"active","ping":74},{"user_id":237,"name":"Fun Police","steam_id":76561198267520577,"connected_time":2921000000000,"state":"active","ping":88},{"user_id":252,"name":"seriousbirb","steam_id":76561199047851076,"connected_time":315000000000,"state":"active","ping":137},{"user_id":248,"name":"SpinnerSpecial","steam_id":76561198065661869,"connected_time":946000000000,"state":"active","ping":104},{"user_id":235,"name":"evilgod","steam_id":76561198890522517,"connected_time":3013000000000,"state":"active","ping":89},{"user_id":241,"name":"Moonflower ✦","steam_id":76561198191782483,"connected_time":2295000000000,"state":"active","ping":50},{"user_id":240,"name":"Sean","steam_id":76561198011422340,"connected_time":2421000000000,"state":"active","ping":71},{"user_id":225,"name":"PL0T0","steam_id":76561198157481171,"connected_time":3595000000000,"state":"active","ping":96},{"user_id":227,"name":"bottom pride burger","steam_id":76561198322247602,"connected_time":3386000000000,"state":"active","ping":91},{"user_id":244,"name":"Brigade","steam_id":76561198044656610,"connected_time":1471000000000,"state":"active","ping":91}]},{"server_id":5,"name":"Uncletopia | Frankfurt | 1 | All Maps","name_short":"frk-1","host":"frk-1.de.uncletopia.com","port":27015,"enabled":true,"region":"eu","cc":"de","latitude":50.110924,"longitude":8.682127,"reserved":0,"last_update":"0001-01-01T00:00:00Z","name_a2s":"Uncletopia | Frankfurt | 1 | All Maps","protocol":17,"map":"pl_badwater","folder":"tf","game":"Team Fortress","app_id":440,"player_count":23,"max_players":24,"Bots":0,"server_type":"Dedicated","server_os":"Linux","password":true,"vac":true,"version":"7757534","steam_id":85568392924469989,"keywords":["nocrits","nodmgspread","payload","uncletopia"],"game_id":440,"stv_port":27016,"stv_name":"Uncletopia | Frankfurt | 1 | All Maps | STV","players":[{"user_id":626,"name":"jones","steam_id":76561198044434971,"connected_time":6914000000000,"state":"active","ping":56},{"user_id":705,"name":"Matayankis","steam_id":76561198024513380,"connected_time":112000000000,"state":"active","ping":81},{"user_id":641,"name":"Lowy","steam_id":76561198031470048,"connected_time":6234000000000,"state":"active","ping":72},{"user_id":698,"name":"horicore","steam_id":76561198100590571,"connected_time":1366000000000,"state":"active","ping":50},{"user_id":703,"name":"Obi Wan Nairobi","steam_id":76561198012622110,"connected_time":244000000000,"state":"active","ping":58},{"user_id":667,"name":"Gnaisse","steam_id":76561198010560642,"connected_time":4876000000000,"state":"active","ping":87},{"user_id":594,"name":"CumbustiblePunda","steam_id":76561197974274677,"connected_time":9326000000000,"state":"active","ping":53},{"user_id":701,"name":"Taste","steam_id":76561197994506978,"connected_time":819000000000,"state":"active","ping":70},{"user_id":706,"name":"Reast","steam_id":76561198022796927,"connected_time":99000000000,"state":"active","ping":75},{"user_id":696,"name":"I can't stop loving you","steam_id":76561198020035960,"connected_time":2233000000000,"state":"active","ping":63},{"user_id":700,"name":"schaffi","steam_id":76561198061369274,"connected_time":1184000000000,"state":"active","ping":75},{"user_id":670,"name":"Niisoks (poop version)","steam_id":76561198054588340,"connected_time":4318000000000,"state":"active","ping":61},{"user_id":694,"name":"SuperBob103","steam_id":76561199175360012,"connected_time":2252000000000,"state":"active","ping":63},{"user_id":620,"name":"no sex","steam_id":76561198284086634,"connected_time":7319000000000,"state":"active","ping":90},{"user_id":691,"name":"Turtle Fuckers 2","steam_id":76561198071938027,"connected_time":2282000000000,"state":"active","ping":53},{"user_id":699,"name":"feed and seed","steam_id":76561199088046420,"connected_time":1205000000000,"state":"active","ping":58},{"user_id":707,"name":"TheBiBiMan","steam_id":76561198296729800,"connected_time":45000000000,"state":"active","ping":73},{"user_id":702,"name":"jonbob","steam_id":76561197963506620,"connected_time":248000000000,"state":"active","ping":64},{"user_id":678,"name":"brainrot","steam_id":76561199414716848,"connected_time":3847000000000,"state":"active","ping":74},{"user_id":697,"name":"ciliorkun18","steam_id":76561198228942500,"connected_time":1645000000000,"state":"active","ping":90},{"user_id":704,"name":"Perämiehenä","steam_id":76561197968945306,"connected_time":240000000000,"state":"active","ping":70},{"user_id":695,"name":"Nyhde","steam_id":76561198012771416,"connected_time":2233000000000,"state":"active","ping":88},{"user_id":692,"name":"triangles in the desert","steam_id":76561198083505031,"connected_time":2282000000000,"state":"active","ping":45}]},{"server_id":110,"name":"Uncletopia | Frankfurt | 2 | All Maps","name_short":"frk-2","host":"frk-1.de.uncletopia.com","port":27025,"enabled":true,"region":"eu","cc":"de","latitude":50.110924,"longitude":8.682127,"reserved":0,"last_update":"0001-01-01T00:00:00Z","name_a2s":"Uncletopia | Frankfurt | 2 | All Maps","protocol":17,"map":"pl_upward","folder":"tf","game":"Team Fortress","app_id":440,"player_count":0,"max_players":24,"Bots":0,"server_type":"Dedicated","server_os":"Linux","password":true,"vac":true,"version":"7757534","steam_id":85568392924469990,"keywords":["nocrits","nodmgspread","payload","uncletopia"],"game_id":440,"stv_port":27026,"stv_name":"Uncletopia | Frankfurt | 2 | All Maps | STV","players":null},{"server_id":308,"name":"Uncletopia | Frankfurt | 3 | All Maps","name_short":"frk-3","host":"frk-1.de.uncletopia.com","port":27035,"enabled":true,"region":"eu","cc":"de","latitude":50.110924,"longitude":8.682127,"reserved":0,"last_update":"0001-01-01T00:00:00Z","name_a2s":"Uncletopia | Frankfurt | 3 | All Maps","protocol":17,"map":"cp_process_final","folder":"tf","game":"Team Fortress","app_id":440,"player_count":0,"max_players":24,"Bots":0,"server_type":"Dedicated","server_os":"Linux","password":true,"vac":true,"version":"7757534","steam_id":85568392924504274,"keywords":["cp","nocrits","nodmgspread","uncletopia"],"game_id":440,"stv_port":27036,"stv_name":"Uncletopia | Frankfurt | 3 | All Maps | STV","players":null},{"server_id":309,"name":"Uncletopia | Frankfurt | 4 | All Maps","name_short":"frk-4","host":"frk-1.de.uncletopia.com","port":27045,"enabled":true,"region":"eu","cc":"de","latitude":50.110924,"longitude":8.682127,"reserved":0,"last_update":"0001-01-01T00:00:00Z","name_a2s":"Uncletopia | Frankfurt | 4 | All Maps","protocol":17,"map":"cp_dustbowl","folder":"tf","game":"Team Fortress","app_id":440,"player_count":0,"max_players":24,"Bots":0,"server_type":"Dedicated","server_os":"Linux","password":true,"vac":true,"version":"7757534","steam_id":85568392924504275,"keywords":["cp","nocrits","nodmgspread","uncletopia"],"game_id":440,"stv_port":27046,"stv_name":"Uncletopia | Frankfurt | 4 | All Maps | STV","players":null},{"server_id":310,"name":"Uncletopia | Frankfurt | 5 | All Maps","name_short":"frk-5","host":"frk-1.de.uncletopia.com","port":27055,"enabled":true,"region":"eu","cc":"de","latitude":50.110924,"longitude":8.682127,"reserved":0,"last_update":"0001-01-01T00:00:00Z","name_a2s":"Uncletopia | Frankfurt | 5 | All Maps","protocol":17,"map":"cp_mountainlab","folder":"tf","game":"Team Fortress","app_id":440,"player_count":0,"max_players":24,"Bots":0,"server_type":"Dedicated","server_os":"Linux","password":true,"vac":true,"version":"7757534","steam_id":85568392924504277,"keywords":["cp","nocrits","nodmgspread","uncletopia"],"game_id":440,"stv_port":27056,"stv_name":"Uncletopia | Frankfurt | 5 | All Maps | STV","players":null},{"server_id":311,"name":"Uncletopia | Frankfurt | 6 | All Maps","name_short":"frk-6","host":"frk-1.de.uncletopia.com","port":27065,"enabled":true,"region":"eu","cc":"de","latitude":50.110924,"longitude":8.682127,"reserved":0,"last_update":"0001-01-01T00:00:00Z","name_a2s":"Uncletopia | Frankfurt | 6 | All Maps","protocol":17,"map":"koth_lakeside_final","folder":"tf","game":"Team Fortress","app_id":440,"player_count":0,"max_players":24,"Bots":0,"server_type":"Dedicated","server_os":"Linux","password":true,"vac":true,"version":"7757534","steam_id":85568392924504278,"keywords":["cp","nocrits","nodmgspread","uncletopia"],"game_id":440,"stv_port":27066,"stv_name":"Uncletopia | Frankfurt | 6 | All Maps | STV","players":null},{"server_id":23,"name":"Uncletopia | Frankfurt | 7 | Stopwatch Beta","name_short":"frk-7","host":"frk-1.de.uncletopia.com","port":27075,"enabled":true,"region":"eu","cc":"de","latitude":50.110924,"longitude":8.682127,"reserved":0,"last_update":"0001-01-01T00:00:00Z","name_a2s":"Uncletopia | Frankfurt | 7 | Stopwatch Beta","protocol":17,"map":"koth_highpass","folder":"tf","game":"Team Fortress","app_id":440,"player_count":0,"max_players":24,"Bots":0,"server_type":"Dedicated","server_os":"Linux","password":true,"vac":true,"version":"7757534","steam_id":85568392924742827,"keywords":["cp","nocrits","nodmgspread","uncletopia"],"game_id":440,"stv_port":27076,"stv_name":"Uncletopia | Frankfurt | 7 | Stopwatch Beta | STV","players":null},{"server_id":24,"name":"Uncletopia | Frankfurt | 8 | Community","name_short":"frk-8","host":"frk-1.de.uncletopia.com","port":27085,"enabled":true,"region":"eu","cc":"de","latitude":50.110924,"longitude":8.682127,"reserved":0,"last_update":"0001-01-01T00:00:00Z","name_a2s":"Uncletopia | Frankfurt | 8 | Community","protocol":17,"map":"workshop/pl_corrode_rc2.ugc546577989","folder":"tf","game":"Team Fortress","app_id":440,"player_count":0,"max_players":24,"Bots":0,"server_type":"Dedicated","server_os":"Linux","password":true,"vac":true,"version":"7757534","steam_id":85568392924742828,"keywords":["nocrits","nodmgspread","payload","uncletopia"],"game_id":440,"stv_port":27086,"stv_name":"Uncletopia | Frankfurt | 8 | Community | STV","players":null},{"server_id":202,"name":"Uncletopia | Hong Kong | 1 | All Maps","name_short":"hgk-1","host":"hgk-1.hk.uncletopia.com","port":27015,"enabled":true,"region":"asia","cc":"hk","latitude":22.302711,"longitude":114.177216,"reserved":0,"last_update":"0001-01-01T00:00:00Z","name_a2s":"Uncletopia | Hong Kong | 1 | All Maps","protocol":17,"map":"pl_borneo","folder":"tf","game":"Team Fortress","app_id":440,"player_count":0,"max_players":24,"Bots":0,"server_type":"Dedicated","server_os":"Linux","password":true,"vac":true,"version":"7757534","steam_id":85568392924494504,"keywords":["nocrits","nodmgspread","payload","uncletopia"],"game_id":440,"stv_port":27016,"stv_name":"Uncletopia | Hong Kong | 1 | All Maps | STV","players":null},{"server_id":1,"name":"Uncletopia | Los Angeles | 1 | All Maps","name_short":"lax-1","host":"lax-1.us.uncletopia.com","port":27015,"enabled":true,"region":"us-west","cc":"us","latitude":33.94279,"longitude":-118.41004,"reserved":0,"last_update":"0001-01-01T00:00:00Z","name_a2s":"Uncletopia | Los Angeles | 1 | All Maps","protocol":17,"map":"pl_thundermountain","folder":"tf","game":"Team Fortress","app_id":440,"player_count":23,"max_players":24,"Bots":0,"server_type":"Dedicated","server_os":"Linux","password":true,"vac":true,"version":"7757534","steam_id":85568392924469991,"keywords":["nocrits","nodmgspread","payload","uncletopia"],"game_id":440,"stv_port":27016,"stv_name":"Uncletopia | Los Angeles | 1 | All Maps | STV","players":[{"user_id":196,"name":"gOblin man","steam_id":76561198409099827,"connected_time":1377000000000,"state":"active","ping":56},{"user_id":207,"name":"magunyamu","steam_id":76561198823083676,"connected_time":218000000000,"state":"active","ping":59},{"user_id":202,"name":"Maid 'n' China","steam_id":76561198423392976,"connected_time":1186000000000,"state":"active","ping":59},{"user_id":176,"name":"Macro","steam_id":76561199442846226,"connected_time":2273000000000,"state":"active","ping":119},{"user_id":197,"name":"Overmeme","steam_id":76561199455124144,"connected_time":1357000000000,"state":"active","ping":125},{"user_id":195,"name":"fire","steam_id":76561198044354279,"connected_time":1402000000000,"state":"active","ping":55},{"user_id":194,"name":"They/Them Rattussy","steam_id":76561198238186628,"connected_time":1472000000000,"state":"active","ping":51},{"user_id":166,"name":"noellemeow","steam_id":76561198159622003,"connected_time":3332000000000,"state":"active","ping":108},{"user_id":198,"name":"Mr. Moron","steam_id":76561198051506011,"connected_time":1354000000000,"state":"active","ping":67},{"user_id":209,"name":"ketsu","steam_id":76561197966171554,"connected_time":164000000000,"state":"active","ping":160},{"user_id":199,"name":"HiFivr","steam_id":76561198285190162,"connected_time":1348000000000,"state":"active","ping":98},{"user_id":204,"name":"Sidekick","steam_id":76561198392740835,"connected_time":469000000000,"state":"active","ping":75},{"user_id":178,"name":"MORE BOUNCE TO THE OUNCE","steam_id":76561198243399336,"connected_time":2269000000000,"state":"active","ping":71},{"user_id":189,"name":"Love Waffle","steam_id":76561197990077189,"connected_time":1680000000000,"state":"active","ping":85},{"user_id":184,"name":"Sunny","steam_id":76561198261667312,"connected_time":1959000000000,"state":"active","ping":78},{"user_id":205,"name":"Cricket","steam_id":76561198268349382,"connected_time":329000000000,"state":"active","ping":74},{"user_id":206,"name":"goongremlin","steam_id":76561198278196215,"connected_time":244000000000,"state":"active","ping":58},{"user_id":203,"name":"Salium","steam_id":76561197961546093,"connected_time":712000000000,"state":"active","ping":54},{"user_id":211,"name":"Skeleton","steam_id":76561198315213115,"connected_time":98000000000,"state":"active","ping":62},{"user_id":212,"name":"Fear mé","steam_id":76561198212969373,"connected_time":77000000000,"state":"active","ping":64},{"user_id":185,"name":"jeff__100","steam_id":76561198080870439,"connected_time":1923000000000,"state":"active","ping":103},{"user_id":210,"name":"Antwan","steam_id":76561198246200638,"connected_time":161000000000,"state":"active","ping":76},{"user_id":121,"name":"Zedward White","steam_id":76561198141180807,"connected_time":6871000000000,"state":"active","ping":132}]},{"server_id":112,"name":"Uncletopia | Los Angeles | 2 | All Maps","name_short":"lax-2","host":"lax-1.us.uncletopia.com","port":27025,"enabled":true,"region":"us-west","cc":"us","latitude":33.94279,"longitude":-118.41004,"reserved":0,"last_update":"0001-01-01T00:00:00Z","name_a2s":"Uncletopia | Los Angeles | 2 | All Maps","protocol":17,"map":"pl_badwater","folder":"tf","game":"Team Fortress","app_id":440,"player_count":24,"max_players":24,"Bots":0,"server_type":"Dedicated","server_os":"Linux","password":true,"vac":true,"version":"7757534","steam_id":85568392924469992,"keywords":["nocrits","nodmgspread","payload","uncletopia"],"game_id":440,"stv_port":27026,"stv_name":"Uncletopia | Los Angeles | 2 | All Maps | STV","players":[{"user_id":433,"name":"LeNoobe","steam_id":76561199092079229,"connected_time":2921000000000,"state":"active","ping":71},{"user_id":463,"name":"Edward Nipplepiercings","steam_id":76561198097721532,"connected_time":274000000000,"state":"active","ping":51},{"user_id":457,"name":"landogg","steam_id":76561198049000586,"connected_time":1089000000000,"state":"active","ping":49},{"user_id":423,"name":"Wacks","steam_id":76561198079476100,"connected_time":3380000000000,"state":"active","ping":58},{"user_id":453,"name":"WaywardFinn","steam_id":76561198040391296,"connected_time":1131000000000,"state":"active","ping":120},{"user_id":465,"name":"Achy_Blitz","steam_id":76561198090433209,"connected_time":212000000000,"state":"active","ping":114},{"user_id":443,"name":"Bad Namesman","steam_id":76561198027205470,"connected_time":1512000000000,"state":"active","ping":59},{"user_id":466,"name":"Sir_Cheddar","steam_id":76561198132354554,"connected_time":198000000000,"state":"active","ping":68},{"user_id":464,"name":"Courier711","steam_id":76561198053232343,"connected_time":213000000000,"state":"active","ping":59},{"user_id":399,"name":"Rasputia","steam_id":76561198132051047,"connected_time":4539000000000,"state":"active","ping":76},{"user_id":425,"name":"AbsurdSiren","steam_id":76561199196666330,"connected_time":3251000000000,"state":"active","ping":106},{"user_id":455,"name":"SpaghettiMaster420","steam_id":76561199024321120,"connected_time":1103000000000,"state":"active","ping":63},{"user_id":384,"name":"Blankrq","steam_id":76561198261030763,"connected_time":6254000000000,"state":"active","ping":62},{"user_id":427,"name":"bucue","steam_id":76561198053364136,"connected_time":3217000000000,"state":"active","ping":49},{"user_id":458,"name":"VOY BOT","steam_id":76561199094836444,"connected_time":1054000000000,"state":"active","ping":121},{"user_id":439,"name":"vanillain","steam_id":76561198058617608,"connected_time":1666000000000,"state":"active","ping":76},{"user_id":428,"name":"GarboBeans","steam_id":76561198089127316,"connected_time":3180000000000,"state":"active","ping":51},{"user_id":447,"name":"hood.iraptv","steam_id":76561198145784505,"connected_time":1465000000000,"state":"active","ping":42},{"user_id":467,"name":"john, evader of taxes","steam_id":76561198858328080,"connected_time":198000000000,"state":"active","ping":91},{"user_id":459,"name":"Jax O'Gaytor","steam_id":76561198288922168,"connected_time":1032000000000,"state":"active","ping":71},{"user_id":462,"name":"[DATS➡] Sugar Meowth","steam_id":76561197995251793,"connected_time":495000000000,"state":"active","ping":73},{"user_id":430,"name":"KennyIsBroke","steam_id":76561198245254014,"connected_time":3073000000000,"state":"active","ping":66},{"user_id":418,"name":"Dynamite","steam_id":76561198952824140,"connected_time":3633000000000,"state":"active","ping":52},{"user_id":468,"name":"fried eggs","steam_id":76561198319442494,"connected_time":192000000000,"state":"active","ping":61}]},{"server_id":324,"name":"Uncletopia | Los Angeles | 3 | All Maps","name_short":"lax-3","host":"lax-1.us.uncletopia.com","port":27035,"enabled":true,"region":"us-west","cc":"us","latitude":33.94279,"longitude":-118.41004,"reserved":0,"last_update":"0001-01-01T00:00:00Z","name_a2s":"Uncletopia | Los Angeles | 3 | All Maps","protocol":17,"map":"pl_swiftwater_final1","folder":"tf","game":"Team Fortress","app_id":440,"player_count":0,"max_players":24,"Bots":0,"server_type":"Dedicated","server_os":"Linux","password":true,"vac":true,"version":"7757534","steam_id":85568392924510198,"keywords":["nocrits","nodmgspread","payload","uncletopia"],"game_id":440,"stv_port":27036,"stv_name":"Uncletopia | Los Angeles | 3 | All Maps | STV","players":null},{"server_id":25,"name":"Uncletopia | Los Angeles | 4 | Stopwatch Beta","name_short":"lax-4","host":"lax-1.us.uncletopia.com","port":27045,"enabled":true,"region":"us-west","cc":"us","latitude":33.94279,"longitude":-118.41004,"reserved":0,"last_update":"0001-01-01T00:00:00Z","name_a2s":"Uncletopia | Los Angeles | 4 | Stopwatch Beta","protocol":17,"map":"pl_borneo","folder":"tf","game":"Team Fortress","app_id":440,"player_count":0,"max_players":24,"Bots":0,"server_type":"Dedicated","server_os":"Linux","password":true,"vac":true,"version":"7757534","steam_id":85568392924510199,"keywords":["nocrits","nodmgspread","payload","uncletopia"],"game_id":440,"stv_port":27046,"stv_name":"Uncletopia | Los Angeles | 4 | Stopwatch Beta | STV","players":null},{"server_id":11,"name":"Uncletopia | London | 1 | All Maps","name_short":"lon-1","host":"lon-1.uk.uncletopia.com","port":27015,"enabled":true,"region":"eu","cc":"gb","latitude":51.509865,"longitude":-0.118092,"reserved":0,"last_update":"0001-01-01T00:00:00Z","name_a2s":"Uncletopia | London | 1 | All Maps","protocol":17,"map":"pl_borneo","folder":"tf","game":"Team Fortress","app_id":440,"player_count":0,"max_players":24,"Bots":0,"server_type":"Dedicated","server_os":"Linux","password":true,"vac":true,"version":"7757534","steam_id":85568392924367362,"keywords":["nocrits","nodmgspread","payload","uncletopia"],"game_id":440,"stv_port":27016,"stv_name":"Uncletopia | London | 1 | All Maps | STV","players":null},{"server_id":114,"name":"Uncletopia | London | 2 | All Maps","name_short":"lon-2","host":"lon-1.uk.uncletopia.com","port":27025,"enabled":true,"region":"eu","cc":"gb","latitude":51.509865,"longitude":-0.118092,"reserved":0,"last_update":"0001-01-01T00:00:00Z","name_a2s":"Uncletopia | London | 2 | All Maps","protocol":17,"map":"koth_viaduct","folder":"tf","game":"Team Fortress","app_id":440,"player_count":0,"max_players":24,"Bots":0,"server_type":"Dedicated","server_os":"Linux","password":true,"vac":true,"version":"7757534","steam_id":85568392924470941,"keywords":["cp","nocrits","nodmgspread","uncletopia"],"game_id":440,"stv_port":27026,"stv_name":"Uncletopia | London | 2 | All Maps | STV","players":null},{"server_id":320,"name":"Uncletopia | London | 3 | All Maps","name_short":"lon-3","host":"lon-1.uk.uncletopia.com","port":27035,"enabled":true,"region":"eu","cc":"gb","latitude":51.509865,"longitude":-0.118092,"reserved":0,"last_update":"0001-01-01T00:00:00Z","name_a2s":"Uncletopia | London | 3 | All Maps","protocol":17,"map":"cp_process_final","folder":"tf","game":"Team Fortress","app_id":440,"player_count":0,"max_players":24,"Bots":0,"server_type":"Dedicated","server_os":"Linux","password":true,"vac":true,"version":"7757534","steam_id":85568392924510192,"keywords":["cp","nocrits","nodmgspread","uncletopia"],"game_id":440,"stv_port":27036,"stv_name":"Uncletopia | London | 3 | All Maps | STV","players":null},{"server_id":321,"name":"Uncletopia | London | 4 | All Maps","name_short":"lon-4","host":"lon-1.uk.uncletopia.com","port":27045,"enabled":true,"region":"eu","cc":"gb","latitude":51.509865,"longitude":-0.118092,"reserved":0,"last_update":"0001-01-01T00:00:00Z","name_a2s":"Uncletopia | London | 4 | All Maps","protocol":17,"map":"koth_viaduct","folder":"tf","game":"Team Fortress","app_id":440,"player_count":0,"max_players":24,"Bots":0,"server_type":"Dedicated","server_os":"Linux","password":true,"vac":true,"version":"7757534","steam_id":85568392924510193,"keywords":["cp","nocrits","nodmgspread","uncletopia"],"game_id":440,"stv_port":27046,"stv_name":"Uncletopia | London | 4 | All Maps | STV","players":null},{"server_id":21,"name":"Uncletopia | London | 5 | All Maps","name_short":"lon-5","host":"lon-1.uk.uncletopia.com","port":27055,"enabled":true,"region":"eu","cc":"gb","latitude":51.509865,"longitude":-0.118092,"reserved":0,"last_update":"0001-01-01T00:00:00Z","name_a2s":"Uncletopia | London | 5 | All Maps","protocol":17,"map":"pl_frontier_final","folder":"tf","game":"Team Fortress","app_id":440,"player_count":0,"max_players":24,"Bots":0,"server_type":"Dedicated","server_os":"Linux","password":true,"vac":true,"version":"7757534","steam_id":85568392924742829,"keywords":["nocrits","nodmgspread","payload","uncletopia"],"game_id":440,"stv_port":27056,"stv_name":"Uncletopia | London | 5 | All Maps | STV","players":null},{"server_id":22,"name":"Uncletopia | London | 6 | All Maps","name_short":"lon-6","host":"lon-1.uk.uncletopia.com","port":27065,"enabled":true,"region":"eu","cc":"gb","latitude":51.509865,"longitude":-0.118092,"reserved":0,"last_update":"0001-01-01T00:00:00Z","name_a2s":"Uncletopia | London | 6 | All Maps","protocol":17,"map":"koth_viaduct","folder":"tf","game":"Team Fortress","app_id":440,"player_count":0,"max_players":24,"Bots":0,"server_type":"Dedicated","server_os":"Linux","password":true,"vac":true,"version":"7757534","steam_id":85568392924742830,"keywords":["cp","nocrits","nodmgspread","uncletopia"],"game_id":440,"stv_port":27066,"stv_name":"Uncletopia | London | 6 | All Maps | STV","players":null},{"server_id":40,"name":"Uncletopia | London | 7 | No Payload","name_short":"lon-7","host":"lon-1.uk.uncletopia.com","port":27075,"enabled":true,"region":"eu","cc":"gb","latitude":51.509865,"longitude":-0.118092,"reserved":0,"last_update":"0001-01-01T00:00:00Z","name_a2s":"Uncletopia | London | 7 | No Payload","protocol":17,"map":"cp_foundry","folder":"tf","game":"Team Fortress","app_id":440,"player_count":0,"max_players":24,"Bots":0,"server_type":"Dedicated","server_os":"Linux","password":true,"vac":true,"version":"7757534","steam_id":85568392924964314,"keywords":["cp","nocrits","nodmgspread","uncletopia"],"game_id":440,"stv_port":27076,"stv_name":"Uncletopia | London | 7 | No Payload | STV","players":null},{"server_id":41,"name":"Uncletopia | London | 8 | Community","name_short":"lon-8","host":"lon-1.uk.uncletopia.com","port":27085,"enabled":true,"region":"eu","cc":"gb","latitude":51.509865,"longitude":-0.118092,"reserved":0,"last_update":"0001-01-01T00:00:00Z","name_a2s":"Uncletopia | London | 8 | Community","protocol":17,"map":"workshop/koth_synthetic_rc6a.ugc1549817316","folder":"tf","game":"Team Fortress","app_id":440,"player_count":0,"max_players":24,"Bots":0,"server_type":"Dedicated","server_os":"Linux","password":true,"vac":true,"version":"7757534","steam_id":85568392924964315,"keywords":["cp","nocrits","nodmgspread","uncletopia"],"game_id":440,"stv_port":27086,"stv_name":"Uncletopia | London | 8 | Community | STV","players":null},{"server_id":300,"name":"Uncletopia | Montréal | 1 | All Maps","name_short":"mtl-1","host":"mtl-1.ca.uncletopia.com","port":27015,"enabled":true,"region":"us-east","cc":"ca","latitude":45.50889,"longitude":-73.56167,"reserved":0,"last_update":"0001-01-01T00:00:00Z","name_a2s":"Uncletopia | Montréal | 1 | All Maps","protocol":17,"map":"koth_king","folder":"tf","game":"Team Fortress","app_id":440,"player_count":14,"max_players":24,"Bots":0,"server_type":"Dedicated","server_os":"Linux","password":true,"vac":true,"version":"7757534","steam_id":85568392924500087,"keywords":["cp","nocrits","nodmgspread","uncletopia"],"game_id":440,"stv_port":27016,"stv_name":"Uncletopia | Montréal | 1 | All Maps | STV","players":[{"user_id":173,"name":"Rancid Spider Eggs","steam_id":76561198832006265,"connected_time":45000000000,"state":"spawning","ping":81},{"user_id":164,"name":"Piderman17","steam_id":76561198135517922,"connected_time":1062000000000,"state":"active","ping":68},{"user_id":168,"name":"Biggles","steam_id":76561198126576389,"connected_time":710000000000,"state":"active","ping":56},{"user_id":120,"name":"lost in spaaaaace","steam_id":76561199085974120,"connected_time":4204000000000,"state":"active","ping":58},{"user_id":157,"name":"Swifgz","steam_id":76561198162875756,"connected_time":1505000000000,"state":"active","ping":49},{"user_id":71,"name":"Robo Intern","steam_id":76561199067098696,"connected_time":7516000000000,"state":"active","ping":105},{"user_id":158,"name":"Windup Monkey in a Human Suit","steam_id":76561198119501444,"connected_time":1447000000000,"state":"active","ping":100},{"user_id":146,"name":"The Drunk Clown","steam_id":76561197986850426,"connected_time":2671000000000,"state":"active","ping":46},{"user_id":162,"name":"maddierocki1226","steam_id":76561199195613691,"connected_time":1187000000000,"state":"active","ping":86},{"user_id":172,"name":"Balerion the Black Dread","steam_id":76561198003728369,"connected_time":506000000000,"state":"active","ping":84},{"user_id":104,"name":"𝕊𝕠𝕦𝕡🥣GOᗪ","steam_id":76561198015230837,"connected_time":6130000000000,"state":"active","ping":85},{"user_id":166,"name":"Cr8ror","steam_id":76561198157318724,"connected_time":940000000000,"state":"active","ping":76},{"user_id":163,"name":"The Lost Rat","steam_id":76561198050445937,"connected_time":1179000000000,"state":"active","ping":125},{"user_id":167,"name":"Bungalow Bill","steam_id":76561198033536404,"connected_time":795000000000,"state":"active","ping":69}]},{"server_id":301,"name":"Uncletopia | Montréal | 2 | All Maps","name_short":"mtl-2","host":"mtl-1.ca.uncletopia.com","port":27025,"enabled":true,"region":"us-east","cc":"ca","latitude":45.50889,"longitude":-73.56167,"reserved":0,"last_update":"0001-01-01T00:00:00Z","name_a2s":"Uncletopia | Montréal | 2 | All Maps","protocol":17,"map":"pl_snowycoast","folder":"tf","game":"Team Fortress","app_id":440,"player_count":0,"max_players":24,"Bots":0,"server_type":"Dedicated","server_os":"Linux","password":true,"vac":true,"version":"7757534","steam_id":85568392924500088,"keywords":["nocrits","nodmgspread","payload","uncletopia"],"game_id":440,"stv_port":27026,"stv_name":"Uncletopia | Montréal | 2 | All Maps | STV","players":null},{"server_id":302,"name":"Uncletopia | Montréal | 3 | All Maps","name_short":"mtl-3","host":"mtl-1.ca.uncletopia.com","port":27035,"enabled":true,"region":"us-east","cc":"ca","latitude":45.50889,"longitude":-73.56167,"reserved":0,"last_update":"0001-01-01T00:00:00Z","name_a2s":"Uncletopia | Montréal | 3 | All Maps","protocol":17,"map":"pl_badwater","folder":"tf","game":"Team Fortress","app_id":440,"player_count":0,"max_players":24,"Bots":0,"server_type":"Dedicated","server_os":"Linux","password":true,"vac":true,"version":"7757534","steam_id":85568392924500089,"keywords":["nocrits","nodmgspread","payload","uncletopia"],"game_id":440,"stv_port":27036,"stv_name":"Uncletopia | Montréal | 3 | All Maps | STV","players":null},{"server_id":303,"name":"Uncletopia | Montréal | 4 | No Payload","name_short":"mtl-4","host":"mtl-1.ca.uncletopia.com","port":27045,"enabled":true,"region":"us-east","cc":"ca","latitude":45.50889,"longitude":-73.56167,"reserved":0,"last_update":"0001-01-01T00:00:00Z","name_a2s":"Uncletopia | Montréal | 4 | No Payload","protocol":17,"map":"cp_mossrock","folder":"tf","game":"Team Fortress","app_id":440,"player_count":0,"max_players":24,"Bots":0,"server_type":"Dedicated","server_os":"Linux","password":true,"vac":true,"version":"7757534","steam_id":85568392924500090,"keywords":["cp","nocrits","nodmgspread","uncletopia"],"game_id":440,"stv_port":27046,"stv_name":"Uncletopia | Montréal | 4 | No Payload | STV","players":null},{"server_id":13,"name":"Uncletopia | New York City | 1 | All Maps","name_short":"nyc-1","host":"nyc-1.us.uncletopia.com","port":27015,"enabled":true,"region":"us-east","cc":"us","latitude":40.73061,"longitude":-73.93524,"reserved":0,"last_update":"0001-01-01T00:00:00Z","name_a2s":"Uncletopia | New York City | 1 | All Maps","protocol":17,"map":"pl_snowycoast","folder":"tf","game":"Team Fortress","app_id":440,"player_count":22,"max_players":24,"Bots":0,"server_type":"Dedicated","server_os":"Linux","password":true,"vac":true,"version":"7757534","steam_id":85568392924469993,"keywords":["nocrits","nodmgspread","payload","uncletopia"],"game_id":440,"stv_port":27016,"stv_name":"Uncletopia | New York City | 1 | All Maps | STV","players":[{"user_id":411,"name":"Wumps","steam_id":76561198207226825,"connected_time":2494000000000,"state":"active","ping":63},{"user_id":394,"name":"Frost ♥","steam_id":76561198168870617,"connected_time":3607000000000,"state":"active","ping":47},{"user_id":414,"name":"muzikelretifhbr","steam_id":76561198445169719,"connected_time":1836000000000,"state":"active","ping":122},{"user_id":437,"name":"nucket","steam_id":76561198028658527,"connected_time":635000000000,"state":"active","ping":107},{"user_id":423,"name":"Sorbet Shark Cookie","steam_id":76561198133082665,"connected_time":1314000000000,"state":"active","ping":49},{"user_id":399,"name":"the taxi driver","steam_id":76561198830243167,"connected_time":3315000000000,"state":"active","ping":62},{"user_id":371,"name":"bendera","steam_id":76561197965486503,"connected_time":5095000000000,"state":"active","ping":80},{"user_id":425,"name":"Sprinklingmydoughnut","steam_id":76561198168009092,"connected_time":1291000000000,"state":"active","ping":59},{"user_id":433,"name":"jazaniac","steam_id":76561198059955588,"connected_time":751000000000,"state":"active","ping":84},{"user_id":427,"name":"GamingAmongus","steam_id":76561198365133371,"connected_time":1277000000000,"state":"active","ping":102},{"user_id":436,"name":"jolo","steam_id":76561198042831480,"connected_time":663000000000,"state":"active","ping":75},{"user_id":450,"name":"Yuzu","steam_id":76561198417913035,"connected_time":35000000000,"state":"spawning","ping":75},{"user_id":385,"name":"Walter White","steam_id":76561198875469297,"connected_time":4009000000000,"state":"active","ping":84},{"user_id":444,"name":"CRAZY engineer","steam_id":76561198887937902,"connected_time":493000000000,"state":"active","ping":53},{"user_id":447,"name":"Doost","steam_id":76561198115785902,"connected_time":315000000000,"state":"active","ping":91},{"user_id":442,"name":"Jankyo","steam_id":76561198083339492,"connected_time":583000000000,"state":"active","ping":81},{"user_id":448,"name":"Frontier Psychiatrist","steam_id":76561198378587138,"connected_time":272000000000,"state":"active","ping":114},{"user_id":410,"name":"Goomba","steam_id":76561199031935496,"connected_time":2619000000000,"state":"active","ping":69},{"user_id":429,"name":"Yummy Kabobz","steam_id":76561198067661705,"connected_time":1209000000000,"state":"active","ping":56},{"user_id":449,"name":"Error 4 Oh Four","steam_id":76561198121637567,"connected_time":128000000000,"state":"active","ping":78},{"user_id":416,"name":"H3AVTM3TAL","steam_id":76561199017911640,"connected_time":1646000000000,"state":"active","ping":95},{"user_id":400,"name":"Dr. drips","steam_id":76561198209380493,"connected_time":3271000000000,"state":"active","ping":43}]},{"server_id":14,"name":"Uncletopia | New York City | 2 | All Maps","name_short":"nyc-2","host":"nyc-1.us.uncletopia.com","port":27025,"enabled":true,"region":"us-east","cc":"us","latitude":40.73061,"longitude":-73.93524,"reserved":0,"last_update":"0001-01-01T00:00:00Z","name_a2s":"Uncletopia | New York City | 2 | All Maps","protocol":17,"map":"pl_badwater","folder":"tf","game":"Team Fortress","app_id":440,"player_count":24,"max_players":24,"Bots":0,"server_type":"Dedicated","server_os":"Linux","password":true,"vac":true,"version":"7757534","steam_id":85568392924469994,"keywords":["nocrits","nodmgspread","payload","uncletopia"],"game_id":440,"stv_port":27026,"stv_name":"Uncletopia | New York City | 2 | All Maps | STV","players":[{"user_id":504,"name":"DaMultiversalist","steam_id":76561198239552412,"connected_time":1133000000000,"state":"active","ping":88},{"user_id":515,"name":"Kito","steam_id":76561198394383213,"connected_time":269000000000,"state":"active","ping":100},{"user_id":514,"name":"Braamklauw","steam_id":76561198283287697,"connected_time":325000000000,"state":"active","ping":142},{"user_id":473,"name":"aciddragon","steam_id":76561198151211107,"connected_time":3386000000000,"state":"active","ping":106},{"user_id":522,"name":"Peanut Arbuckle","steam_id":76561198081689361,"connected_time":248000000000,"state":"active","ping":48},{"user_id":446,"name":"guyinatophat51","steam_id":76561198180230694,"connected_time":4478000000000,"state":"active","ping":55},{"user_id":512,"name":"SpinetinglingToast","steam_id":76561198099470670,"connected_time":598000000000,"state":"active","ping":53},{"user_id":523,"name":"Jadthegamerofgames","steam_id":76561198310575719,"connected_time":246000000000,"state":"active","ping":46},{"user_id":506,"name":"bobbyreinman2009","steam_id":76561198804763186,"connected_time":1090000000000,"state":"active","ping":40},{"user_id":507,"name":"chilis baby back ribs","steam_id":76561198813516435,"connected_time":1080000000000,"state":"active","ping":105},{"user_id":460,"name":"WellThatCase","steam_id":76561198930966223,"connected_time":3683000000000,"state":"active","ping":97},{"user_id":485,"name":"ZeFizzyPop™","steam_id":76561198258104981,"connected_time":2146000000000,"state":"active","ping":81},{"user_id":491,"name":"heiny :3","steam_id":76561197992551013,"connected_time":2011000000000,"state":"active","ping":83},{"user_id":480,"name":"Akahada Oni","steam_id":76561198130356335,"connected_time":2860000000000,"state":"active","ping":72},{"user_id":445,"name":"chicken coup d'état","steam_id":76561198069586736,"connected_time":4489000000000,"state":"active","ping":53},{"user_id":513,"name":"Sir Quacksalot","steam_id":76561198048942777,"connected_time":438000000000,"state":"active","ping":89},{"user_id":494,"name":"9Bendy9","steam_id":76561198164023601,"connected_time":1762000000000,"state":"active","ping":132},{"user_id":499,"name":"beefmachine","steam_id":76561198001196512,"connected_time":1547000000000,"state":"active","ping":88},{"user_id":509,"name":"docstaph","steam_id":76561197985145935,"connected_time":922000000000,"state":"active","ping":52},{"user_id":488,"name":"RokkitFrog","steam_id":76561198046465850,"connected_time":2115000000000,"state":"active","ping":93},{"user_id":452,"name":"r0zemary (she/her)","steam_id":76561198128494897,"connected_time":4222000000000,"state":"active","ping":80},{"user_id":362,"name":"FS Jorda","steam_id":76561198071421459,"connected_time":8086000000000,"state":"active","ping":30},{"user_id":464,"name":"Big Ounce","steam_id":76561198167904254,"connected_time":3644000000000,"state":"active","ping":93},{"user_id":500,"name":"sloppy simon","steam_id":76561198364631724,"connected_time":1454000000000,"state":"active","ping":66}]},{"server_id":15,"name":"Uncletopia | New York City | 3 | Stopwatch Beta","name_short":"nyc-3","host":"nyc-1.us.uncletopia.com","port":27035,"enabled":true,"region":"us-east","cc":"us","latitude":40.73061,"longitude":-73.93524,"reserved":0,"last_update":"0001-01-01T00:00:00Z","name_a2s":"Uncletopia | New York City | 3 | Stopwatch Beta","protocol":17,"map":"workshop/pl_badwater_pro_v12.ugc2142942074","folder":"tf","game":"Team Fortress","app_id":440,"player_count":0,"max_players":24,"Bots":0,"server_type":"Dedicated","server_os":"Linux","password":true,"vac":true,"version":"7757534","steam_id":85568392924742820,"keywords":["nocrits","nodmgspread","payload","uncletopia"],"game_id":440,"stv_port":27036,"stv_name":"Uncletopia | New York City | 3 | Stopwatch Beta | STV","players":null},{"server_id":16,"name":"Uncletopia | New York City | 4 | Community","name_short":"nyc-4","host":"nyc-1.us.uncletopia.com","port":27045,"enabled":true,"region":"us-east","cc":"us","latitude":40.73061,"longitude":-73.93524,"reserved":0,"last_update":"0001-01-01T00:00:00Z","name_a2s":"Uncletopia | New York City | 4 | Community","protocol":17,"map":"workshop/pl_boundary_final1.ugc456799153","folder":"tf","game":"Team Fortress","app_id":440,"player_count":18,"max_players":24,"Bots":0,"server_type":"Dedicated","server_os":"Linux","password":true,"vac":true,"version":"7757534","steam_id":85568392924742821,"keywords":["nocrits","nodmgspread","payload","uncletopia"],"game_id":440,"stv_port":27046,"stv_name":"Uncletopia | New York City | 4 | Community | STV","players":[{"user_id":287,"name":"Grimace","steam_id":76561198297216420,"connected_time":5260000000000,"state":"active","ping":45},{"user_id":295,"name":"CivilWarMike","steam_id":76561198141188839,"connected_time":3272000000000,"state":"active","ping":83},{"user_id":289,"name":"averagesoldiermain","steam_id":76561198158447466,"connected_time":4546000000000,"state":"active","ping":77},{"user_id":290,"name":"Bip","steam_id":76561199022962204,"connected_time":4539000000000,"state":"active","ping":77},{"user_id":329,"name":"cabbage","steam_id":76561198103496593,"connected_time":806000000000,"state":"active","ping":61},{"user_id":312,"name":"Mr. Sun","steam_id":76561198081338822,"connected_time":1671000000000,"state":"active","ping":59},{"user_id":333,"name":"flex-x","steam_id":76561198822319999,"connected_time":20000000000,"state":"spawning","ping":236},{"user_id":301,"name":"BasicPeaches","steam_id":76561198190890150,"connected_time":2098000000000,"state":"active","ping":60},{"user_id":302,"name":"nah","steam_id":76561198130671890,"connected_time":2050000000000,"state":"active","ping":59},{"user_id":306,"name":"parsuh :\u003e","steam_id":76561198057197772,"connected_time":1956000000000,"state":"active","ping":114},{"user_id":313,"name":"wolf_71","steam_id":76561198963570945,"connected_time":1555000000000,"state":"active","ping":83},{"user_id":314,"name":"The Ghost of Jay Leno","steam_id":76561198058938897,"connected_time":1459000000000,"state":"active","ping":71},{"user_id":315,"name":"Underachiever Mako","steam_id":76561198207943169,"connected_time":1402000000000,"state":"active","ping":53},{"user_id":317,"name":"Sexual Butt","steam_id":76561198102241399,"connected_time":1285000000000,"state":"active","ping":78},{"user_id":318,"name":"Super D Duper","steam_id":76561198078203677,"connected_time":1246000000000,"state":"active","ping":56},{"user_id":320,"name":"willow","steam_id":76561198276866938,"connected_time":1196000000000,"state":"active","ping":54},{"user_id":323,"name":"Aegis","steam_id":76561198272052750,"connected_time":1094000000000,"state":"active","ping":66},{"user_id":326,"name":"zaza","steam_id":76561198273411260,"connected_time":960000000000,"state":"active","ping":60}]},{"server_id":142,"name":"Uncletopia | São Paulo | 1 | All Maps","name_short":"sao-1","host":"sao-1.br.uncletopia.com","port":27015,"enabled":true,"region":"sa","cc":"br","latitude":-23.533773,"longitude":-46.62529,"reserved":0,"last_update":"0001-01-01T00:00:00Z","name_a2s":"Uncletopia | São Paulo | 1 | All Maps","protocol":17,"map":"pl_borneo","folder":"tf","game":"Team Fortress","app_id":440,"player_count":0,"max_players":24,"Bots":0,"server_type":"Dedicated","server_os":"Linux","password":true,"vac":true,"version":"7757534","steam_id":85568392924469996,"keywords":["nocrits","nodmgspread","payload","uncletopia"],"game_id":440,"stv_port":27016,"stv_name":"Uncletopia | São Paulo | 1 | All Maps | STV","players":null},{"server_id":143,"name":"Uncletopia | São Paulo | 2 | All Maps","name_short":"sao-2","host":"sao-2.br.uncletopia.com","port":27015,"enabled":true,"region":"sa","cc":"br","latitude":-23.533773,"longitude":-46.62529,"reserved":0,"last_update":"0001-01-01T00:00:00Z","name_a2s":"Uncletopia | São Paulo | 2 | All Maps","protocol":17,"map":"cp_process_final","folder":"tf","game":"Team Fortress","app_id":440,"player_count":0,"max_players":24,"Bots":0,"server_type":"Dedicated","server_os":"Linux","password":true,"vac":true,"version":"7757534","steam_id":85568392924485349,"keywords":["cp","nocrits","nodmgspread","uncletopia"],"game_id":440,"stv_port":27016,"stv_name":"Uncletopia | São Paulo | 2 | All Maps | STV","players":null},{"server_id":7,"name":"Uncletopia | Seattle | 1 | All Maps","name_short":"sea-1","host":"sea-1.us.uncletopia.com","port":27015,"enabled":true,"region":"us-west","cc":"us","latitude":47.608013,"longitude":-122.33517,"reserved":0,"last_update":"0001-01-01T00:00:00Z","name_a2s":"Uncletopia | Seattle | 1 | All Maps","protocol":17,"map":"pl_borneo","folder":"tf","game":"Team Fortress","app_id":440,"player_count":24,"max_players":24,"Bots":0,"server_type":"Dedicated","server_os":"Linux","password":true,"vac":true,"version":"7757534","steam_id":85568392924469997,"keywords":["nocrits","nodmgspread","payload","uncletopia"],"game_id":440,"stv_port":27016,"stv_name":"Uncletopia | Seattle | 1 | All Maps | STV","players":[{"user_id":784,"name":"Sad Dent","steam_id":76561198103189993,"connected_time":838000000000,"state":"active","ping":85},{"user_id":778,"name":"PerKnuckleChuckle","steam_id":76561198023221596,"connected_time":1637000000000,"state":"active","ping":81},{"user_id":722,"name":"mike, louie is a munch","steam_id":76561198225411004,"connected_time":5753000000000,"state":"active","ping":60},{"user_id":776,"name":"An Old Lady","steam_id":76561198047480318,"connected_time":1659000000000,"state":"active","ping":78},{"user_id":754,"name":"AmiableNebula","steam_id":76561198094306627,"connected_time":3620000000000,"state":"active","ping":75},{"user_id":782,"name":"self sufficient kitten","steam_id":76561197960592612,"connected_time":1489000000000,"state":"active","ping":50},{"user_id":766,"name":"Bony","steam_id":76561199001748822,"connected_time":2219000000000,"state":"active","ping":45},{"user_id":764,"name":"alaska","steam_id":76561198017030029,"connected_time":2592000000000,"state":"active","ping":68},{"user_id":770,"name":"Thanks Ants","steam_id":76561197966221018,"connected_time":1987000000000,"state":"active","ping":57},{"user_id":690,"name":"soup","steam_id":76561198043209046,"connected_time":6909000000000,"state":"active","ping":81},{"user_id":774,"name":"Big Jon","steam_id":76561198402285099,"connected_time":1667000000000,"state":"active","ping":76},{"user_id":729,"name":"toes","steam_id":76561198221151676,"connected_time":5104000000000,"state":"active","ping":64},{"user_id":772,"name":"squash","steam_id":76561198150281353,"connected_time":1673000000000,"state":"active","ping":52},{"user_id":785,"name":"Satan-2","steam_id":76561199231742764,"connected_time":821000000000,"state":"active","ping":120},{"user_id":789,"name":"Hassium","steam_id":76561198162541373,"connected_time":297000000000,"state":"active","ping":54},{"user_id":790,"name":"Luca","steam_id":76561198125087140,"connected_time":112000000000,"state":"active","ping":53},{"user_id":727,"name":"blizz","steam_id":76561199139715539,"connected_time":5261000000000,"state":"active","ping":80},{"user_id":787,"name":"Twoxer","steam_id":76561199072232012,"connected_time":705000000000,"state":"active","ping":56},{"user_id":768,"name":"oo","steam_id":76561198119626492,"connected_time":2207000000000,"state":"active","ping":80},{"user_id":749,"name":"Imitation Caucasian","steam_id":76561198320536166,"connected_time":4016000000000,"state":"active","ping":100},{"user_id":762,"name":"weegeebad","steam_id":76561198280841437,"connected_time":2696000000000,"state":"active","ping":122},{"user_id":737,"name":"Dr. Banana boy","steam_id":76561199012105803,"connected_time":4651000000000,"state":"active","ping":60},{"user_id":721,"name":"MonteJT","steam_id":76561198055409360,"connected_time":5864000000000,"state":"active","ping":44},{"user_id":786,"name":"slleeeep's","steam_id":76561199029954324,"connected_time":791000000000,"state":"active","ping":90}]},{"server_id":119,"name":"Uncletopia | Seattle | 2 | All Maps","name_short":"sea-2","host":"sea-1.us.uncletopia.com","port":27025,"enabled":true,"region":"us-west","cc":"us","latitude":47.608013,"longitude":-122.33517,"reserved":0,"last_update":"0001-01-01T00:00:00Z","name_a2s":"Uncletopia | Seattle | 2 | All Maps","protocol":17,"map":"cp_dustbowl","folder":"tf","game":"Team Fortress","app_id":440,"player_count":18,"max_players":24,"Bots":0,"server_type":"Dedicated","server_os":"Linux","password":true,"vac":true,"version":"7757534","steam_id":85568392924469998,"keywords":["cp","nocrits","nodmgspread","uncletopia"],"game_id":440,"stv_port":27026,"stv_name":"Uncletopia | Seattle | 2 | All Maps | STV","players":[{"user_id":622,"name":"PootZilla","steam_id":76561198073870352,"connected_time":3457000000000,"state":"active","ping":127},{"user_id":646,"name":"Jack\u0026Coke","steam_id":76561198045199164,"connected_time":1277000000000,"state":"active","ping":43},{"user_id":655,"name":"Moth","steam_id":76561199214894158,"connected_time":294000000000,"state":"active","ping":96},{"user_id":657,"name":"misterjozo","steam_id":76561198012300755,"connected_time":260000000000,"state":"active","ping":57},{"user_id":658,"name":"Spare(8)Ball","steam_id":76561197982432995,"connected_time":135000000000,"state":"active","ping":71},{"user_id":659,"name":"exephur","steam_id":76561198135763234,"connected_time":54000000000,"state":"active","ping":61},{"user_id":656,"name":"COOL master_9","steam_id":76561198073041151,"connected_time":288000000000,"state":"active","ping":101},{"user_id":660,"name":"CaptGungHo","steam_id":76561198814227398,"connected_time":50000000000,"state":"active","ping":287},{"user_id":648,"name":"General Fisticuffs","steam_id":76561198255721392,"connected_time":1146000000000,"state":"active","ping":117},{"user_id":636,"name":"Corpe","steam_id":76561198054490549,"connected_time":1506000000000,"state":"active","ping":57},{"user_id":635,"name":"shroom gloom","steam_id":76561198042941628,"connected_time":1656000000000,"state":"active","ping":79},{"user_id":640,"name":"TrixieHap","steam_id":76561198728548389,"connected_time":1462000000000,"state":"active","ping":57},{"user_id":601,"name":"Inigo Montoya","steam_id":76561198010603881,"connected_time":5527000000000,"state":"active","ping":118},{"user_id":649,"name":"CollDragon","steam_id":76561198067534450,"connected_time":1142000000000,"state":"active","ping":127},{"user_id":617,"name":"Username","steam_id":76561198855586261,"connected_time":3702000000000,"state":"active","ping":74},{"user_id":654,"name":"Solifuga","steam_id":76561198119569902,"connected_time":327000000000,"state":"active","ping":51},{"user_id":643,"name":"wmjledger","steam_id":76561198443046861,"connected_time":1420000000000,"state":"active","ping":56},{"user_id":652,"name":"Dimple #TF2Center","steam_id":76561198980324190,"connected_time":522000000000,"state":"active","ping":50}]},{"server_id":406,"name":"Uncletopia | Seattle | 3 | Stopwatch Beta","name_short":"sea-3","host":"sea-1.us.uncletopia.com","port":27035,"enabled":true,"region":"us-west","cc":"us","latitude":47.608013,"longitude":-122.33517,"reserved":0,"last_update":"0001-01-01T00:00:00Z","name_a2s":"Uncletopia | Seattle | 3 | Stopwatch Beta","protocol":17,"map":"koth_lakeside_final","folder":"tf","game":"Team Fortress","app_id":440,"player_count":0,"max_players":24,"Bots":0,"server_type":"Dedicated","server_os":"Linux","password":true,"vac":true,"version":"7757534","steam_id":85568392924515217,"keywords":["cp","nocrits","nodmgspread","uncletopia"],"game_id":440,"stv_port":27036,"stv_name":"Uncletopia | Seattle | 3 | Stopwatch Beta | STV","players":null},{"server_id":17,"name":"Uncletopia | San Francisco | 1 | All Maps","name_short":"sfo-1","host":"sfo-1.us.uncletopia.com","port":27015,"enabled":true,"region":"us-west","cc":"us","latitude":37.77397,"longitude":-122.4313,"reserved":0,"last_update":"0001-01-01T00:00:00Z","name_a2s":"Uncletopia | San Francisco | 1 | All Maps","protocol":17,"map":"pl_barnblitz","folder":"tf","game":"Team Fortress","app_id":440,"player_count":2,"max_players":24,"Bots":0,"server_type":"Dedicated","server_os":"Linux","password":true,"vac":true,"version":"7757534","steam_id":85568392924469999,"keywords":["nocrits","nodmgspread","payload","uncletopia"],"game_id":440,"stv_port":27016,"stv_name":"Uncletopia | San Francisco | 1 | All Maps | STV","players":[{"user_id":22,"name":"Dimmerswitch","steam_id":76561198034782177,"connected_time":815000000000,"state":"active","ping":37},{"user_id":23,"name":"reymundo","steam_id":76561197989412830,"connected_time":318000000000,"state":"active","ping":67}]},{"server_id":18,"name":"Uncletopia | San Francisco | 2 | All Maps","name_short":"sfo-2","host":"sfo-1.us.uncletopia.com","port":27025,"enabled":true,"region":"us-west","cc":"us","latitude":37.77397,"longitude":-122.4313,"reserved":0,"last_update":"0001-01-01T00:00:00Z","name_a2s":"Uncletopia | San Francisco | 2 | All Maps","protocol":17,"map":"koth_viaduct","folder":"tf","game":"Team Fortress","app_id":440,"player_count":24,"max_players":24,"Bots":0,"server_type":"Dedicated","server_os":"Linux","password":true,"vac":true,"version":"7757534","steam_id":85568392924470000,"keywords":["cp","nocrits","nodmgspread","uncletopia"],"game_id":440,"stv_port":27026,"stv_name":"Uncletopia | San Francisco | 2 | All Maps | STV","players":[{"user_id":15,"name":"Lingo","steam_id":76561198028230064,"connected_time":1695000000000,"state":"active","ping":66},{"user_id":16,"name":"EthanHike","steam_id":76561198057389508,"connected_time":1690000000000,"state":"active","ping":67},{"user_id":20,"name":"Lichy","steam_id":76561198310682841,"connected_time":976000000000,"state":"active","ping":97},{"user_id":18,"name":"nfseskimo","steam_id":76561198078745666,"connected_time":1672000000000,"state":"active","ping":64},{"user_id":21,"name":"GRIM GAMING","steam_id":76561198107491637,"connected_time":889000000000,"state":"active","ping":86},{"user_id":22,"name":"Triple Dog Dare","steam_id":76561198100120394,"connected_time":832000000000,"state":"active","ping":58},{"user_id":23,"name":"Gaming Time","steam_id":76561199247095754,"connected_time":802000000000,"state":"active","ping":81},{"user_id":24,"name":"Double Doge DARE","steam_id":76561198103328318,"connected_time":765000000000,"state":"active","ping":75},{"user_id":25,"name":"megaroboleg","steam_id":76561198844644993,"connected_time":729000000000,"state":"active","ping":65},{"user_id":26,"name":"bash","steam_id":76561199161649534,"connected_time":719000000000,"state":"active","ping":55},{"user_id":27,"name":"GlockkRoach","steam_id":76561198140830815,"connected_time":711000000000,"state":"active","ping":70},{"user_id":28,"name":"CactiSpartan","steam_id":76561198300619220,"connected_time":697000000000,"state":"active","ping":70},{"user_id":29,"name":"Omniary","steam_id":76561198082329692,"connected_time":588000000000,"state":"active","ping":73},{"user_id":30,"name":"Tele Co","steam_id":76561198041909269,"connected_time":559000000000,"state":"active","ping":67},{"user_id":47,"name":"Mr. Pikachu","steam_id":76561198031446917,"connected_time":161000000000,"state":"active","ping":77},{"user_id":37,"name":"crumbles","steam_id":76561198168707036,"connected_time":443000000000,"state":"active","ping":56},{"user_id":33,"name":"PeaTea","steam_id":76561198056647365,"connected_time":486000000000,"state":"active","ping":88},{"user_id":41,"name":"ttv_shingo_is_live","steam_id":76561198998571073,"connected_time":415000000000,"state":"active","ping":56},{"user_id":43,"name":"RabidSoda","steam_id":76561198115416316,"connected_time":278000000000,"state":"active","ping":70},{"user_id":39,"name":"CR4YCR4Y","steam_id":76561198009310297,"connected_time":436000000000,"state":"active","ping":121},{"user_id":40,"name":"SirQuiet","steam_id":76561198109235416,"connected_time":430000000000,"state":"active","ping":80},{"user_id":48,"name":"Crazy Hungarian","steam_id":76561198025498172,"connected_time":149000000000,"state":"active","ping":62},{"user_id":45,"name":"Postal Dude","steam_id":76561199229667773,"connected_time":251000000000,"state":"active","ping":116},{"user_id":49,"name":"ferby","steam_id":76561198028229594,"connected_time":6000000000,"state":"spawning","ping":56}]},{"server_id":19,"name":"Uncletopia | San Francisco | 3 | Stopwatch Beta","name_short":"sfo-3","host":"sfo-1.us.uncletopia.com","port":27035,"enabled":true,"region":"us-west","cc":"us","latitude":37.77397,"longitude":-122.4313,"reserved":0,"last_update":"0001-01-01T00:00:00Z","name_a2s":"Uncletopia | San Francisco | 3 | Stopwatch Beta","protocol":17,"map":"koth_highpass","folder":"tf","game":"Team Fortress","app_id":440,"player_count":0,"max_players":24,"Bots":0,"server_type":"Dedicated","server_os":"Linux","password":true,"vac":true,"version":"7757534","steam_id":85568392924742824,"keywords":["cp","nocrits","nodmgspread","uncletopia"],"game_id":440,"stv_port":27036,"stv_name":"Uncletopia | San Francisco | 3 | Stopwatch Beta | STV","players":null},{"server_id":20,"name":"Uncletopia | San Francisco | 4 | Community","name_short":"sfo-4","host":"sfo-1.us.uncletopia.com","port":27045,"enabled":true,"region":"us-west","cc":"us","latitude":37.77397,"longitude":-122.4313,"reserved":0,"last_update":"0001-01-01T00:00:00Z","name_a2s":"Uncletopia | San Francisco | 4 | Community","protocol":17,"map":"workshop/cp_glacier_rc6.ugc2905735376","folder":"tf","game":"Team Fortress","app_id":440,"player_count":0,"max_players":24,"Bots":0,"server_type":"Dedicated","server_os":"Linux","password":true,"vac":true,"version":"7757534","steam_id":85568392924742826,"keywords":["cp","nocrits","nodmgspread","uncletopia"],"game_id":440,"stv_port":27046,"stv_name":"Uncletopia | San Francisco | 4 | Community | STV","players":null},{"server_id":141,"name":"Uncletopia | Sydney | 1 | All Maps","name_short":"syd-1","host":"syd-1.au.uncletopia.com","port":27015,"enabled":true,"region":"au","cc":"au","latitude":-33.865143,"longitude":151.2099,"reserved":0,"last_update":"0001-01-01T00:00:00Z","name_a2s":"Uncletopia | Sydney | 1 | All Maps","protocol":17,"map":"koth_viaduct","folder":"tf","game":"Team Fortress","app_id":440,"player_count":10,"max_players":24,"Bots":0,"server_type":"Dedicated","server_os":"Linux","password":true,"vac":true,"version":"7757534","steam_id":85568392924470001,"keywords":["cp","nocrits","nodmgspread","uncletopia"],"game_id":440,"stv_port":27016,"stv_name":"Uncletopia | Sydney | 1 | All Maps | STV","players":[{"user_id":8,"name":"Cup","steam_id":76561198038485845,"connected_time":1259000000000,"state":"active","ping":30},{"user_id":10,"name":"Beangodhiann","steam_id":76561198189663681,"connected_time":1188000000000,"state":"active","ping":57},{"user_id":18,"name":"Hona","steam_id":76561198221809496,"connected_time":408000000000,"state":"active","ping":56},{"user_id":12,"name":"DestroyersWin","steam_id":76561199057093889,"connected_time":933000000000,"state":"active","ping":288},{"user_id":13,"name":"Lord Oink","steam_id":76561198125237921,"connected_time":790000000000,"state":"active","ping":43},{"user_id":14,"name":"P","steam_id":76561198304514505,"connected_time":653000000000,"state":"active","ping":179},{"user_id":15,"name":"Sotarnicus","steam_id":76561198199568775,"connected_time":648000000000,"state":"active","ping":75},{"user_id":21,"name":"lemur","steam_id":76561198278239170,"connected_time":46000000000,"state":"spawning","ping":128},{"user_id":17,"name":"bean goblin","steam_id":76561199185148234,"connected_time":498000000000,"state":"active","ping":353},{"user_id":19,"name":"♥ Flat White ♥","steam_id":76561198410190974,"connected_time":223000000000,"state":"active","ping":101}]},{"server_id":123,"name":"Uncletopia | Sydney | 2 | All Maps","name_short":"syd-2","host":"syd-1.au.uncletopia.com","port":27025,"enabled":true,"region":"au","cc":"au","latitude":-33.865143,"longitude":151.2099,"reserved":0,"last_update":"0001-01-01T00:00:00Z","name_a2s":"Uncletopia | Sydney | 2 | All Maps","protocol":17,"map":"cp_sunshine","folder":"tf","game":"Team Fortress","app_id":440,"player_count":0,"max_players":24,"Bots":0,"server_type":"Dedicated","server_os":"Linux","password":true,"vac":true,"version":"7757534","steam_id":85568392924470002,"keywords":["cp","nocrits","nodmgspread","uncletopia"],"game_id":440,"stv_port":27026,"stv_name":"Uncletopia | Sydney | 2 | All Maps | STV","players":null},{"server_id":395,"name":"Uncletopia | Sydney | 3 | All Maps","name_short":"syd-3","host":"syd-1.au.uncletopia.com","port":27035,"enabled":true,"region":"au","cc":"au","latitude":-33.865143,"longitude":151.2099,"reserved":0,"last_update":"0001-01-01T00:00:00Z","name_a2s":"Uncletopia | Sydney | 3 | All Maps","protocol":17,"map":"pl_badwater","folder":"tf","game":"Team Fortress","app_id":440,"player_count":0,"max_players":24,"Bots":0,"server_type":"Dedicated","server_os":"Linux","password":true,"vac":true,"version":"7757534","steam_id":85568392925194467,"keywords":["nocrits","nodmgspread","payload","uncletopia"],"game_id":440,"stv_port":27036,"stv_name":"Uncletopia | Sydney | 3 | All Maps | STV","players":null},{"server_id":396,"name":"Uncletopia | Sydney | 4 | All Maps","name_short":"syd-4","host":"syd-1.au.uncletopia.com","port":27045,"enabled":true,"region":"au","cc":"au","latitude":-33.865143,"longitude":151.2099,"reserved":0,"last_update":"0001-01-01T00:00:00Z","name_a2s":"Uncletopia | Sydney | 4 | All Maps","protocol":17,"map":"koth_highpass","folder":"tf","game":"Team Fortress","app_id":440,"player_count":0,"max_players":24,"Bots":0,"server_type":"Dedicated","server_os":"Linux","password":true,"vac":true,"version":"7757534","steam_id":85568392925397958,"keywords":["cp","nocrits","nodmgspread","uncletopia"],"game_id":440,"stv_port":27046,"stv_name":"Uncletopia | Sydney | 4 | All Maps | STV","players":null},{"server_id":58,"name":"Uncletopia | Sydney | 5 | Stopwatch Beta","name_short":"syd-5","host":"syd-1.au.uncletopia.com","port":27055,"enabled":true,"region":"au","cc":"au","latitude":-33.865143,"longitude":151.2099,"reserved":0,"last_update":"0001-01-01T00:00:00Z","name_a2s":"Uncletopia | Sydney | 5 | Stopwatch Beta","protocol":17,"map":"cp_process_final","folder":"tf","game":"Team Fortress","app_id":440,"player_count":0,"max_players":24,"Bots":0,"server_type":"Dedicated","server_os":"Linux","password":true,"vac":true,"version":"7757534","steam_id":85568392925397959,"keywords":["cp","nocrits","nodmgspread","uncletopia"],"game_id":440,"stv_port":27056,"stv_name":"Uncletopia | Sydney | 5 | Stopwatch Beta | STV","players":null},{"server_id":59,"name":"Uncletopia | Sydney | 6 | Community","name_short":"syd-6","host":"syd-1.au.uncletopia.com","port":27065,"enabled":true,"region":"au","cc":"au","latitude":-33.865143,"longitude":151.2099,"reserved":0,"last_update":"0001-01-01T00:00:00Z","name_a2s":"Uncletopia | Sydney | 6 | Community","protocol":17,"map":"workshop/koth_slaughter_rc1.ugc1712845210","folder":"tf","game":"Team Fortress","app_id":440,"player_count":0,"max_players":24,"Bots":0,"server_type":"Dedicated","server_os":"Linux","password":true,"vac":true,"version":"7757534","steam_id":85568392925397960,"keywords":["cp","nocrits","nodmgspread","uncletopia"],"game_id":440,"stv_port":27066,"stv_name":"Uncletopia | Sydney | 6 | Community | STV","players":null},{"server_id":49,"name":"Uncletopia | Warsaw | 1 | All Maps","name_short":"waw-1","host":"waw-1.pl.uncletopia.com","port":27015,"enabled":true,"region":"eu","cc":"pl","latitude":52.2297,"longitude":21.017532,"reserved":0,"last_update":"0001-01-01T00:00:00Z","name_a2s":"","protocol":0,"map":"","folder":"","game":"","app_id":0,"player_count":0,"max_players":0,"Bots":0,"server_type":"","server_os":"","password":false,"vac":false,"version":"","steam_id":0,"keywords":null,"game_id":0,"stv_port":0,"stv_name":"","players":null},{"server_id":50,"name":"Uncletopia | Warsaw | 2 | All Maps","name_short":"waw-2","host":"waw-1.pl.uncletopia.com","port":27025,"enabled":true,"region":"eu","cc":"pl","latitude":52.2297,"longitude":21.017532,"reserved":0,"last_update":"0001-01-01T00:00:00Z","name_a2s":"Uncletopia | Warsaw | 2 | All Maps","protocol":17,"map":"koth_viaduct","folder":"tf","game":"Team Fortress","app_id":440,"player_count":0,"max_players":24,"Bots":0,"server_type":"Dedicated","server_os":"Linux","password":true,"vac":true,"version":"7757534","steam_id":85568392925397851,"keywords":["cp","nocrits","nodmgspread","uncletopia"],"game_id":440,"stv_port":27026,"stv_name":"Uncletopia | Warsaw | 2 | All Maps | STV","players":null},{"server_id":51,"name":"Uncletopia | Warsaw | 3 | All Maps","name_short":"waw-3","host":"waw-1.pl.uncletopia.com","port":27035,"enabled":true,"region":"eu","cc":"pl","latitude":52.2297,"longitude":21.017532,"reserved":0,"last_update":"0001-01-01T00:00:00Z","name_a2s":"Uncletopia | Warsaw | 3 | All Maps","protocol":17,"map":"pl_frontier_final","folder":"tf","game":"Team Fortress","app_id":440,"player_count":0,"max_players":24,"Bots":0,"server_type":"Dedicated","server_os":"Linux","password":true,"vac":true,"version":"7757534","steam_id":85568392925397852,"keywords":["nocrits","nodmgspread","payload","uncletopia"],"game_id":440,"stv_port":27036,"stv_name":"Uncletopia | Warsaw | 3 | All Maps | STV","players":null},{"server_id":52,"name":"Uncletopia | Warsaw | 4 | All Maps","name_short":"waw-4","host":"waw-1.pl.uncletopia.com","port":27045,"enabled":true,"region":"eu","cc":"pl","latitude":52.2297,"longitude":21.017532,"reserved":0,"last_update":"0001-01-01T00:00:00Z","name_a2s":"Uncletopia | Warsaw | 4 | All Maps","protocol":17,"map":"cp_snakewater_final1","folder":"tf","game":"Team Fortress","app_id":440,"player_count":0,"max_players":24,"Bots":0,"server_type":"Dedicated","server_os":"Linux","password":true,"vac":true,"version":"7757534","steam_id":85568392925397853,"keywords":["cp","nocrits","nodmgspread","uncletopia"],"game_id":440,"stv_port":27046,"stv_name":"Uncletopia | Warsaw | 4 | All Maps | STV","players":null},{"server_id":53,"name":"Uncletopia | Warsaw | 5 | Stopwatch Beta","name_short":"waw-5","host":"waw-1.pl.uncletopia.com","port":27055,"enabled":true,"region":"eu","cc":"pl","latitude":52.2297,"longitude":21.017532,"reserved":0,"last_update":"0001-01-01T00:00:00Z","name_a2s":"Uncletopia | Warsaw | 5 | Stopwatch Beta","protocol":17,"map":"workshop/pl_vigil_rc9.ugc1266210012","folder":"tf","game":"Team Fortress","app_id":440,"player_count":0,"max_players":24,"Bots":0,"server_type":"Dedicated","server_os":"Linux","password":true,"vac":true,"version":"7757534","steam_id":85568392925397854,"keywords":["nocrits","nodmgspread","payload","uncletopia"],"game_id":440,"stv_port":27056,"stv_name":"Uncletopia | Warsaw | 5 | Stopwatch Beta | STV","players":null},{"server_id":54,"name":"Uncletopia | Warsaw | 6 | Community","name_short":"waw-6","host":"waw-1.pl.uncletopia.com","port":27065,"enabled":true,"region":"eu","cc":"pl","latitude":52.2297,"longitude":21.017532,"reserved":0,"last_update":"0001-01-01T00:00:00Z","name_a2s":"Uncletopia | Warsaw | 6 | Community","protocol":17,"map":"koth_lakeside_final","folder":"tf","game":"Team Fortress","app_id":440,"player_count":0,"max_players":24,"Bots":0,"server_type":"Dedicated","server_os":"Linux","password":true,"vac":true,"version":"7757534","steam_id":85568392925397856,"keywords":["cp","nocrits","nodmgspread","uncletopia"],"game_id":440,"stv_port":27066,"stv_name":"Uncletopia | Warsaw | 6 | Community | STV","players":null}]}