{"status":true,"message":"","result":[{"server_id":9,"name":"Uncletopia | Atlanta | 1 | All Maps","name_short":"atl-1","host":"atl-1.us.uncletopia.com","port":27015,"enabled":true,"region":"us-east","cc":"us","latitude":33.753746,"longitude":-84.38633,"reserved":0,"last_update":"0001-01-01T00:00:00Z","name_a2s":"Uncletopia | Atlanta | 1 | All Maps","protocol":17,"map":"koth_viaduct","folder":"tf","game":"Team Fortress","app_id":440,"player_count":0,"max_players":24,"Bots":0,"server_type":"Dedicated","server_os":"Linux","password":true,"vac":true,"version":"7757534","steam_id":85568392924469982,"keywords":["cp","nocrits","nodmgspread","uncletopia"],"game_id":440,"stv_port":27016,"stv_name":"Uncletopia | Atlanta | 1 | All Maps | STV","players":null},{"server_id":400,"name":"Uncletopia | Atlanta | 3 | Stopwatch Beta","name_short":"atl-3","host":"atl-1.us.uncletopia.com","port":27035,"enabled":true,"region":"us-east","cc":"us","latitude":33.753746,"longitude":-84.38633,"reserved":0,"last_update":"0001-01-01T00:00:00Z","name_a2s":"Uncletopia | Atlanta | 3 | Stopwatch Beta","protocol":17,"map":"koth_lakeside_final","folder":"tf","game":"Team Fortress","app_id":440,"player_count":0,"max_players":24,"Bots":0,"server_type":"Dedicated","server_os":"Linux","password":true,"vac":true,"version":"7757534","steam_id":85568392924515187,"keywords":["cp","nocrits","nodmgspread","uncletopia"],"game_id":440,"stv_port":27036,"stv_name":"Uncletopia | Atlanta | 3 | Stopwatch Beta | STV","players":null},{"server_id":401,"name":"Uncletopia | Atlanta | 4 | No Payload","name_short":"atl-4","host":"atl-1.us.uncletopia.com","port":27045,"enabled":true,"region":"us-east","cc":"us","latitude":33.753746,"longitude":-84.38633,"reserved":0,"last_update":"0001-01-01T00:00:00Z","name_a2s":"Uncletopia | Atlanta | 4 | No Payload","protocol":17,"map":"pl_pier","folder":"tf","game":"Team Fortress","app_id":440,"player_count":0,"max_players":24,"Bots":0,"server_type":"Dedicated","server_os":"Linux","password":true,"vac":true,"version":"7723704","steam_id":85568392924515188,"keywords":["nocrits","nodmgspread","payload","uncletopia"],"game_id":440,"stv_port":27046,"stv_name":"Uncletopia | Atlanta | 4 | No Payload | STV","players":null},{"server_id":2,"name":"Uncletopia | Chicago | 1 | All Maps","name_short":"chi-1","host":"chi-1.us.uncletopia.com","port":27015,"enabled":true,"region":"us-central","cc":"us","latitude":41.881832,"longitude":-87.62318,"reserved":0,"last_update":"0001-01-01T00:00:00Z","name_a2s":"Uncletopia | Chicago | 1 | All Maps","protocol":17,"map":"pl_borneo","folder":"tf","game":"Team Fortress","app_id":440,"player_count":0,"max_players":24,"Bots":0,"server_type":"Dedicated","server_os":"Linux","password":true,"vac":true,"version":"7757534","steam_id":85568392924469984,"keywords":["nocrits","nodmgspread","payload","uncletopia"],"game_id":440,"stv_port":27016,"stv_name":"Uncletopia | Chicago | 1 | All Maps | STV","players":null},{"server_id":106,"name":"Uncletopia | Chicago | 2 | All Maps","name_short":"chi-2","host":"chi-1.us.uncletopia.com","port":27025,"enabled":true,"region":"us-central","cc":"us","latitude":41.881832,"longitude":-87.62318,"reserved":0,"last_update":"0001-01-01T00:00:00Z","name_a2s":"Uncletopia | Chicago | 2 | All Maps","protocol":17,"map":"pl_snowycoast","folder":"tf","game":"Team Fortress","app_id":440,"player_count":24,"max_players":24,"Bots":0,"server_type":"Dedicated","server_os":"Linux","password":true,"vac":true,"version":"7757534","steam_id":85568392924469985,"keywords":["nocrits","nodmgspread","payload","uncletopia"],"game_id":440,"stv_port":27026,"stv_name":"Uncletopia | Chicago | 2 | All Maps | STV","players":[{"user_id":995,"name":"Spha","steam_id":76561198796297800,"connected_time":8019000000000,"state":"active","ping":91},{"user_id":996,"name":"b.net queue waiter","steam_id":76561197968787431,"connected_time":8002000000000,"state":"active","ping":95},{"user_id":1021,"name":"Ferioth","steam_id":76561197997993090,"connected_time":6647000000000,"state":"active","ping":64},{"user_id":1059,"name":"_DrunkenGibberish_","steam_id":76561199123070071,"connected_time":2447000000000,"state":"active","ping":102},{"user_id":983,"name":"admiralmonk","steam_id":76561198845021470,"connected_time":8226000000000,"state":"active","ping":55},{"user_id":1080,"name":"0","steam_id":76561198046065237,"connected_time":1331000000000,"state":"active","ping":75},{"user_id":1095,"name":"squid game","steam_id":76561199248960166,"connected_time":338000000000,"state":"active","ping":90},{"user_id":1086,"name":"Titar Industries","steam_id":76561198143078476,"connected_time":955000000000,"state":"active","ping":63},{"user_id":1081,"name":"Chuck's Feed and Seed","steam_id":76561198121955432,"connected_time":1289000000000,"state":"active","ping":68},{"user_id":1087,"name":"overgrown teakettle","steam_id":76561198059041027,"connected_time":838000000000,"state":"active","ping":116},{"user_id":1088,"name":"sand hanitizer","steam_id":76561198109625221,"connected_time":827000000000,"state":"active","ping":58},{"user_id":1024,"name":"Divio","steam_id":76561197995200088,"connected_time":6498000000000,"state":"active","ping":60},{"user_id":1089,"name":"LasagnaLary","steam_id":76561198051016438,"connected_time":761000000000,"state":"active","ping":77},{"user_id":1102,"name":"cop","steam_id":76561198077162313,"connected_time":10000000000,"state":"spawning","ping":89},{"user_id":1097,"name":"Lumen","steam_id":76561197985372319,"connected_time":139000000000,"state":"active","ping":52},{"user_id":1085,"name":"irreversible reboot","steam_id":76561198309823950,"connected_time":1183000000000,"state":"active","ping":89},{"user_id":1098,"name":"s.Twig™ [WTB Lvl. 42 Items]","steam_id":76561198070138375,"connected_time":137000000000,"state":"active","ping":53},{"user_id":1099,"name":"un-professional boy liker-er","steam_id":76561198080572759,"connected_time":96000000000,"state":"active","ping":122},{"user_id":1077,"name":"jonjonpeanut","steam_id":76561199221592165,"connected_time":1601000000000,"state":"active","ping":90},{"user_id":1100,"name":"Agus™","steam_id":76561198345753076,"connected_time":85000000000,"state":"active","ping":116},{"user_id":1079,"name":"Horny Femboy","steam_id":76561198799021060,"connected_time":1537000000000,"state":"active","ping":126},{"user_id":1093,"name":"Amogous Supreme","steam_id":76561198025476774,"connected_time":666000000000,"state":"active","ping":101},{"user_id":1101,"name":"Testosterone Dan","steam_id":76561197995058890,"connected_time":56000000000,"state":"active","ping":147},{"user_id":1078,"name":"R0","steam_id":76561198136861017,"connected_time":1575000000000,"state":"active","ping":72}]},{"server_id":402,"name":"Uncletopia | Chicago | 3 | All Maps","name_short":"chi-3","host":"chi-1.us.uncletopia.com","port":27035,"enabled":true,"region":"us-central","cc":"us","latitude":41.881832,"longitude":-87.62318,"reserved":0,"last_update":"0001-01-01T00:00:00Z","name_a2s":"Uncletopia | Chicago | 3 | All Maps","protocol":17,"map":"cp_dustbowl","folder":"tf","game":"Team Fortress","app_id":440,"player_count":0,"max_players":24,"Bots":0,"server_type":"Dedicated","server_os":"Linux","password":true,"vac":true,"version":"7757534","steam_id":85568392924515191,"keywords":["cp","nocrits","nodmgspread","uncletopia"],"game_id":440,"stv_port":27036,"stv_name":"Uncletopia | Chicago | 3 | All Maps | STV","players":null},{"server_id":403,"name":"Uncletopia | Chicago | 4 | All Maps","name_short":"chi-4","host":"chi-1.us.uncletopia.com","port":27045,"enabled":true,"region":"us-central","cc":"us","latitude":41.881832,"longitude":-87.62318,"reserved":0,"last_update":"0001-01-01T00:00:00Z","name_a2s":"Uncletopia | Chicago | 4 | All Maps","protocol":17,"map":"pl_barnblitz","folder":"tf","game":"Team Fortress","app_id":440,"player_count":25,"max_players":24,"Bots":0,"server_type":"Dedicated","server_os":"Linux","password":true,"vac":true,"version":"7757534","steam_id":85568392924515193,"keywords":["nocrits","nodmgspread","payload","uncletopia"],"game_id":440,"stv_port":27046,"stv_name":"Uncletopia | Chicago | 4 | All Maps | STV","players":[{"user_id":670,"name":"griptape","steam_id":76561198078415931,"connected_time":470000000000,"state":"active","ping":61},{"user_id":633,"name":"alexwasherefirst","steam_id":76561198846755124,"connected_time":2952000000000,"state":"active","ping":115},{"user_id":643,"name":"crouton.net","steam_id":76561198068374646,"connected_time":2629000000000,"state":"active","ping":94},{"user_id":512,"name":"NovaSc6ut","steam_id":76561198277163301,"connected_time":13241000000000,"state":"active","ping":64},{"user_id":668,"name":"yomommasabitch","steam_id":76561198323217150,"connected_time":701000000000,"state":"active","ping":60},{"user_id":647,"name":"Myracle","steam_id":76561198070916920,"connected_time":2209000000000,"state":"active","ping":45},{"user_id":657,"name":"Mani","steam_id":76561198139428711,"connected_time":1189000000000,"state":"active","ping":59},{"user_id":673,"name":"servph","steam_id":76561198138830847,"connected_time":81000000000,"state":"active","ping":865},{"user_id":644,"name":"twitch.tv/blazingin","steam_id":76561198119873148,"connected_time":2608000000000,"state":"active","ping":73},{"user_id":645,"name":"Galactamarx","steam_id":76561198028065755,"connected_time":2363000000000,"state":"active","ping":124},{"user_id":634,"name":"Joostanian","steam_id":76561198338797268,"connected_time":2934000000000,"state":"active","ping":97},{"user_id":658,"name":"Walnut","steam_id":76561198024954863,"connected_time":1163000000000,"state":"active","ping":60},{"user_id":569,"name":"kinars","steam_id":76561198857791409,"connected_time":8477000000000,"state":"active","ping":156},{"user_id":662,"name":"ChaoticAngel","steam_id":76561198293528217,"connected_time":1046000000000,"state":"active","ping":59},{"user_id":663,"name":"Mythius","steam_id":76561198401392472,"connected_time":1043000000000,"state":"active","ping":75},{"user_id":660,"name":"Bliztank | RGL.gg","steam_id":76561198019252798,"connected_time":1102000000000,"state":"active","ping":57},{"user_id":669,"name":"scrapheap","steam_id":76561198202407087,"connected_time":677000000000,"state":"active","ping":73},{"user_id":654,"name":"ccat","steam_id":76561198281773224,"connected_time":1392000000000,"state":"active","ping":97},{"user_id":661,"name":"Scunt_Bot.exe","steam_id":76561198325350546,"connected_time":1074000000000,"state":"active","ping":81},{"user_id":627,"name":"Dr.McMoon","steam_id":76561198357908422,"connected_time":3333000000000,"state":"active","ping":70},{"user_id":671,"name":"King of the birds","steam_id":76561198891152046,"connected_time":437000000000,"state":"active","ping":103},{"user_id":665,"name":"Owencr","steam_id":76561198121386522,"connected_time":972000000000,"state":"active","ping":54},{"user_id":674,"name":"Tresthebest360","steam_id":76561198965347175,"connected_time":11000000000,"state":"spawning","ping":78},{"user_id":672,"name":"Hydro","steam_id":76561198096334702,"connected_time":382000000000,"state":"active","ping":66},{"user_id":675,"name":"rlty","steam_id":76561198009395055,"connected_time":11000000000,"state":"spawning","ping":60}]},{"server_id":36,"name":"Uncletopia | Chicago | 5 | All Maps","name_short":"chi-5","host":"chi-2.us.uncletopia.com","port":27015,"enabled":true,"region":"us-central","cc":"us","latitude":41.881832,"longitude":-87.62318,"reserved":0,"last_update":"0001-01-01T00:00:00Z","name_a2s":"Uncletopia | Chicago | 5 | All Maps","protocol":17,"map":"pl_swiftwater_final1","folder":"tf","game":"Team Fortress","app_id":440,"player_count":0,"max_players":24,"Bots":0,"server_type":"Dedicated","server_os":"Linux","password":true,"vac":true,"version":"7757534","steam_id":85568392924866362,"keywords":["nocrits","nodmgspread","payload","uncletopia"],"game_id":440,"stv_port":27016,"stv_name":"Uncletopia | Chicago | 5 | All Maps | STV","players":null},{"server_id":37,"name":"Uncletopia | Chicago | 6 | All Maps","name_short":"chi-6","host":"chi-2.us.uncletopia.com","port":27025,"enabled":true,"region":"us-central","cc":"us","latitude":41.881832,"longitude":-87.62318,"reserved":0,"last_update":"0001-01-01T00:00:00Z","name_a2s":"Uncletopia | Chicago | 6 | All Maps","protocol":17,"map":"pl_borneo","folder":"tf","game":"Team Fortress","app_id":440,"player_count":23,"max_players":24,"Bots":0,"server_type":"Dedicated","server_os":"Linux","password":true,"vac":true,"version":"7757534","steam_id":85568392924866363,"keywords":["nocrits","nodmgspread","payload","uncletopia"],"game_id":440,"stv_port":27026,"stv_name":"Uncletopia | Chicago | 6 | All Maps | STV","players":[{"user_id":715,"name":"Loxic","steam_id":76561198043617388,"connected_time":2276000000000,"state":"active","ping":77},{"user_id":716,"name":"firstlastmcgee","steam_id":76561198170187989,"connected_time":2067000000000,"state":"active","ping":63},{"user_id":733,"name":"yesoko","steam_id":76561198072917024,"connected_time":640000000000,"state":"active","ping":53},{"user_id":699,"name":"shroomish enjoyer","steam_id":76561198149775502,"connected_time":3463000000000,"state":"active","ping":80},{"user_id":722,"name":"EagleEye2000","steam_id":76561198233776704,"connected_time":1660000000000,"state":"active","ping":62},{"user_id":727,"name":"Fuegan Ra","steam_id":76561198287923849,"connected_time":927000000000,"state":"active","ping":46},{"user_id":738,"name":"MisterDanny8","steam_id":76561198048847182,"connected_time":333000000000,"state":"active","ping":62},{"user_id":717,"name":"Laelaps","steam_id":76561198100061416,"connected_time":1899000000000,"state":"active","ping":70},{"user_id":740,"name":"I'm Cloaked","steam_id":76561198039763676,"connected_time":300000000000,"state":"active","ping":64},{"user_id":709,"name":"Brendan","steam_id":76561198041079914,"connected_time":2920000000000,"state":"active","ping":64},{"user_id":725,"name":"Umevol","steam_id":76561198082943489,"connected_time":1238000000000,"state":"active","ping":112},{"user_id":730,"name":"Dennis Reynolds","steam_id":76561199446865070,"connected_time":802000000000,"state":"active","ping":77},{"user_id":700,"name":"the j","steam_id":76561198257263022,"connected_time":3446000000000,"state":"active","ping":87},{"user_id":732,"name":"Thaatsovietguy","steam_id":76561199262265522,"connected_time":667000000000,"state":"active","ping":112},{"user_id":739,"name":"垃圾地精","steam_id":76561198080555859,"connected_time":328000000000,"state":"active","ping":124},{"user_id":724,"name":"Sabaman55","steam_id":76561198212267979,"connected_time":1398000000000,"state":"active","ping":66},{"user_id":734,"name":"substance","steam_id":76561198050103868,"connected_time":632000000000,"state":"active","ping":123},{"user_id":714,"name":"MrSirGent","steam_id":76561199086357213,"connected_time":2584000000000,"state":"active","ping":102},{"user_id":736,"name":"Appa","steam_id":76561198110449520,"connected_time":379000000000,"state":"active","ping":86},{"user_id":741,"name":"Captain Meth","steam_id":76561199073621650,"connected_time":174000000000,"state":"active","ping":99},{"user_id":711,"name":"YellowShade","steam_id":76561198200828527,"connected_time":2918000000000,"state":"active","ping":64},{"user_id":712,"name":"Kennyboy149","steam_id":76561198048024644,"connected_time":2915000000000,"state":"active","ping":97},{"user_id":668,"name":"moe5x","steam_id":76561198316877833,"connected_time":5344000000000,"state":"active","ping":101}]},{"server_id":38,"name":"Uncletopia | Chicago | 7 | Stopwatch Beta","name_short":"chi-7","host":"chi-2.us.uncletopia.com","port":27035,"enabled":true,"region":"us-central","cc":"us","latitude":41.881832,"longitude":-87.62318,"reserved":0,"last_update":"0001-01-01T00:00:00Z","name_a2s":"Uncletopia | Chicago | 7 | Stopwatch Beta","protocol":17,"map":"workshop/pl_barnblitz_pro7.ugc582280235","folder":"tf","game":"Team Fortress","app_id":440,"player_count":0,"max_players":24,"Bots":0,"server_type":"Dedicated","server_os":"Linux","password":true,"vac":true,"version":"7757534","steam_id":85568392924866364,"keywords":["nocrits","nodmgspread","payload","uncletopia"],"game_id":440,"stv_port":27036,"stv_name":"Uncletopia | Chicago | 7 | Stopwatch Beta | STV","players":null},{"server_id":39,"name":"Uncletopia | Chicago | 8 | Community","name_short":"chi-8","host":"chi-2.us.uncletopia.com","port":27045,"enabled":true,"region":"us-central","cc":"us","latitude":41.881832,"longitude":-87.62318,"reserved":0,"last_update":"0001-01-01T00:00:00Z","name_a2s":"Uncletopia | Chicago | 8 | Community","protocol":17,"map":"workshop/koth_slaughter_rc1.ugc1712845210","folder":"tf","game":"Team Fortress","app_id":440,"player_count":0,"max_players":24,"Bots":0,"server_type":"Dedicated","server_os":"Linux","password":true,"vac":true,"version":"7757534","steam_id":85568392924866365,"keywords":["cp","nocrits","nodmgspread","uncletopia"],"game_id":440,"stv_port":27046,"stv_name":"Uncletopia | Chicago | 8 | Community | STV","players":null},{"server_id":8,"name":"Uncletopia | Dallas | 1 | All Maps","name_short":"dal-1","host":"dal-1.us.uncletopia.com","port":27015,"enabled":true,"region":"us-central","cc":"us","latitude":32.779167,"longitude":-96.80889,"reserved":0,"last_update":"0001-01-01T00:00:00Z","name_a2s":"Uncletopia | Dallas | 1 | All Maps","protocol":17,"map":"koth_lakeside_final","folder":"tf","game":"Team Fortress","app_id":440,"player_count":0,"max_players":24,"Bots":0,"server_type":"Dedicated","server_os":"Linux","password":true,"vac":true,"version":"7757534","steam_id":85568392924469986,"keywords":["cp","nocrits","nodmgspread","uncletopia"],"game_id":440,"stv_port":27016,"stv_name":"Uncletopia | Dallas | 1 | All Maps | STV","players":null},{"server_id":108,"name":"Uncletopia | Dallas | 2 | All Maps","name_short":"dal-2","host":"dal-1.us.uncletopia.com","port":27025,"enabled":true,"region":"us-central","cc":"us","latitude":32.779167,"longitude":-96.80889,"reserved":0,"last_update":"0001-01-01T00:00:00Z","name_a2s":"Uncletopia | Dallas | 2 | All Maps","protocol":17,"map":"pl_pier","folder":"tf","game":"Team Fortress","app_id":440,"player_count":24,"max_players":24,"Bots":0,"server_type":"Dedicated","server_os":"Linux","password":true,"vac":true,"version":"7757534","steam_id":85568392924469988,"keywords":["nocrits","nodmgspread","payload","uncletopia"],"game_id":440,"stv_port":27026,"stv_name":"Uncletopia | Dallas | 2 | All Maps | STV","players":[{"user_id":550,"name":"aflyingmouse","steam_id":76561198058134934,"connected_time":259000000000,"state":"active","ping":93},{"user_id":545,"name":"Riff","steam_id":76561198066921423,"connected_time":698000000000,"state":"active","ping":63},{"user_id":532,"name":"dudeguypersonmanhombre","steam_id":76561198052016845,"connected_time":1678000000000,"state":"active","ping":74},{"user_id":467,"name":"teh mummy","steam_id":76561198044123636,"connected_time":6089000000000,"state":"active","ping":69},{"user_id":509,"name":"[Deep]GooeyGapedGrannys","steam_id":76561198089731303,"connected_time":4105000000000,"state":"active","ping":81},{"user_id":547,"name":"NotAWeeb","steam_id":76561198165530739,"connected_time":474000000000,"state":"active","ping":88},{"user_id":549,"name":"mischievouscritter01","steam_id":76561198101057741,"connected_time":326000000000,"state":"active","ping":49},{"user_id":533,"name":"TypicalGiftigTTV","steam_id":76561198170372495,"connected_time":1621000000000,"state":"active","ping":65},{"user_id":556,"name":"fever dreams","steam_id":76561198208335532,"connected_time":16000000000,"state":"spawning","ping":74},{"user_id":551,"name":"dandy","steam_id":76561197967362217,"connected_time":248000000000,"state":"active","ping":75},{"user_id":527,"name":"Sad Sapling","steam_id":76561198075612150,"connected_time":1833000000000,"state":"active","ping":83},{"user_id":535,"name":"HappyHitchhiker","steam_id":76561198080228697,"connected_time":1571000000000,"state":"active","ping":76},{"user_id":478,"name":"Zoot Suit Tom","steam_id":76561198170834958,"connected_time":5945000000000,"state":"active","ping":69},{"user_id":544,"name":"Jack from Jack in The Box","steam_id":76561199083594971,"connected_time":1211000000000,"state":"active","ping":61},{"user_id":552,"name":"john","steam_id":76561198975893232,"connected_time":243000000000,"state":"active","ping":85},{"user_id":553,"name":"Scout","steam_id":76561198149172070,"connected_time":222000000000,"state":"active","ping":39},{"user_id":537,"name":"Project_Counter","steam_id":76561198152786076,"connected_time":1541000000000,"state":"active","ping":57},{"user_id":554,"name":"Red Orbama","steam_id":76561198047002366,"connected_time":200000000000,"state":"active","ping":97},{"user_id":529,"name":"Jovyel","steam_id":76561198118777065,"connected_time":1796000000000,"state":"active","ping":57},{"user_id":555,"name":"LogicalFurret","steam_id":76561198350604657,"connected_time":132000000000,"state":"active","ping":75},{"user_id":514,"name":"Lapiz","steam_id":76561198068172102,"connected_time":3844000000000,"state":"active","ping":60},{"user_id":530,"name":"Golden Robot","steam_id":76561198149576075,"connected_time":1793000000000,"state":"active","ping":60},{"user_id":498,"name":"Megadesk","steam_id":76561198078219641,"connected_time":5034000000000,"state":"active","ping":97},{"user_id":542,"name":"Nabiiru","steam_id":76561198324423653,"connected_time":1412000000000,"state":"active","ping":78}]},{"server_id":5,"name":"Uncletopia | Frankfurt | 1 | All Maps","name_short":"frk-1","host":"frk-1.de.uncletopia.com","port":27015,"enabled":true,"region":"eu","cc":"de","latitude":50.110924,"longitude":8.682127,"reserved":0,"last_update":"0001-01-01T00:00:00Z","name_a2s":"Uncletopia | Frankfurt | 1 | All Maps","protocol":17,"map":"pl_badwater","folder":"tf","game":"Team Fortress","app_id":440,"player_count":0,"max_players":24,"Bots":0,"server_type":"Dedicated","server_os":"Linux","password":true,"vac":true,"version":"7757534","steam_id":85568392924469989,"keywords":["nocrits","nodmgspread","payload","uncletopia"],"game_id":440,"stv_port":27016,"stv_name":"Uncletopia | Frankfurt | 1 | All Maps | STV","players":null},{"server_id":110,"name":"Uncletopia | Frankfurt | 2 | All Maps","name_short":"frk-2","host":"frk-1.de.uncletopia.com","port":27025,"enabled":true,"region":"eu","cc":"de","latitude":50.110924,"longitude":8.682127,"reserved":0,"last_update":"0001-01-01T00:00:00Z","name_a2s":"Uncletopia | Frankfurt | 2 | All Maps","protocol":17,"map":"koth_viaduct","folder":"tf","game":"Team Fortress","app_id":440,"player_count":0,"max_players":24,"Bots":0,"server_type":"Dedicated","server_os":"Linux","password":true,"vac":true,"version":"7757534","steam_id":85568392924469990,"keywords":["cp","nocrits","nodmgspread","uncletopia"],"game_id":440,"stv_port":27026,"stv_name":"Uncletopia | Frankfurt | 2 | All Maps | STV","players":null},{"server_id":308,"name":"Uncletopia | Frankfurt | 3 | All Maps","name_short":"frk-3","host":"frk-1.de.uncletopia.com","port":27035,"enabled":true,"region":"eu","cc":"de","latitude":50.110924,"longitude":8.682127,"reserved":0,"last_update":"0001-01-01T00:00:00Z","name_a2s":"Uncletopia | Frankfurt | 3 | All Maps","protocol":17,"map":"pl_barnblitz","folder":"tf","game":"Team Fortress","app_id":440,"player_count":1,"max_players":24,"Bots":0,"server_type":"Dedicated","server_os":"Linux","password":true,"vac":true,"version":"7757534","steam_id":85568392924504274,"keywords":["nocrits","nodmgspread","payload","uncletopia"],"game_id":440,"stv_port":27036,"stv_name":"Uncletopia | Frankfurt | 3 | All Maps | STV","players":[{"user_id":4,"name":"JohaTG","steam_id":76561198804468284,"connected_time":26000000000,"state":"spawning","ping":62}]},{"server_id":309,"name":"Uncletopia | Frankfurt | 4 | All Maps","name_short":"frk-4","host":"frk-1.de.uncletopia.com","port":27045,"enabled":true,"region":"eu","cc":"de","latitude":50.110924,"longitude":8.682127,"reserved":0,"last_update":"0001-01-01T00:00:00Z","name_a2s":"Uncletopia | Frankfurt | 4 | All Maps","protocol":17,"map":"pl_snowycoast","folder":"tf","game":"Team Fortress","app_id":440,"player_count":0,"max_players":24,"Bots":0,"server_type":"Dedicated","server_os":"Linux","password":true,"vac":true,"version":"7757534","steam_id":85568392924504275,"keywords":["nocrits","nodmgspread","payload","uncletopia"],"game_id":440,"stv_port":27046,"stv_name":"Uncletopia | Frankfurt | 4 | All Maps | STV","players":null},{"server_id":310,"name":"Uncletopia | Frankfurt | 5 | All Maps","name_short":"frk-5","host":"frk-1.de.uncletopia.com","port":27055,"enabled":true,"region":"eu","cc":"de","latitude":50.110924,"longitude":8.682127,"reserved":0,"last_update":"0001-01-01T00:00:00Z","name_a2s":"Uncletopia | Frankfurt | 5 | All Maps","protocol":17,"map":"cp_altitude","folder":"tf","game":"Team Fortress","app_id":440,"player_count":0,"max_players":24,"Bots":0,"server_type":"Dedicated","server_os":"Linux","password":true,"vac":true,"version":"7757534","steam_id":85568392924504277,"keywords":["cp","nocrits","nodmgspread","uncletopia"],"game_id":440,"stv_port":27056,"stv_name":"Uncletopia | Frankfurt | 5 | All Maps | STV","players":null},{"server_id":311,"name":"Uncletopia | Frankfurt | 6 | All Maps","name_short":"frk-6","host":"frk-1.de.uncletopia.com","port":27065,"enabled":true,"region":"eu","cc":"de","latitude":50.110924,"longitude":8.682127,"reserved":0,"last_update":"0001-01-01T00:00:00Z","name_a2s":"Uncletopia | Frankfurt | 6 | All Maps","protocol":17,"map":"koth_highpass","folder":"tf","game":"Team Fortress","app_id":440,"player_count":0,"max_players":24,"Bots":0,"server_type":"Dedicated","server_os":"Linux","password":true,"vac":true,"version":"7757534","steam_id":85568392924504278,"keywords":["cp","nocrits","nodmgspread","uncletopia"],"game_id":440,"stv_port":27066,"stv_name":"Uncletopia | Frankfurt | 6 | All Maps | STV","players":null},{"server_id":23,"name":"Uncletopia | Frankfurt | 7 | Stopwatch Beta","name_short":"frk-7","host":"frk-1.de.uncletopia.com","port":27075,"enabled":true,"region":"eu","cc":"de","latitude":50.110924,"longitude":8.682127,"reserved":0,"last_update":"0001-01-01T00:00:00Z","name_a2s":"Uncletopia | Frankfurt | 7 | Stopwatch Beta","protocol":17,"map":"pl_borneo","folder":"tf","game":"Team Fortress","app_id":440,"player_count":0,"max_players":24,"Bots":0,"server_type":"Dedicated","server_os":"Linux","password":true,"vac":true,"version":"7757534","steam_id":85568392924742827,"keywords":["nocrits","nodmgspread","payload","uncletopia"],"game_id":440,"stv_port":27076,"stv_name":"Uncletopia | Frankfurt | 7 | Stopwatch Beta | STV","players":null},{"server_id":24,"name":"Uncletopia | Frankfurt | 8 | Community","name_short":"frk-8","host":"frk-1.de.uncletopia.com","port":27085,"enabled":true,"region":"eu","cc":"de","latitude":50.110924,"longitude":8.682127,"reserved":0,"last_update":"0001-01-01T00:00:00Z","name_a2s":"Uncletopia | Frankfurt | 8 | Community","protocol":17,"map":"workshop/pl_fifthcurve_rc1.ugc648227046","folder":"tf","game":"Team Fortress","app_id":440,"player_count":0,"max_players":24,"Bots":0,"server_type":"Dedicated","server_os":"Linux","password":true,"vac":true,"version":"7757534","steam_id":85568392924742828,"keywords":["nocrits","nodmgspread","payload","uncletopia"],"game_id":440,"stv_port":27086,"stv_name":"Uncletopia | Frankfurt | 8 | Community | STV","players":null},{"server_id":202,"name":"Uncletopia | Hong Kong | 1 | All Maps","name_short":"hgk-1","host":"hgk-1.hk.uncletopia.com","port":27015,"enabled":true,"region":"asia","cc":"hk","latitude":22.302711,"longitude":114.177216,"reserved":0,"last_update":"0001-01-01T00:00:00Z","name_a2s":"Uncletopia | Hong Kong | 1 | All Maps","protocol":17,"map":"koth_viaduct","folder":"tf","game":"Team Fortress","app_id":440,"player_count":24,"max_players":24,"Bots":0,"server_type":"Dedicated","server_os":"Linux","password":true,"vac":true,"version":"7757534","steam_id":85568392924494504,"keywords":["cp","nocrits","nodmgspread","uncletopia"],"game_id":440,"stv_port":27016,"stv_name":"Uncletopia | Hong Kong | 1 | All Maps | STV","players":[{"user_id":200,"name":"caramelCase","steam_id":76561198871689972,"connected_time":3164000000000,"state":"active","ping":150},{"user_id":27,"name":"Noyour","steam_id":76561198323259830,"connected_time":15074000000000,"state":"active","ping":118},{"user_id":251,"name":"Puddin","steam_id":76561198140052918,"connected_time":1396000000000,"state":"active","ping":97},{"user_id":207,"name":"greeny the dawg","steam_id":76561198024666371,"connected_time":2592000000000,"state":"active","ping":92},{"user_id":284,"name":"jiren","steam_id":76561198866884809,"connected_time":423000000000,"state":"active","ping":120},{"user_id":98,"name":"A Toilet","steam_id":76561198148278657,"connected_time":8817000000000,"state":"active","ping":149},{"user_id":285,"name":"John8coming(F2p)","steam_id":76561199253868230,"connected_time":347000000000,"state":"active","ping":83},{"user_id":277,"name":"Dropoutクマ","steam_id":76561199092455646,"connected_time":733000000000,"state":"active","ping":85},{"user_id":41,"name":"煙海 | Enkai","steam_id":76561198050460825,"connected_time":13598000000000,"state":"active","ping":77},{"user_id":142,"name":"Tokuyu","steam_id":76561198296752777,"connected_time":4882000000000,"state":"active","ping":184},{"user_id":208,"name":"Urotsuki","steam_id":76561198074339034,"connected_time":2492000000000,"state":"active","ping":76},{"user_id":221,"name":"why wont my gun shoot?","steam_id":76561199249938987,"connected_time":1908000000000,"state":"active","ping":43},{"user_id":141,"name":"Cá Tháng 4","steam_id":76561198047162026,"connected_time":4902000000000,"state":"active","ping":79},{"user_id":274,"name":"misttry2","steam_id":76561199382679347,"connected_time":788000000000,"state":"active","ping":123},{"user_id":247,"name":"Cerulean","steam_id":76561199176033720,"connected_time":1437000000000,"state":"active","ping":88},{"user_id":279,"name":"変態の神","steam_id":76561199017344476,"connected_time":729000000000,"state":"active","ping":99},{"user_id":127,"name":"Michael Scott","steam_id":76561198023082794,"connected_time":6162000000000,"state":"active","ping":56},{"user_id":287,"name":"vielvladimir","steam_id":76561198170299341,"connected_time":193000000000,"state":"active","ping":152},{"user_id":192,"name":"IDontLaunder","steam_id":76561199103223706,"connected_time":3762000000000,"state":"active","ping":172},{"user_id":238,"name":"帕","steam_id":76561198439343999,"connected_time":1565000000000,"state":"active","ping":70},{"user_id":281,"name":"Pyro","steam_id":76561197997710008,"connected_time":607000000000,"state":"active","ping":46},{"user_id":126,"name":"Beef Wellington","steam_id":76561197995635241,"connected_time":6301000000000,"state":"active","ping":117},{"user_id":56,"name":"uptriste","steam_id":76561198158666692,"connected_time":12683000000000,"state":"active","ping":46},{"user_id":282,"name":"「❈」MeLee","steam_id":76561199227871384,"connected_time":512000000000,"state":"active","ping":54}]},{"server_id":1,"name":"Uncletopia | Los Angeles | 1 | All Maps","name_short":"lax-1","host":"lax-1.us.uncletopia.com","port":27015,"enabled":true,"region":"us-west","cc":"us","latitude":33.94279,"longitude":-118.41004,"reserved":0,"last_update":"0001-01-01T00:00:00Z","name_a2s":"Uncletopia | Los Angeles | 1 | All Maps","protocol":17,"map":"pl_swiftwater_final1","folder":"tf","game":"Team Fortress","app_id":440,"player_count":0,"max_players":24,"Bots":0,"server_type":"Dedicated","server_os":"Linux","password":true,"vac":true,"version":"7757534","steam_id":85568392924469991,"keywords":["nocrits","nodmgspread","payload","uncletopia"],"game_id":440,"stv_port":27016,"stv_name":"Uncletopia | Los Angeles | 1 | All Maps | STV","players":null},{"server_id":112,"name":"Uncletopia | Los Angeles | 2 | All Maps","name_short":"lax-2","host":"lax-1.us.uncletopia.com","port":27025,"enabled":true,"region":"us-west","cc":"us","latitude":33.94279,"longitude":-118.41004,"reserved":0,"last_update":"0001-01-01T00:00:00Z","name_a2s":"Uncletopia | Los Angeles | 2 | All Maps","protocol":17,"map":"koth_cascade","folder":"tf","game":"Team Fortress","app_id":440,"player_count":0,"max_players":24,"Bots":0,"server_type":"Dedicated","server_os":"Linux","password":true,"vac":true,"version":"7757534","steam_id":85568392924469992,"keywords":["cp","nocrits","nodmgspread","uncletopia"],"game_id":440,"stv_port":27026,"stv_name":"Uncletopia | Los Angeles | 2 | All Maps | STV","players":null},{"server_id":324,"name":"Uncletopia | Los Angeles | 3 | All Maps","name_short":"lax-3","host":"lax-1.us.uncletopia.com","port":27035,"enabled":true,"region":"us-west","cc":"us","latitude":33.94279,"longitude":-118.41004,"reserved":0,"last_update":"0001-01-01T00:00:00Z","name_a2s":"Uncletopia | Los Angeles | 3 | All Maps","protocol":17,"map":"koth_highpass","folder":"tf","game":"Team Fortress","app_id":440,"player_count":0,"max_players":24,"Bots":0,"server_type":"Dedicated","server_os":"Linux","password":true,"vac":true,"version":"7757534","steam_id":85568392924510198,"keywords":["cp","nocrits","nodmgspread","uncletopia"],"game_id":440,"stv_port":27036,"stv_name":"Uncletopia | Los Angeles | 3 | All Maps | STV","players":null},{"server_id":25,"name":"Uncletopia | Los Angeles | 4 | Stopwatch Beta","name_short":"lax-4","host":"lax-1.us.uncletopia.com","port":27045,"enabled":true,"region":"us-west","cc":"us","latitude":33.94279,"longitude":-118.41004,"reserved":0,"last_update":"0001-01-01T00:00:00Z","name_a2s":"Uncletopia | Los Angeles | 4 | Stopwatch Beta","protocol":17,"map":"koth_viaduct","folder":"tf","game":"Team Fortress","app_id":440,"player_count":0,"max_players":24,"Bots":0,"server_type":"Dedicated","server_os":"Linux","password":true,"vac":true,"version":"7757534","steam_id":85568392924510199,"keywords":["cp","nocrits","nodmgspread","uncletopia"],"game_id":440,"stv_port":27046,"stv_name":"Uncletopia | Los Angeles | 4 | Stopwatch Beta | STV","players":null},{"server_id":11,"name":"Uncletopia | London | 1 | All Maps","name_short":"lon-1","host":"lon-1.uk.uncletopia.com","port":27015,"enabled":true,"region":"eu","cc":"gb","latitude":51.509865,"longitude":-0.118092,"reserved":0,"last_update":"0001-01-01T00:00:00Z","name_a2s":"Uncletopia | London | 1 | All Maps","protocol":17,"map":"pl_pier","folder":"tf","game":"Team Fortress","app_id":440,"player_count":0,"max_players":24,"Bots":0,"server_type":"Dedicated","server_os":"Linux","password":true,"vac":true,"version":"7757534","steam_id":85568392924367362,"keywords":["nocrits","nodmgspread","payload","uncletopia"],"game_id":440,"stv_port":27016,"stv_name":"Uncletopia | London | 1 | All Maps | STV","players":null},{"server_id":114,"name":"Uncletopia | London | 2 | All Maps","name_short":"lon-2","host":"lon-1.uk.uncletopia.com","port":27025,"enabled":true,"region":"eu","cc":"gb","latitude":51.509865,"longitude":-0.118092,"reserved":0,"last_update":"0001-01-01T00:00:00Z","name_a2s":"Uncletopia | London | 2 | All Maps","protocol":17,"map":"pl_borneo","folder":"tf","game":"Team Fortress","app_id":440,"player_count":10,"max_players":24,"Bots":0,"server_type":"Dedicated","server_os":"Linux","password":true,"vac":true,"version":"7757534","steam_id":85568392924470941,"keywords":["nocrits","nodmgspread","payload","uncletopia"],"game_id":440,"stv_port":27026,"stv_name":"Uncletopia | London | 2 | All Maps | STV","players":[{"user_id":4,"name":"Robotomatique","steam_id":76561198354793952,"connected_time":1815000000000,"state":"active","ping":52},{"user_id":6,"name":"Silungar","steam_id":76561199043530432,"connected_time":738000000000,"state":"active","ping":57},{"user_id":12,"name":"lazoboy","steam_id":76561199074095198,"connected_time":78000000000,"state":"active","ping":116},{"user_id":8,"name":"$b","steam_id":76561198118412910,"connected_time":605000000000,"state":"active","ping":59},{"user_id":13,"name":"[OC]Vakeron","steam_id":76561198035463159,"connected_time":42000000000,"state":"spawning","ping":93},{"user_id":10,"name":"GrimR","steam_id":76561198056149138,"connected_time":311000000000,"state":"active","ping":64},{"user_id":11,"name":"Deva Path","steam_id":76561198085763542,"connected_time":287000000000,"state":"active","ping":78},{"user_id":14,"name":"SunZi","steam_id":76561198139243535,"connected_time":35000000000,"state":"active","ping":79},{"user_id":15,"name":"Stepoface","steam_id":76561198091569863,"connected_time":29000000000,"state":"active","ping":61},{"user_id":16,"name":"Brisket Billy","steam_id":76561198022863333,"connected_time":18000000000,"state":"active","ping":54}]},{"server_id":320,"name":"Uncletopia | London | 3 | All Maps","name_short":"lon-3","host":"lon-1.uk.uncletopia.com","port":27035,"enabled":true,"region":"eu","cc":"gb","latitude":51.509865,"longitude":-0.118092,"reserved":0,"last_update":"0001-01-01T00:00:00Z","name_a2s":"Uncletopia | London | 3 | All Maps","protocol":17,"map":"koth_highpass","folder":"tf","game":"Team Fortress","app_id":440,"player_count":0,"max_players":24,"Bots":0,"server_type":"Dedicated","server_os":"Linux","password":true,"vac":true,"version":"7757534","steam_id":85568392924510192,"keywords":["cp","nocrits","nodmgspread","uncletopia"],"game_id":440,"stv_port":27036,"stv_name":"Uncletopia | London | 3 | All Maps | STV","players":null},{"server_id":321,"name":"Uncletopia | London | 4 | All Maps","name_short":"lon-4","host":"lon-1.uk.uncletopia.com","port":27045,"enabled":true,"region":"eu","cc":"gb","latitude":51.509865,"longitude":-0.118092,"reserved":0,"last_update":"0001-01-01T00:00:00Z","name_a2s":"Uncletopia | London | 4 | All Maps","protocol":17,"map":"cp_snakewater_final1","folder":"tf","game":"Team Fortress","app_id":440,"player_count":0,"max_players":24,"Bots":0,"server_type":"Dedicated","server_os":"Linux","password":true,"vac":true,"version":"7757534","steam_id":85568392924510193,"keywords":["cp","nocrits","nodmgspread","uncletopia"],"game_id":440,"stv_port":27046,"stv_name":"Uncletopia | London | 4 | All Maps | STV","players":null},{"server_id":21,"name":"Uncletopia | London | 5 | All Maps","name_short":"lon-5","host":"lon-1.uk.uncletopia.com","port":27055,"enabled":true,"region":"eu","cc":"gb","latitude":51.509865,"longitude":-0.118092,"reserved":0,"last_update":"0001-01-01T00:00:00Z","name_a2s":"Uncletopia | London | 5 | All Maps","protocol":17,"map":"pl_snowycoast","folder":"tf","game":"Team Fortress","app_id":440,"player_count":0,"max_players":24,"Bots":0,"server_type":"Dedicated","server_os":"Linux","password":true,"vac":true,"version":"7757534","steam_id":85568392924742829,"keywords":["nocrits","nodmgspread","payload","uncletopia"],"game_id":440,"stv_port":27056,"stv_name":"Uncletopia | London | 5 | All Maps | STV","players":null},{"server_id":22,"name":"Uncletopia | London | 6 | All Maps","name_short":"lon-6","host":"lon-1.uk.uncletopia.com","port":27065,"enabled":true,"region":"eu","cc":"gb","latitude":51.509865,"longitude":-0.118092,"reserved":0,"last_update":"0001-01-01T00:00:00Z","name_a2s":"Uncletopia | London | 6 | All Maps","protocol":17,"map":"pl_barnblitz","folder":"tf","game":"Team Fortress","app_id":440,"player_count":24,"max_players":24,"Bots":0,"server_type":"Dedicated","server_os":"Linux","password":true,"vac":true,"version":"7757534","steam_id":85568392924742830,"keywords":["nocrits","nodmgspread","payload","uncletopia"],"game_id":440,"stv_port":27066,"stv_name":"Uncletopia | London | 6 | All Maps | STV","players":[{"user_id":119,"name":"tactical783","steam_id":76561199051688560,"connected_time":2135000000000,"state":"active","ping":68},{"user_id":129,"name":"lime scout kingpin","steam_id":76561198064878900,"connected_time":885000000000,"state":"active","ping":74},{"user_id":115,"name":"frosty.","steam_id":76561198822290056,"connected_time":2629000000000,"state":"active","ping":117},{"user_id":71,"name":"Sir Kiops","steam_id":76561198022769275,"connected_time":4352000000000,"state":"active","ping":157},{"user_id":60,"name":"MEDENJOYER","steam_id":76561198180361759,"connected_time":5594000000000,"state":"active","ping":58},{"user_id":93,"name":"MRLOLENO","steam_id":76561198450911838,"connected_time":3237000000000,"state":"active","ping":66},{"user_id":131,"name":"sriracha..","steam_id":76561198005560221,"connected_time":862000000000,"state":"active","ping":77},{"user_id":62,"name":"Asda","steam_id":76561198210348121,"connected_time":5547000000000,"state":"active","ping":61},{"user_id":120,"name":"Level 25 Magician","steam_id":76561198024337173,"connected_time":2083000000000,"state":"active","ping":74},{"user_id":117,"name":"Sonder","steam_id":76561198115893794,"connected_time":2591000000000,"state":"active","ping":84},{"user_id":126,"name":"cop killer","steam_id":76561198039966198,"connected_time":905000000000,"state":"active","ping":71},{"user_id":136,"name":"GMsU | Rebikas","steam_id":76561198077053764,"connected_time":219000000000,"state":"active","ping":54},{"user_id":106,"name":"ugly","steam_id":76561199050412617,"connected_time":2986000000000,"state":"active","ping":135},{"user_id":39,"name":"minn","steam_id":76561198099101232,"connected_time":6805000000000,"state":"active","ping":79},{"user_id":135,"name":"MeBandae","steam_id":76561198910770432,"connected_time":600000000000,"state":"active","ping":88},{"user_id":121,"name":"Zerfesh","steam_id":76561198117534358,"connected_time":977000000000,"state":"active","ping":94},{"user_id":111,"name":"MINI CRIT!999","steam_id":76561198027649268,"connected_time":2831000000000,"state":"active","ping":179},{"user_id":118,"name":"Mraptkibbles","steam_id":76561198874227493,"connected_time":2564000000000,"state":"active","ping":118},{"user_id":128,"name":"Potato","steam_id":76561198883934935,"connected_time":903000000000,"state":"active","ping":79},{"user_id":95,"name":"Aspect","steam_id":76561198238625372,"connected_time":3216000000000,"state":"active","ping":71},{"user_id":100,"name":"1ostSou1","steam_id":76561199316324276,"connected_time":3148000000000,"state":"active","ping":106},{"user_id":133,"name":"IxDo","steam_id":76561198012595595,"connected_time":846000000000,"state":"active","ping":62},{"user_id":108,"name":"theblackfire","steam_id":76561198883641136,"connected_time":2975000000000,"state":"active","ping":96},{"user_id":65,"name":"Tickle_Tipson","steam_id":76561198237603082,"connected_time":5243000000000,"state":"active","ping":98}]},{"server_id":40,"name":"Uncletopia | London | 7 | No Payload","name_short":"lon-7","host":"lon-1.uk.uncletopia.com","port":27075,"enabled":true,"region":"eu","cc":"gb","latitude":51.509865,"longitude":-0.118092,"reserved":0,"last_update":"0001-01-01T00:00:00Z","name_a2s":"Uncletopia | London | 7 | No Payload","protocol":17,"map":"pl_upward","folder":"tf","game":"Team Fortress","app_id":440,"player_count":1,"max_players":24,"Bots":0,"server_type":"Dedicated","server_os":"Linux","password":true,"vac":true,"version":"7757534","steam_id":85568392924964314,"keywords":["nocrits","nodmgspread","payload","uncletopia"],"game_id":440,"stv_port":27076,"stv_name":"Uncletopia | London | 7 | No Payload | STV","players":[{"user_id":7,"name":"autistic luigi","steam_id":76561199218285040,"connected_time":319000000000,"state":"active","ping":92}]},{"server_id":41,"name":"Uncletopia | London | 8 | Community","name_short":"lon-8","host":"lon-1.uk.uncletopia.com","port":27085,"enabled":true,"region":"eu","cc":"gb","latitude":51.509865,"longitude":-0.118092,"reserved":0,"last_update":"0001-01-01T00:00:00Z","name_a2s":"Uncletopia | London | 8 | Community","protocol":17,"map":"cp_snakewater_final1","folder":"tf","game":"Team Fortress","app_id":440,"player_count":0,"max_players":24,"Bots":0,"server_type":"Dedicated","server_os":"Linux","password":true,"vac":true,"version":"7757534","steam_id":85568392924964315,"keywords":["cp","nocrits","nodmgspread","uncletopia"],"game_id":440,"stv_port":27086,"stv_name":"Uncletopia | London | 8 | Community | STV","players":null},{"server_id":300,"name":"Uncletopia | Montréal | 1 | All Maps","name_short":"mtl-1","host":"mtl-1.ca.uncletopia.com","port":27015,"enabled":true,"region":"us-east","cc":"ca","latitude":45.50889,"longitude":-73.56167,"reserved":0,"last_update":"0001-01-01T00:00:00Z","name_a2s":"Uncletopia | Montréal | 1 | All Maps","protocol":17,"map":"koth_highpass","folder":"tf","game":"Team Fortress","app_id":440,"player_count":0,"max_players":24,"Bots":0,"server_type":"Dedicated","server_os":"Linux","password":true,"vac":true,"version":"7757534","steam_id":85568392924500087,"keywords":["cp","nocrits","nodmgspread","uncletopia"],"game_id":440,"stv_port":27016,"stv_name":"Uncletopia | Montréal | 1 | All Maps | STV","players":null},{"server_id":301,"name":"Uncletopia | Montréal | 2 | All Maps","name_short":"mtl-2","host":"mtl-1.ca.uncletopia.com","port":27025,"enabled":true,"region":"us-east","cc":"ca","latitude":45.50889,"longitude":-73.56167,"reserved":0,"last_update":"0001-01-01T00:00:00Z","name_a2s":"Uncletopia | Montréal | 2 | All Maps","protocol":17,"map":"cp_altitude","folder":"tf","game":"Team Fortress","app_id":440,"player_count":0,"max_players":24,"Bots":0,"server_type":"Dedicated","server_os":"Linux","password":true,"vac":true,"version":"7757534","steam_id":85568392924500088,"keywords":["cp","nocrits","nodmgspread","uncletopia"],"game_id":440,"stv_port":27026,"stv_name":"Uncletopia | Montréal | 2 | All Maps | STV","players":null},{"server_id":302,"name":"Uncletopia | Montréal | 3 | All Maps","name_short":"mtl-3","host":"mtl-1.ca.uncletopia.com","port":27035,"enabled":true,"region":"us-east","cc":"ca","latitude":45.50889,"longitude":-73.56167,"reserved":0,"last_update":"0001-01-01T00:00:00Z","name_a2s":"Uncletopia | Montréal | 3 | All Maps","protocol":17,"map":"koth_viaduct","folder":"tf","game":"Team Fortress","app_id":440,"player_count":0,"max_players":24,"Bots":0,"server_type":"Dedicated","server_os":"Linux","password":true,"vac":true,"version":"7757534","steam_id":85568392924500089,"keywords":["cp","nocrits","nodmgspread","uncletopia"],"game_id":440,"stv_port":27036,"stv_name":"Uncletopia | Montréal | 3 | All Maps | STV","players":null},{"server_id":303,"name":"Uncletopia | Montréal | 4 | No Payload","name_short":"mtl-4","host":"mtl-1.ca.uncletopia.com","port":27045,"enabled":true,"region":"us-east","cc":"ca","latitude":45.50889,"longitude":-73.56167,"reserved":0,"last_update":"0001-01-01T00:00:00Z","name_a2s":"Uncletopia | Montréal | 4 | No Payload","protocol":17,"map":"koth_lakeside_final","folder":"tf","game":"Team Fortress","app_id":440,"player_count":0,"max_players":24,"Bots":0,"server_type":"Dedicated","server_os":"Linux","password":true,"vac":true,"version":"7757534","steam_id":85568392924500090,"keywords":["cp","nocrits","nodmgspread","uncletopia"],"game_id":440,"stv_port":27046,"stv_name":"Uncletopia | Montréal | 4 | No Payload | STV","players":null},{"server_id":13,"name":"Uncletopia | New York City | 1 | All Maps","name_short":"nyc-1","host":"nyc-1.us.uncletopia.com","port":27015,"enabled":true,"region":"us-east","cc":"us","latitude":40.73061,"longitude":-73.93524,"reserved":0,"last_update":"0001-01-01T00:00:00Z","name_a2s":"Uncletopia | New York City | 1 | All Maps","protocol":17,"map":"pl_snowycoast","folder":"tf","game":"Team Fortress","app_id":440,"player_count":0,"max_players":24,"Bots":0,"server_type":"Dedicated","server_os":"Linux","password":true,"vac":true,"version":"7757534","steam_id":85568392924469993,"keywords":["nocrits","nodmgspread","payload","uncletopia"],"game_id":440,"stv_port":27016,"stv_name":"Uncletopia | New York City | 1 | All Maps | STV","players":null},{"server_id":14,"name":"Uncletopia | New York City | 2 | All Maps","name_short":"nyc-2","host":"nyc-1.us.uncletopia.com","port":27025,"enabled":true,"region":"us-east","cc":"us","latitude":40.73061,"longitude":-73.93524,"reserved":0,"last_update":"0001-01-01T00:00:00Z","name_a2s":"Uncletopia | New York City | 2 | All Maps","protocol":17,"map":"koth_cascade","folder":"tf","game":"Team Fortress","app_id":440,"player_count":0,"max_players":24,"Bots":0,"server_type":"Dedicated","server_os":"Linux","password":true,"vac":true,"version":"7757534","steam_id":85568392924469994,"keywords":["cp","nocrits","nodmgspread","uncletopia"],"game_id":440,"stv_port":27026,"stv_name":"Uncletopia | New York City | 2 | All Maps | STV","players":null},{"server_id":15,"name":"Uncletopia | New York City | 3 | Stopwatch Beta","name_short":"nyc-3","host":"nyc-1.us.uncletopia.com","port":27035,"enabled":true,"region":"us-east","cc":"us","latitude":40.73061,"longitude":-73.93524,"reserved":0,"last_update":"0001-01-01T00:00:00Z","name_a2s":"Uncletopia | New York City | 3 | Stopwatch Beta","protocol":17,"map":"workshop/koth_product_final.ugc454272353","folder":"tf","game":"Team Fortress","app_id":440,"player_count":0,"max_players":24,"Bots":0,"server_type":"Dedicated","server_os":"Linux","password":true,"vac":true,"version":"7757534","steam_id":85568392924742820,"keywords":["cp","nocrits","nodmgspread","uncletopia"],"game_id":440,"stv_port":27036,"stv_name":"Uncletopia | New York City | 3 | Stopwatch Beta | STV","players":null},{"server_id":16,"name":"Uncletopia | New York City | 4 | Community","name_short":"nyc-4","host":"nyc-1.us.uncletopia.com","port":27045,"enabled":true,"region":"us-east","cc":"us","latitude":40.73061,"longitude":-73.93524,"reserved":0,"last_update":"0001-01-01T00:00:00Z","name_a2s":"Uncletopia | New York City | 4 | Community","protocol":17,"map":"workshop/koth_synthetic_rc6a.ugc1549817316","folder":"tf","game":"Team Fortress","app_id":440,"player_count":0,"max_players":24,"Bots":0,"server_type":"Dedicated","server_os":"Linux","password":true,"vac":true,"version":"7757534","steam_id":85568392924742821,"keywords":["cp","nocrits","nodmgspread","uncletopia"],"game_id":440,"stv_port":27046,"stv_name":"Uncletopia | New York City | 4 | Community | STV","players":null},{"server_id":142,"name":"Uncletopia | São Paulo | 1 | All Maps","name_short":"sao-1","host":"sao-1.br.uncletopia.com","port":27015,"enabled":true,"region":"sa","cc":"br","latitude":-23.533773,"longitude":-46.62529,"reserved":0,"last_update":"0001-01-01T00:00:00Z","name_a2s":"Uncletopia | São Paulo | 1 | All Maps","protocol":17,"map":"koth_cascade","folder":"tf","game":"Team Fortress","app_id":440,"player_count":0,"max_players":24,"Bots":0,"server_type":"Dedicated","server_os":"Linux","password":true,"vac":true,"version":"7757534","steam_id":85568392924469996,"keywords":["cp","nocrits","nodmgspread","uncletopia"],"game_id":440,"stv_port":27016,"stv_name":"Uncletopia | São Paulo | 1 | All Maps | STV","players":null},{"server_id":143,"name":"Uncletopia | São Paulo | 2 | All Maps","name_short":"sao-2","host":"sao-2.br.uncletopia.com","port":27015,"enabled":true,"region":"sa","cc":"br","latitude":-23.533773,"longitude":-46.62529,"reserved":0,"last_update":"0001-01-01T00:00:00Z","name_a2s":"Uncletopia | São Paulo | 2 | All Maps","protocol":17,"map":"koth_cascade","folder":"tf","game":"Team Fortress","app_id":440,"player_count":0,"max_players":24,"Bots":0,"server_type":"Dedicated","server_os":"Linux","password":true,"vac":true,"version":"7757534","steam_id":85568392924485349,"keywords":["cp","nocrits","nodmgspread","uncletopia"],"game_id":440,"stv_port":27016,"stv_name":"Uncletopia | São Paulo | 2 | All Maps | STV","players":null},{"server_id":7,"name":"Uncletopia | Seattle | 1 | All Maps","name_short":"sea-1","host":"sea-1.us.uncletopia.com","port":27015,"enabled":true,"region":"us-west","cc":"us","latitude":47.608013,"longitude":-122.33517,"reserved":0,"last_update":"0001-01-01T00:00:00Z","name_a2s":"Uncletopia | Seattle | 1 | All Maps","protocol":17,"map":"pl_badwater","folder":"tf","game":"Team Fortress","app_id":440,"player_count":24,"max_players":24,"Bots":0,"server_type":"Dedicated","server_os":"Linux","password":true,"vac":true,"version":"7757534","steam_id":85568392924469997,"keywords":["nocrits","nodmgspread","payload","uncletopia"],"game_id":440,"stv_port":27016,"stv_name":"Uncletopia | Seattle | 1 | All Maps | STV","players":[{"user_id":765,"name":"rat gets the cheese","steam_id":76561198031234032,"connected_time":9911000000000,"state":"active","ping":104},{"user_id":833,"name":"p9 jorts","steam_id":76561199041179985,"connected_time":1958000000000,"state":"active","ping":65},{"user_id":817,"name":"PopcornNinja101","steam_id":76561198330680181,"connected_time":3819000000000,"state":"active","ping":57},{"user_id":831,"name":"Julien","steam_id":76561199389584938,"connected_time":2078000000000,"state":"active","ping":40},{"user_id":781,"name":"joseph smith's tradwife","steam_id":76561198325306660,"connected_time":9286000000000,"state":"active","ping":57},{"user_id":836,"name":"Robloxdude4443","steam_id":76561198399370940,"connected_time":935000000000,"state":"active","ping":87},{"user_id":655,"name":"Level 99 Mudcrab","steam_id":76561198077452771,"connected_time":21868000000000,"state":"active","ping":57},{"user_id":825,"name":"the them","steam_id":76561198082922382,"connected_time":2477000000000,"state":"active","ping":82},{"user_id":818,"name":"Koyota","steam_id":76561198069878114,"connected_time":3748000000000,"state":"active","ping":76},{"user_id":838,"name":"delight","steam_id":76561197980280272,"connected_time":930000000000,"state":"active","ping":48},{"user_id":841,"name":"Callahan","steam_id":76561197976928457,"connected_time":151000000000,"state":"active","ping":59},{"user_id":785,"name":"rorywashere /ᐠ - ˕ -マ Ⳋ","steam_id":76561198065825165,"connected_time":9099000000000,"state":"active","ping":109},{"user_id":819,"name":"Lapras Lazuli","steam_id":76561198086995944,"connected_time":3715000000000,"state":"active","ping":64},{"user_id":808,"name":"gorlab","steam_id":76561198025089694,"connected_time":5559000000000,"state":"active","ping":73},{"user_id":814,"name":"big car","steam_id":76561198067082350,"connected_time":4260000000000,"state":"active","ping":82},{"user_id":810,"name":"\u003c3","steam_id":76561198196829267,"connected_time":5138000000000,"state":"active","ping":75},{"user_id":839,"name":"ice cream (冰淇淋)","steam_id":76561198976530881,"connected_time":929000000000,"state":"active","ping":67},{"user_id":822,"name":"The Population of Sweden","steam_id":76561198202201644,"connected_time":3615000000000,"state":"active","ping":42},{"user_id":824,"name":"ʀ.ꕤ｡.","steam_id":76561198029580420,"connected_time":2590000000000,"state":"active","ping":170},{"user_id":827,"name":"p9 Doctor™","steam_id":76561198134309750,"connected_time":2110000000000,"state":"active","ping":110},{"user_id":840,"name":"Hifumi Togo","steam_id":76561198074930636,"connected_time":902000000000,"state":"active","ping":93},{"user_id":823,"name":"façade","steam_id":76561199157009256,"connected_time":2604000000000,"state":"active","ping":68},{"user_id":828,"name":"jmsssss","steam_id":76561198122043365,"connected_time":2104000000000,"state":"active","ping":171},{"user_id":835,"name":"shane","steam_id":76561198060491451,"connected_time":1057000000000,"state":"active","ping":92}]},{"server_id":119,"name":"Uncletopia | Seattle | 2 | All Maps","name_short":"sea-2","host":"sea-1.us.uncletopia.com","port":27025,"enabled":true,"region":"us-west","cc":"us","latitude":47.608013,"longitude":-122.33517,"reserved":0,"last_update":"0001-01-01T00:00:00Z","name_a2s":"Uncletopia | Seattle | 2 | All Maps","protocol":17,"map":"koth_harvest_final","folder":"tf","game":"Team Fortress","app_id":440,"player_count":24,"max_players":24,"Bots":0,"server_type":"Dedicated","server_os":"Linux","password":true,"vac":true,"version":"7757534","steam_id":85568392924469998,"keywords":["cp","nocrits","nodmgspread","uncletopia"],"game_id":440,"stv_port":27026,"stv_name":"Uncletopia | Seattle | 2 | All Maps | STV","players":[{"user_id":409,"name":"The Engie Main","steam_id":76561198143030852,"connected_time":2109000000000,"state":"active","ping":64},{"user_id":410,"name":"Scampy","steam_id":76561198001506924,"connected_time":2083000000000,"state":"active","ping":55},{"user_id":426,"name":"Naffers","steam_id":76561198195957335,"connected_time":1374000000000,"state":"active","ping":41},{"user_id":441,"name":"North-West-","steam_id":76561198071295860,"connected_time":409000000000,"state":"active","ping":71},{"user_id":438,"name":"profile name","steam_id":76561198032625036,"connected_time":756000000000,"state":"active","ping":59},{"user_id":374,"name":"Oomitch","steam_id":76561198071702759,"connected_time":4809000000000,"state":"active","ping":54},{"user_id":413,"name":"dP | I'm in a Wookie Suit","steam_id":76561198083307644,"connected_time":1810000000000,"state":"active","ping":55},{"user_id":419,"name":"cookie","steam_id":76561197971557295,"connected_time":1486000000000,"state":"active","ping":83},{"user_id":417,"name":"Timon's high on crack cocaine!","steam_id":76561198180396430,"connected_time":1578000000000,"state":"active","ping":78},{"user_id":436,"name":"Thequirka","steam_id":76561198968058652,"connected_time":855000000000,"state":"active","ping":52},{"user_id":395,"name":"goldhed","steam_id":76561198051751133,"connected_time":3751000000000,"state":"active","ping":56},{"user_id":350,"name":"Branz","steam_id":76561198076632143,"connected_time":6654000000000,"state":"active","ping":92},{"user_id":429,"name":"mycoolcucumber","steam_id":76561198177586211,"connected_time":1136000000000,"state":"active","ping":115},{"user_id":420,"name":"Major Johnson","steam_id":76561198320929220,"connected_time":1453000000000,"state":"active","ping":75},{"user_id":421,"name":"Bubbamanme","steam_id":76561198119778504,"connected_time":1442000000000,"state":"active","ping":56},{"user_id":399,"name":"Some Dood on the Internet","steam_id":76561198054657687,"connected_time":3393000000000,"state":"active","ping":63},{"user_id":423,"name":"Yukihana","steam_id":76561198348354629,"connected_time":1425000000000,"state":"active","ping":91},{"user_id":427,"name":"The Spookster","steam_id":76561198122072252,"connected_time":1324000000000,"state":"active","ping":189},{"user_id":378,"name":"Shoggoth","steam_id":76561198117892299,"connected_time":4706000000000,"state":"active","ping":69},{"user_id":430,"name":"hart","steam_id":76561198046073848,"connected_time":1132000000000,"state":"active","ping":51},{"user_id":434,"name":"Gunboats Reliant Subhuman","steam_id":76561198046526036,"connected_time":983000000000,"state":"active","ping":79},{"user_id":402,"name":"Squatter1","steam_id":76561198078987734,"connected_time":3234000000000,"state":"active","ping":101},{"user_id":435,"name":"hotdog every meal","steam_id":76561198392514273,"connected_time":971000000000,"state":"active","ping":62},{"user_id":382,"name":"mobe","steam_id":76561198121633820,"connected_time":4540000000000,"state":"active","ping":72}]},{"server_id":406,"name":"Uncletopia | Seattle | 3 | Stopwatch Beta","name_short":"sea-3","host":"sea-1.us.uncletopia.com","port":27035,"enabled":true,"region":"us-west","cc":"us","latitude":47.608013,"longitude":-122.33517,"reserved":0,"last_update":"0001-01-01T00:00:00Z","name_a2s":"Uncletopia | Seattle | 3 | Stopwatch Beta","protocol":17,"map":"workshop/pl_summercoast_rc8e.ugc1761528829","folder":"tf","game":"Team Fortress","app_id":440,"player_count":0,"max_players":24,"Bots":0,"server_type":"Dedicated","server_os":"Linux","password":true,"vac":true,"version":"7757534","steam_id":85568392924515217,"keywords":["nocrits","nodmgspread","payload","uncletopia"],"game_id":440,"stv_port":27036,"stv_name":"Uncletopia | Seattle | 3 | Stopwatch Beta | STV","players":null},{"server_id":17,"name":"Uncletopia | San Francisco | 1 | All Maps","name_short":"sfo-1","host":"sfo-1.us.uncletopia.com","port":27015,"enabled":true,"region":"us-west","cc":"us","latitude":37.77397,"longitude":-122.4313,"reserved":0,"last_update":"0001-01-01T00:00:00Z","name_a2s":"Uncletopia | San Francisco | 1 | All Maps","protocol":17,"map":"koth_viaduct","folder":"tf","game":"Team Fortress","app_id":440,"player_count":0,"max_players":24,"Bots":0,"server_type":"Dedicated","server_os":"Linux","password":true,"vac":true,"version":"7757534","steam_id":85568392924469999,"keywords":["cp","nocrits","nodmgspread","uncletopia"],"game_id":440,"stv_port":27016,"stv_name":"Uncletopia | San Francisco | 1 | All Maps | STV","players":null},{"server_id":18,"name":"Uncletopia | San Francisco | 2 | All Maps","name_short":"sfo-2","host":"sfo-1.us.uncletopia.com","port":27025,"enabled":true,"region":"us-west","cc":"us","latitude":37.77397,"longitude":-122.4313,"reserved":0,"last_update":"0001-01-01T00:00:00Z","name_a2s":"Uncletopia | San Francisco | 2 | All Maps","protocol":17,"map":"ctf_2fort","folder":"tf","game":"Team Fortress","app_id":440,"player_count":13,"max_players":24,"Bots":0,"server_type":"Dedicated","server_os":"Linux","password":true,"vac":true,"version":"7757534","steam_id":85568392924470000,"keywords":["ctf","nocrits","nodmgspread","uncletopia"],"game_id":440,"stv_port":27026,"stv_name":"Uncletopia | San Francisco | 2 | All Maps | STV","players":[{"user_id":183,"name":"TeCon","steam_id":76561198049127236,"connected_time":2234000000000,"state":"active","ping":61},{"user_id":194,"name":"weed lesbian","steam_id":76561198042263805,"connected_time":487000000000,"state":"active","ping":65},{"user_id":195,"name":"nomocantgame","steam_id":76561198865074599,"connected_time":437000000000,"state":"active","ping":92},{"user_id":196,"name":"robertistoastyargentina","steam_id":76561198324736786,"connected_time":433000000000,"state":"active","ping":71},{"user_id":197,"name":"Magic Jack","steam_id":76561198227459488,"connected_time":327000000000,"state":"active","ping":121},{"user_id":198,"name":"{holy-miss}","steam_id":76561199444995996,"connected_time":312000000000,"state":"active","ping":227},{"user_id":199,"name":"Seriously Bruh","steam_id":76561198070408485,"connected_time":217000000000,"state":"active","ping":60},{"user_id":186,"name":"nescoceo","steam_id":76561198040801160,"connected_time":2051000000000,"state":"active","ping":60},{"user_id":177,"name":"Lord_Durango","steam_id":76561199097564514,"connected_time":2551000000000,"state":"active","ping":58},{"user_id":118,"name":"times table","steam_id":76561198341452558,"connected_time":8120000000000,"state":"active","ping":107},{"user_id":181,"name":"Flyingcat9000","steam_id":76561198179561797,"connected_time":2302000000000,"state":"active","ping":29},{"user_id":185,"name":"Courier711","steam_id":76561198053232343,"connected_time":2176000000000,"state":"active","ping":55},{"user_id":160,"name":"EatSomeBEES","steam_id":76561198047334307,"connected_time":4551000000000,"state":"active","ping":65}]},{"server_id":19,"name":"Uncletopia | San Francisco | 3 | Stopwatch Beta","name_short":"sfo-3","host":"sfo-1.us.uncletopia.com","port":27035,"enabled":true,"region":"us-west","cc":"us","latitude":37.77397,"longitude":-122.4313,"reserved":0,"last_update":"0001-01-01T00:00:00Z","name_a2s":"Uncletopia | San Francisco | 3 | Stopwatch Beta","protocol":17,"map":"workshop/pl_vigil_rc9.ugc1266210012","folder":"tf","game":"Team Fortress","app_id":440,"player_count":0,"max_players":24,"Bots":0,"server_type":"Dedicated","server_os":"Linux","password":true,"vac":true,"version":"7757534","steam_id":85568392924742824,"keywords":["nocrits","nodmgspread","payload","uncletopia"],"game_id":440,"stv_port":27036,"stv_name":"Uncletopia | San Francisco | 3 | Stopwatch Beta | STV","players":null},{"server_id":20,"name":"Uncletopia | San Francisco | 4 | Community","name_short":"sfo-4","host":"sfo-1.us.uncletopia.com","port":27045,"enabled":true,"region":"us-west","cc":"us","latitude":37.77397,"longitude":-122.4313,"reserved":0,"last_update":"0001-01-01T00:00:00Z","name_a2s":"Uncletopia | San Francisco | 4 | Community","protocol":17,"map":"workshop/koth_bagel_rc5.ugc2514036946","folder":"tf","game":"Team Fortress","app_id":440,"player_count":0,"max_players":24,"Bots":0,"server_type":"Dedicated","server_os":"Linux","password":true,"vac":true,"version":"7757534","steam_id":85568392924742826,"keywords":["cp","nocrits","nodmgspread","uncletopia"],"game_id":440,"stv_port":27046,"stv_name":"Uncletopia | San Francisco | 4 | Community | STV","players":null},{"server_id":141,"name":"Uncletopia | Sydney | 1 | All Maps","name_short":"syd-1","host":"syd-1.au.uncletopia.com","port":27015,"enabled":true,"region":"au","cc":"au","latitude":-33.865143,"longitude":151.2099,"reserved":0,"last_update":"0001-01-01T00:00:00Z","name_a2s":"Uncletopia | Sydney | 1 | All Maps","protocol":17,"map":"pl_badwater","folder":"tf","game":"Team Fortress","app_id":440,"player_count":24,"max_players":24,"Bots":0,"server_type":"Dedicated","server_os":"Linux","password":true,"vac":true,"version":"7757534","steam_id":85568392924470001,"keywords":["nocrits","nodmgspread","payload","uncletopia"],"game_id":440,"stv_port":27016,"stv_name":"Uncletopia | Sydney | 1 | All Maps | STV","players":[{"user_id":545,"name":"Eddie","steam_id":76561198081031350,"connected_time":707000000000,"state":"active","ping":45},{"user_id":559,"name":"twitch.tv/DrTreggles","steam_id":76561198042806226,"connected_time":206000000000,"state":"active","ping":81},{"user_id":521,"name":"yoga","steam_id":76561199163801558,"connected_time":1192000000000,"state":"active","ping":45},{"user_id":563,"name":"H0RIZ0N","steam_id":76561199006929134,"connected_time":35000000000,"state":"active","ping":70},{"user_id":540,"name":"n/a","steam_id":76561198355412626,"connected_time":789000000000,"state":"active","ping":100},{"user_id":535,"name":"a loaf of bread","steam_id":76561198206424961,"connected_time":993000000000,"state":"active","ping":73},{"user_id":551,"name":"Scorchinq","steam_id":76561198169423722,"connected_time":480000000000,"state":"active","ping":48},{"user_id":564,"name":"ScawyThomas","steam_id":76561199226440622,"connected_time":27000000000,"state":"active","ping":63},{"user_id":542,"name":"lolwhat","steam_id":76561199387628765,"connected_time":749000000000,"state":"active","ping":1340},{"user_id":512,"name":"Games Dean","steam_id":76561198079557901,"connected_time":1662000000000,"state":"active","ping":53},{"user_id":543,"name":"Smiffy","steam_id":76561198312414084,"connected_time":738000000000,"state":"active","ping":71},{"user_id":529,"name":"scout tf2","steam_id":76561198251386932,"connected_time":1080000000000,"state":"active","ping":77},{"user_id":565,"name":"T-10a","steam_id":76561198054765522,"connected_time":16000000000,"state":"active","ping":98},{"user_id":536,"name":"JayTheLlamaKing","steam_id":76561198836354249,"connected_time":990000000000,"state":"active","ping":63},{"user_id":546,"name":"Baldanders","steam_id":76561198049516900,"connected_time":699000000000,"state":"active","ping":45},{"user_id":553,"name":"MoshKitty","steam_id":76561198064533929,"connected_time":407000000000,"state":"active","ping":85},{"user_id":548,"name":"Jack Dice","steam_id":76561197993352969,"connected_time":615000000000,"state":"active","ping":69},{"user_id":494,"name":"cunning chris","steam_id":76561197972510204,"connected_time":2938000000000,"state":"active","ping":56},{"user_id":550,"name":"Q","steam_id":76561198055600105,"connected_time":517000000000,"state":"active","ping":68},{"user_id":554,"name":"SsssSs","steam_id":76561198186769550,"connected_time":389000000000,"state":"active","ping":60},{"user_id":560,"name":"John","steam_id":76561198126578228,"connected_time":163000000000,"state":"active","ping":55},{"user_id":557,"name":"Pancakelover","steam_id":76561198885258799,"connected_time":297000000000,"state":"active","ping":100},{"user_id":558,"name":"Sinister80s","steam_id":76561198343540472,"connected_time":280000000000,"state":"active","ping":66},{"user_id":561,"name":"BluSaltt","steam_id":76561199009890383,"connected_time":117000000000,"state":"active","ping":77}]},{"server_id":123,"name":"Uncletopia | Sydney | 2 | All Maps","name_short":"syd-2","host":"syd-1.au.uncletopia.com","port":27025,"enabled":true,"region":"au","cc":"au","latitude":-33.865143,"longitude":151.2099,"reserved":0,"last_update":"0001-01-01T00:00:00Z","name_a2s":"Uncletopia | Sydney | 2 | All Maps","protocol":17,"map":"pl_pier","folder":"tf","game":"Team Fortress","app_id":440,"player_count":24,"max_players":24,"Bots":0,"server_type":"Dedicated","server_os":"Linux","password":true,"vac":true,"version":"7757534","steam_id":85568392924470002,"keywords":["nocrits","nodmgspread","payload","uncletopia"],"game_id":440,"stv_port":27026,"stv_name":"Uncletopia | Sydney | 2 | All Maps | STV","players":[{"user_id":244,"name":"BigLadBoyga","steam_id":76561198985263763,"connected_time":417000000000,"state":"active","ping":72},{"user_id":199,"name":"Paula","steam_id":76561198010688399,"connected_time":4472000000000,"state":"active","ping":94},{"user_id":163,"name":"Eugene (built different)","steam_id":76561198079108027,"connected_time":6320000000000,"state":"active","ping":50},{"user_id":241,"name":"[Squelette]","steam_id":76561198244232668,"connected_time":643000000000,"state":"active","ping":64},{"user_id":239,"name":"Poison_Kouki","steam_id":76561198150364859,"connected_time":793000000000,"state":"active","ping":63},{"user_id":245,"name":"michael","steam_id":76561198052848358,"connected_time":409000000000,"state":"active","ping":58},{"user_id":203,"name":"EpicGuy4227","steam_id":76561198094132328,"connected_time":4253000000000,"state":"active","ping":51},{"user_id":242,"name":"Xenix","steam_id":76561198795888766,"connected_time":574000000000,"state":"active","ping":129},{"user_id":236,"name":"krandlez` (Any/All)","steam_id":76561198044839726,"connected_time":943000000000,"state":"active","ping":35},{"user_id":207,"name":"pizza supper","steam_id":76561198044487625,"connected_time":3734000000000,"state":"active","ping":45},{"user_id":162,"name":"sabeuo","steam_id":76561198288259746,"connected_time":6481000000000,"state":"active","ping":56},{"user_id":216,"name":"freek","steam_id":76561198406237673,"connected_time":2892000000000,"state":"active","ping":57},{"user_id":246,"name":"Zilvera","steam_id":76561198065801850,"connected_time":381000000000,"state":"active","ping":53},{"user_id":171,"name":"Dr. Hoppity","steam_id":76561197999715646,"connected_time":5932000000000,"state":"active","ping":57},{"user_id":218,"name":"Oysenberry","steam_id":76561198125443335,"connected_time":2756000000000,"state":"active","ping":41},{"user_id":250,"name":"Critz Eastwood","steam_id":76561198050094688,"connected_time":44000000000,"state":"spawning","ping":95},{"user_id":247,"name":"iadlin","steam_id":76561197996215700,"connected_time":305000000000,"state":"active","ping":77},{"user_id":240,"name":"jim :)","steam_id":76561198127508905,"connected_time":776000000000,"state":"active","ping":36},{"user_id":251,"name":"SassnCheeky","steam_id":76561197993875592,"connected_time":14000000000,"state":"spawning","ping":91},{"user_id":224,"name":"Tнûи∂уяѕ∂.","steam_id":76561197992346511,"connected_time":2178000000000,"state":"active","ping":46},{"user_id":248,"name":"Distilledrain41","steam_id":76561198272717119,"connected_time":249000000000,"state":"active","ping":48},{"user_id":249,"name":"Phantom Postman","steam_id":76561198075252643,"connected_time":121000000000,"state":"active","ping":69},{"user_id":234,"name":"Matt","steam_id":76561198006791420,"connected_time":1285000000000,"state":"active","ping":101},{"user_id":238,"name":"hazz_mcpie -BvM-","steam_id":76561198092450084,"connected_time":840000000000,"state":"active","ping":87}]},{"server_id":395,"name":"Uncletopia | Sydney | 3 | All Maps","name_short":"syd-3","host":"syd-1.au.uncletopia.com","port":27035,"enabled":true,"region":"au","cc":"au","latitude":-33.865143,"longitude":151.2099,"reserved":0,"last_update":"0001-01-01T00:00:00Z","name_a2s":"Uncletopia | Sydney | 3 | All Maps","protocol":17,"map":"cp_dustbowl","folder":"tf","game":"Team Fortress","app_id":440,"player_count":3,"max_players":24,"Bots":0,"server_type":"Dedicated","server_os":"Linux","password":true,"vac":true,"version":"7757534","steam_id":85568392925194467,"keywords":["cp","nocrits","nodmgspread","uncletopia"],"game_id":440,"stv_port":27036,"stv_name":"Uncletopia | Sydney | 3 | All Maps | STV","players":[{"user_id":29,"name":"GregoryJones2007@aol.com","steam_id":76561199028542666,"connected_time":31000000000,"state":"active","ping":44},{"user_id":27,"name":"PanMan","steam_id":76561199027390996,"connected_time":671000000000,"state":"active","ping":61},{"user_id":28,"name":"getgottengud","steam_id":76561199156863229,"connected_time":663000000000,"state":"active","ping":67}]},{"server_id":396,"name":"Uncletopia | Sydney | 4 | All Maps","name_short":"syd-4","host":"syd-1.au.uncletopia.com","port":27045,"enabled":true,"region":"au","cc":"au","latitude":-33.865143,"longitude":151.2099,"reserved":0,"last_update":"0001-01-01T00:00:00Z","name_a2s":"Uncletopia | Sydney | 4 | All Maps","protocol":17,"map":"koth_highpass","folder":"tf","game":"Team Fortress","app_id":440,"player_count":0,"max_players":24,"Bots":0,"server_type":"Dedicated","server_os":"Linux","password":true,"vac":true,"version":"7757534","steam_id":85568392925397958,"keywords":["cp","nocrits","nodmgspread","uncletopia"],"game_id":440,"stv_port":27046,"stv_name":"Uncletopia | Sydney | 4 | All Maps | STV","players":null},{"server_id":58,"name":"Uncletopia | Sydney | 5 | Stopwatch Beta","name_short":"syd-5","host":"syd-1.au.uncletopia.com","port":27055,"enabled":true,"region":"au","cc":"au","latitude":-33.865143,"longitude":151.2099,"reserved":0,"last_update":"0001-01-01T00:00:00Z","name_a2s":"Uncletopia | Sydney | 5 | Stopwatch Beta","protocol":17,"map":"pl_barnblitz","folder":"tf","game":"Team Fortress","app_id":440,"player_count":0,"max_players":24,"Bots":0,"server_type":"Dedicated","server_os":"Linux","password":true,"vac":true,"version":"7757534","steam_id":85568392925397959,"keywords":["nocrits","nodmgspread","payload","uncletopia"],"game_id":440,"stv_port":27056,"stv_name":"Uncletopia | Sydney | 5 | Stopwatch Beta | STV","players":null},{"server_id":59,"name":"Uncletopia | Sydney | 6 | Community","name_short":"syd-6","host":"syd-1.au.uncletopia.com","port":27065,"enabled":true,"region":"au","cc":"au","latitude":-33.865143,"longitude":151.2099,"reserved":0,"last_update":"0001-01-01T00:00:00Z","name_a2s":"Uncletopia | Sydney | 6 | Community","protocol":17,"map":"workshop/koth_synthetic_rc6a.ugc1549817316","folder":"tf","game":"Team Fortress","app_id":440,"player_count":0,"max_players":24,"Bots":0,"server_type":"Dedicated","server_os":"Linux","password":true,"vac":true,"version":"7757534","steam_id":85568392925397960,"keywords":["cp","nocrits","nodmgspread","uncletopia"],"game_id":440,"stv_port":27066,"stv_name":"Uncletopia | Sydney | 6 | Community | STV","players":null},{"server_id":49,"name":"Uncletopia | Warsaw | 1 | All Maps","name_short":"waw-1","host":"waw-1.pl.uncletopia.com","port":27015,"enabled":true,"region":"eu","cc":"pl","latitude":52.2297,"longitude":21.017532,"reserved":0,"last_update":"0001-01-01T00:00:00Z","name_a2s":"","protocol":0,"map":"","folder":"","game":"","app_id":0,"player_count":0,"max_players":0,"Bots":0,"server_type":"","server_os":"","password":false,"vac":false,"version":"","steam_id":0,"keywords":null,"game_id":0,"stv_port":0,"stv_name":"","players":null},{"server_id":50,"name":"Uncletopia | Warsaw | 2 | All Maps","name_short":"waw-2","host":"waw-1.pl.uncletopia.com","port":27025,"enabled":true,"region":"eu","cc":"pl","latitude":52.2297,"longitude":21.017532,"reserved":0,"last_update":"0001-01-01T00:00:00Z","name_a2s":"Uncletopia | Warsaw | 2 | All Maps","protocol":17,"map":"pl_snowycoast","folder":"tf","game":"Team Fortress","app_id":440,"player_count":0,"max_players":24,"Bots":0,"server_type":"Dedicated","server_os":"Linux","password":true,"vac":true,"version":"7757534","steam_id":85568392925397851,"keywords":["nocrits","nodmgspread","payload","uncletopia"],"game_id":440,"stv_port":27026,"stv_name":"Uncletopia | Warsaw | 2 | All Maps | STV","players":null},{"server_id":51,"name":"Uncletopia | Warsaw | 3 | All Maps","name_short":"waw-3","host":"waw-1.pl.uncletopia.com","port":27035,"enabled":true,"region":"eu","cc":"pl","latitude":52.2297,"longitude":21.017532,"reserved":0,"last_update":"0001-01-01T00:00:00Z","name_a2s":"Uncletopia | Warsaw | 3 | All Maps","protocol":17,"map":"cp_sunshine","folder":"tf","game":"Team Fortress","app_id":440,"player_count":0,"max_players":24,"Bots":0,"server_type":"Dedicated","server_os":"Linux","password":true,"vac":true,"version":"7757534","steam_id":85568392925397852,"keywords":["cp","nocrits","nodmgspread","uncletopia"],"game_id":440,"stv_port":27036,"stv_name":"Uncletopia | Warsaw | 3 | All Maps | STV","players":null},{"server_id":52,"name":"Uncletopia | Warsaw | 4 | All Maps","name_short":"waw-4","host":"waw-1.pl.uncletopia.com","port":27045,"enabled":true,"region":"eu","cc":"pl","latitude":52.2297,"longitude":21.017532,"reserved":0,"last_update":"0001-01-01T00:00:00Z","name_a2s":"Uncletopia | Warsaw | 4 | All Maps","protocol":17,"map":"pl_borneo","folder":"tf","game":"Team Fortress","app_id":440,"player_count":0,"max_players":24,"Bots":0,"server_type":"Dedicated","server_os":"Linux","password":true,"vac":true,"version":"7757534","steam_id":85568392925397853,"keywords":["nocrits","nodmgspread","payload","uncletopia"],"game_id":440,"stv_port":27046,"stv_name":"Uncletopia | Warsaw | 4 | All Maps | STV","players":null},{"server_id":53,"name":"Uncletopia | Warsaw | 5 | Stopwatch Beta","name_short":"waw-5","host":"waw-1.pl.uncletopia.com","port":27055,"enabled":true,"region":"eu","cc":"pl","latitude":52.2297,"longitude":21.017532,"reserved":0,"last_update":"0001-01-01T00:00:00Z","name_a2s":"Uncletopia | Warsaw | 5 | Stopwatch Beta","protocol":17,"map":"pl_upward","folder":"tf","game":"Team Fortress","app_id":440,"player_count":0,"max_players":24,"Bots":0,"server_type":"Dedicated","server_os":"Linux","password":true,"vac":true,"version":"7757534","steam_id":85568392925397854,"keywords":["nocrits","nodmgspread","payload","uncletopia"],"game_id":440,"stv_port":27056,"stv_name":"Uncletopia | Warsaw | 5 | Stopwatch Beta | STV","players":null},{"server_id":54,"name":"Uncletopia | Warsaw | 6 | Community","name_short":"waw-6","host":"waw-1.pl.uncletopia.com","port":27065,"enabled":true,"region":"eu","cc":"pl","latitude":52.2297,"longitude":21.017532,"reserved":0,"last_update":"0001-01-01T00:00:00Z","name_a2s":"Uncletopia | Warsaw | 6 | Community","protocol":17,"map":"pl_barnblitz","folder":"tf","game":"Team Fortress","app_id":440,"player_count":0,"max_players":24,"Bots":0,"server_type":"Dedicated","server_os":"Linux","password":true,"vac":true,"version":"7757534","steam_id":85568392925397856,"keywords":["nocrits","nodmgspread","payload","uncletopia"],"game_id":440,"stv_port":27066,"stv_name":"Uncletopia | Warsaw | 6 | Community | STV","players":null}]}