{"status":true,"message":"","result":[{"server_id":9,"name":"Uncletopia | Atlanta | 1 | All Maps","name_short":"atl-1","host":"atl-1.us.uncletopia.com","port":27015,"enabled":true,"region":"us-east","cc":"us","latitude":33.753746,"longitude":-84.38633,"reserved":0,"last_update":"0001-01-01T00:00:00Z","name_a2s":"Uncletopia | Atlanta | 1 | All Maps","protocol":17,"map":"koth_cascade","folder":"tf","game":"Team Fortress","app_id":440,"player_count":4,"max_players":24,"Bots":0,"server_type":"Dedicated","server_os":"Linux","password":true,"vac":true,"version":"7961495","steam_id":85568392924469982,"keywords":["cp","nocrits","nodmgspread","uncletopia"],"game_id":440,"stv_port":27016,"stv_name":"Uncletopia | Atlanta | 1 | All Maps | STV","players":[{"user_id":24,"name":"julian.byrd3","steam_id":76561198241630786,"connected_time":95000000000,"state":"spawning","ping":44},{"user_id":25,"name":"Oxygen User","steam_id":76561199111975528,"connected_time":61000000000,"state":"active","ping":55},{"user_id":26,"name":"kdhbuilder","steam_id":76561199058095193,"connected_time":47000000000,"state":"active","ping":75},{"user_id":27,"name":"QCubic","steam_id":76561199010248465,"connected_time":27000000000,"state":"spawning","ping":133}]},{"server_id":104,"name":"Uncletopia | Atlanta | 2 | All Maps","name_short":"atl-2","host":"atl-1.us.uncletopia.com","port":27025,"enabled":true,"region":"us-east","cc":"us","latitude":33.753746,"longitude":-84.38633,"reserved":0,"last_update":"0001-01-01T00:00:00Z","name_a2s":"Uncletopia | Atlanta | 2 | All Maps","protocol":17,"map":"cp_process_final","folder":"tf","game":"Team Fortress","app_id":440,"player_count":0,"max_players":24,"Bots":0,"server_type":"Dedicated","server_os":"Linux","password":true,"vac":true,"version":"7961495","steam_id":85568392924469983,"keywords":["cp","nocrits","nodmgspread","uncletopia"],"game_id":440,"stv_port":27026,"stv_name":"Uncletopia | Atlanta | 2 | All Maps | STV","players":null},{"server_id":400,"name":"Uncletopia | Atlanta | 3 | Stopwatch","name_short":"atl-3","host":"atl-1.us.uncletopia.com","port":27035,"enabled":true,"region":"us-east","cc":"us","latitude":33.753746,"longitude":-84.38633,"reserved":0,"last_update":"0001-01-01T00:00:00Z","name_a2s":"Uncletopia | Atlanta | 3 | Stopwatch","protocol":17,"map":"cp_sunshine","folder":"tf","game":"Team Fortress","app_id":440,"player_count":0,"max_players":24,"Bots":0,"server_type":"Dedicated","server_os":"Linux","password":true,"vac":true,"version":"7961495","steam_id":85568392924515187,"keywords":["cp","nocrits","nodmgspread","uncletopia"],"game_id":440,"stv_port":27036,"stv_name":"Uncletopia | Atlanta | 3 | Stopwatch | STV","players":null},{"server_id":401,"name":"Uncletopia | Atlanta | 4 | Community","name_short":"atl-4","host":"atl-1.us.uncletopia.com","port":27045,"enabled":true,"region":"us-east","cc":"us","latitude":33.753746,"longitude":-84.38633,"reserved":0,"last_update":"0001-01-01T00:00:00Z","name_a2s":"Uncletopia | Atlanta | 4 | Community","protocol":17,"map":"workshop/pl_badwater_pro_v12.ugc2142942074","folder":"tf","game":"Team Fortress","app_id":440,"player_count":0,"max_players":24,"Bots":0,"server_type":"Dedicated","server_os":"Linux","password":true,"vac":true,"version":"7961495","steam_id":85568392924515188,"keywords":["nocrits","nodmgspread","payload","uncletopia"],"game_id":440,"stv_port":27046,"stv_name":"Uncletopia | Atlanta | 4 | Community | STV","players":null},{"server_id":2,"name":"Uncletopia | Chicago | 1 | All Maps","name_short":"chi-1","host":"chi-1.us.uncletopia.com","port":27015,"enabled":true,"region":"us-central","cc":"us","latitude":41.881832,"longitude":-87.62318,"reserved":0,"last_update":"0001-01-01T00:00:00Z","name_a2s":"Uncletopia | Chicago | 1 | All Maps","protocol":17,"map":"pl_snowycoast","folder":"tf","game":"Team Fortress","app_id":440,"player_count":24,"max_players":24,"Bots":0,"server_type":"Dedicated","server_os":"Linux","password":true,"vac":true,"version":"7961495","steam_id":85568392924469984,"keywords":["nocrits","nodmgspread","payload","uncletopia"],"game_id":440,"stv_port":27016,"stv_name":"Uncletopia | Chicago | 1 | All Maps | STV","players":[{"user_id":168,"name":"Cheeseball","steam_id":76561198996855146,"connected_time":412000000000,"state":"active","ping":90},{"user_id":173,"name":"DeeAyche.TTV","steam_id":76561198881909299,"connected_time":325000000000,"state":"active","ping":93},{"user_id":166,"name":"pittypier","steam_id":76561199447222783,"connected_time":456000000000,"state":"active","ping":153},{"user_id":178,"name":"Lily (she/her)","steam_id":76561198355495948,"connected_time":80000000000,"state":"active","ping":69},{"user_id":149,"name":"kirby7","steam_id":76561199167006749,"connected_time":1737000000000,"state":"active","ping":47},{"user_id":162,"name":"goallpeashooters222","steam_id":76561199443722096,"connected_time":523000000000,"state":"active","ping":94},{"user_id":176,"name":"glman","steam_id":76561198106930203,"connected_time":145000000000,"state":"active","ping":93},{"user_id":174,"name":"playr","steam_id":76561198354622099,"connected_time":219000000000,"state":"active","ping":77},{"user_id":156,"name":"MackDaddy69","steam_id":76561198060121935,"connected_time":1311000000000,"state":"active","ping":60},{"user_id":140,"name":"Gaminglast","steam_id":76561198362927765,"connected_time":2353000000000,"state":"active","ping":158},{"user_id":160,"name":"JohnFMX","steam_id":76561198175608097,"connected_time":656000000000,"state":"active","ping":67},{"user_id":163,"name":"A glass of water","steam_id":76561198361022474,"connected_time":467000000000,"state":"active","ping":62},{"user_id":157,"name":"M√°tame","steam_id":76561198060680045,"connected_time":1034000000000,"state":"active","ping":66},{"user_id":158,"name":"Rode hard, put away wet","steam_id":76561198062764039,"connected_time":926000000000,"state":"active","ping":58},{"user_id":170,"name":"Krypa","steam_id":76561198144307152,"connected_time":380000000000,"state":"active","ping":58},{"user_id":164,"name":"5-MeO-DMT","steam_id":76561198089527768,"connected_time":464000000000,"state":"active","ping":73},{"user_id":103,"name":"Stacks63bs","steam_id":76561198067797130,"connected_time":5278000000000,"state":"active","ping":73},{"user_id":167,"name":"Yule","steam_id":76561198087404667,"connected_time":439000000000,"state":"active","ping":104},{"user_id":171,"name":"Andrew's Taint","steam_id":76561198131400543,"connected_time":370000000000,"state":"active","ping":77},{"user_id":97,"name":"Big Business","steam_id":76561198353366625,"connected_time":5860000000000,"state":"active","ping":73},{"user_id":172,"name":"HanakoToast","steam_id":76561198045233131,"connected_time":359000000000,"state":"active","ping":91},{"user_id":127,"name":"guy","steam_id":76561198079925551,"connected_time":3849000000000,"state":"active","ping":62},{"user_id":161,"name":"LexxyLooLoo","steam_id":76561198958811555,"connected_time":550000000000,"state":"active","ping":75},{"user_id":132,"name":"Siz","steam_id":76561198072962154,"connected_time":3411000000000,"state":"active","ping":67}]},{"server_id":106,"name":"Uncletopia | Chicago | 2 | All Maps","name_short":"chi-2","host":"chi-1.us.uncletopia.com","port":27025,"enabled":true,"region":"us-central","cc":"us","latitude":41.881832,"longitude":-87.62318,"reserved":0,"last_update":"0001-01-01T00:00:00Z","name_a2s":"Uncletopia | Chicago | 2 | All Maps","protocol":17,"map":"pl_frontier_final","folder":"tf","game":"Team Fortress","app_id":440,"player_count":24,"max_players":24,"Bots":0,"server_type":"Dedicated","server_os":"Linux","password":true,"vac":true,"version":"7961495","steam_id":85568392924469985,"keywords":["nocrits","nodmgspread","payload","uncletopia"],"game_id":440,"stv_port":27026,"stv_name":"Uncletopia | Chicago | 2 | All Maps | STV","players":[{"user_id":264,"name":"Mr. Tickle","steam_id":76561198126684647,"connected_time":1154000000000,"state":"active","ping":58},{"user_id":239,"name":"mp4 ?","steam_id":76561198826820952,"connected_time":2188000000000,"state":"active","ping":60},{"user_id":215,"name":"KhorneBread Ô∏ª„Éá ‰∏Ä","steam_id":76561198097069958,"connected_time":4488000000000,"state":"active","ping":73},{"user_id":254,"name":"vv","steam_id":76561198134813102,"connected_time":1661000000000,"state":"active","ping":56},{"user_id":277,"name":"slafflow","steam_id":76561199381012350,"connected_time":162000000000,"state":"active","ping":78},{"user_id":260,"name":"Bunt","steam_id":76561198124477567,"connected_time":1302000000000,"state":"active","ping":63},{"user_id":253,"name":"shomo","steam_id":76561198158787127,"connected_time":1829000000000,"state":"active","ping":96},{"user_id":243,"name":"Dwanor","steam_id":76561198039571887,"connected_time":2107000000000,"state":"active","ping":64},{"user_id":275,"name":"Gotta Move That Gear Up","steam_id":76561197993467034,"connected_time":278000000000,"state":"active","ping":55},{"user_id":238,"name":"BL√òRG","steam_id":76561198036126673,"connected_time":2213000000000,"state":"active","ping":79},{"user_id":278,"name":"Charlie","steam_id":76561198798127908,"connected_time":135000000000,"state":"active","ping":60},{"user_id":224,"name":"The True Caniac","steam_id":76561198844434119,"connected_time":3815000000000,"state":"active","ping":102},{"user_id":257,"name":"BurgerPizza","steam_id":76561198151256410,"connected_time":1515000000000,"state":"active","ping":141},{"user_id":258,"name":"DRACO$","steam_id":76561198389198223,"connected_time":1436000000000,"state":"active","ping":85},{"user_id":266,"name":"glitch","steam_id":76561197979495589,"connected_time":1002000000000,"state":"active","ping":68},{"user_id":232,"name":"Big Weeb Man","steam_id":76561198127819973,"connected_time":2544000000000,"state":"active","ping":60},{"user_id":273,"name":"Mattsson","steam_id":76561198049975437,"connected_time":403000000000,"state":"active","ping":150},{"user_id":269,"name":"duck ü¶Ü","steam_id":76561197998344127,"connected_time":692000000000,"state":"active","ping":98},{"user_id":247,"name":"Silverslickboi","steam_id":76561199092069429,"connected_time":2065000000000,"state":"active","ping":77},{"user_id":221,"name":"drift","steam_id":76561198093781093,"connected_time":4331000000000,"state":"active","ping":57},{"user_id":271,"name":"sasharudzik","steam_id":76561199126617781,"connected_time":471000000000,"state":"active","ping":62},{"user_id":179,"name":"Lennu","steam_id":76561198060730154,"connected_time":7687000000000,"state":"active","ping":72},{"user_id":274,"name":"Rovsson","steam_id":76561198274949596,"connected_time":400000000000,"state":"active","ping":81},{"user_id":250,"name":"john34689@gmail.com","steam_id":76561199508419472,"connected_time":1995000000000,"state":"active","ping":78}]},{"server_id":402,"name":"Uncletopia | Chicago | 3 | All Maps","name_short":"chi-3","host":"chi-1.us.uncletopia.com","port":27035,"enabled":true,"region":"us-central","cc":"us","latitude":41.881832,"longitude":-87.62318,"reserved":0,"last_update":"0001-01-01T00:00:00Z","name_a2s":"Uncletopia | Chicago | 3 | All Maps","protocol":17,"map":"cp_sunshine","folder":"tf","game":"Team Fortress","app_id":440,"player_count":24,"max_players":24,"Bots":0,"server_type":"Dedicated","server_os":"Linux","password":true,"vac":true,"version":"7961495","steam_id":85568392924515191,"keywords":["cp","nocrits","nodmgspread","uncletopia"],"game_id":440,"stv_port":27036,"stv_name":"Uncletopia | Chicago | 3 | All Maps | STV","players":[{"user_id":99,"name":"broomstick","steam_id":76561198302171600,"connected_time":2103000000000,"state":"active","ping":68},{"user_id":73,"name":"the changed name","steam_id":76561199076837870,"connected_time":4621000000000,"state":"active","ping":82},{"user_id":107,"name":"GuyGoom","steam_id":76561198254522178,"connected_time":1422000000000,"state":"active","ping":58},{"user_id":60,"name":"mechinventor6711","steam_id":76561198348155156,"connected_time":5197000000000,"state":"active","ping":63},{"user_id":118,"name":"confield","steam_id":76561198004322265,"connected_time":272000000000,"state":"active","ping":68},{"user_id":65,"name":"finn the human","steam_id":76561198072592880,"connected_time":5031000000000,"state":"active","ping":51},{"user_id":114,"name":"Coke Himmy","steam_id":76561198397459211,"connected_time":1136000000000,"state":"active","ping":67},{"user_id":116,"name":"Grimprr","steam_id":76561198275816797,"connected_time":531000000000,"state":"active","ping":68},{"user_id":117,"name":"sansa musa","steam_id":76561198163723555,"connected_time":432000000000,"state":"active","ping":66},{"user_id":106,"name":"Joan The Kisaragi Cat","steam_id":76561199370650064,"connected_time":1509000000000,"state":"active","ping":84},{"user_id":109,"name":"Dracula, King of All Vampires","steam_id":76561198026930160,"connected_time":1390000000000,"state":"active","ping":60},{"user_id":110,"name":"Waltism","steam_id":76561199447676489,"connected_time":1348000000000,"state":"active","ping":179},{"user_id":100,"name":"mr. nice guy","steam_id":76561198209333517,"connected_time":2097000000000,"state":"active","ping":79},{"user_id":90,"name":"opossum","steam_id":76561198148905570,"connected_time":3225000000000,"state":"active","ping":72},{"user_id":101,"name":"Nathan","steam_id":76561198127924646,"connected_time":2062000000000,"state":"active","ping":77},{"user_id":96,"name":"Very Small Giant","steam_id":76561199187337967,"connected_time":2519000000000,"state":"active","ping":62},{"user_id":89,"name":"shaderoses","steam_id":76561198070800500,"connected_time":3301000000000,"state":"active","ping":73},{"user_id":111,"name":"Chicken Joe","steam_id":76561198077799885,"connected_time":1340000000000,"state":"active","ping":74},{"user_id":77,"name":"Season Leaf","steam_id":76561198133121805,"connected_time":4549000000000,"state":"active","ping":63},{"user_id":102,"name":"Joshy","steam_id":76561198061405421,"connected_time":2049000000000,"state":"active","ping":89},{"user_id":119,"name":"lucky","steam_id":76561198323426623,"connected_time":226000000000,"state":"active","ping":100},{"user_id":112,"name":"Jack","steam_id":76561198079575891,"connected_time":1244000000000,"state":"active","ping":149},{"user_id":103,"name":"Dixxy","steam_id":76561198010760019,"connected_time":2026000000000,"state":"active","ping":78},{"user_id":47,"name":"ZestyTrev","steam_id":76561198253391039,"connected_time":5701000000000,"state":"active","ping":74}]},{"server_id":403,"name":"Uncletopia | Chicago | 4 | All Maps","name_short":"chi-4","host":"chi-1.us.uncletopia.com","port":27045,"enabled":true,"region":"us-central","cc":"us","latitude":41.881832,"longitude":-87.62318,"reserved":0,"last_update":"0001-01-01T00:00:00Z","name_a2s":"Uncletopia | Chicago | 4 | All Maps","protocol":17,"map":"pl_pier","folder":"tf","game":"Team Fortress","app_id":440,"player_count":0,"max_players":24,"Bots":0,"server_type":"Dedicated","server_os":"Linux","password":true,"vac":true,"version":"7961495","steam_id":85568392924515193,"keywords":["nocrits","nodmgspread","payload","uncletopia"],"game_id":440,"stv_port":27046,"stv_name":"Uncletopia | Chicago | 4 | All Maps | STV","players":null},{"server_id":36,"name":"Uncletopia | Chicago | 5 | All Maps","name_short":"chi-5","host":"chi-2.us.uncletopia.com","port":27015,"enabled":true,"region":"us-central","cc":"us","latitude":41.881832,"longitude":-87.62318,"reserved":0,"last_update":"0001-01-01T00:00:00Z","name_a2s":"Uncletopia | Chicago | 5 | All Maps","protocol":17,"map":"cp_gorge","folder":"tf","game":"Team Fortress","app_id":440,"player_count":0,"max_players":24,"Bots":0,"server_type":"Dedicated","server_os":"Linux","password":true,"vac":true,"version":"7961495","steam_id":85568392924866362,"keywords":["cp","nocrits","nodmgspread","uncletopia"],"game_id":440,"stv_port":27016,"stv_name":"Uncletopia | Chicago | 5 | All Maps | STV","players":null},{"server_id":37,"name":"Uncletopia | Chicago | 6 | All Maps","name_short":"chi-6","host":"chi-2.us.uncletopia.com","port":27025,"enabled":true,"region":"us-central","cc":"us","latitude":41.881832,"longitude":-87.62318,"reserved":0,"last_update":"0001-01-01T00:00:00Z","name_a2s":"Uncletopia | Chicago | 6 | All Maps","protocol":17,"map":"koth_highpass","folder":"tf","game":"Team Fortress","app_id":440,"player_count":0,"max_players":24,"Bots":0,"server_type":"Dedicated","server_os":"Linux","password":true,"vac":true,"version":"7961495","steam_id":85568392924866363,"keywords":["cp","nocrits","nodmgspread","uncletopia"],"game_id":440,"stv_port":27026,"stv_name":"Uncletopia | Chicago | 6 | All Maps | STV","players":null},{"server_id":38,"name":"Uncletopia | Chicago | 7 | Stopwatch","name_short":"chi-7","host":"chi-2.us.uncletopia.com","port":27035,"enabled":true,"region":"us-central","cc":"us","latitude":41.881832,"longitude":-87.62318,"reserved":0,"last_update":"0001-01-01T00:00:00Z","name_a2s":"Uncletopia | Chicago | 7 | Stopwatch","protocol":17,"map":"cp_snakewater_final1","folder":"tf","game":"Team Fortress","app_id":440,"player_count":0,"max_players":24,"Bots":0,"server_type":"Dedicated","server_os":"Linux","password":true,"vac":true,"version":"7961495","steam_id":85568392924866364,"keywords":["cp","nocrits","nodmgspread","uncletopia"],"game_id":440,"stv_port":27036,"stv_name":"Uncletopia | Chicago | 7 | Stopwatch | STV","players":null},{"server_id":39,"name":"Uncletopia | Chicago | 8 | Community","name_short":"chi-8","host":"chi-2.us.uncletopia.com","port":27045,"enabled":true,"region":"us-central","cc":"us","latitude":41.881832,"longitude":-87.62318,"reserved":0,"last_update":"0001-01-01T00:00:00Z","name_a2s":"Uncletopia | Chicago | 8 | Community","protocol":17,"map":"workshop/koth_slaughter_rc1.ugc1712845210","folder":"tf","game":"Team Fortress","app_id":440,"player_count":0,"max_players":24,"Bots":0,"server_type":"Dedicated","server_os":"Linux","password":true,"vac":true,"version":"7961495","steam_id":85568392924866365,"keywords":["cp","nocrits","nodmgspread","uncletopia"],"game_id":440,"stv_port":27046,"stv_name":"Uncletopia | Chicago | 8 | Community | STV","players":null},{"server_id":8,"name":"Uncletopia | Dallas | 1 | All Maps","name_short":"dal-1","host":"dal-1.us.uncletopia.com","port":27015,"enabled":true,"region":"us-central","cc":"us","latitude":32.779167,"longitude":-96.80889,"reserved":0,"last_update":"0001-01-01T00:00:00Z","name_a2s":"Uncletopia | Dallas | 1 | All Maps","protocol":17,"map":"pl_frontier_final","folder":"tf","game":"Team Fortress","app_id":440,"player_count":24,"max_players":24,"Bots":0,"server_type":"Dedicated","server_os":"Linux","password":true,"vac":true,"version":"7961495","steam_id":85568392924469986,"keywords":["nocrits","nodmgspread","payload","uncletopia"],"game_id":440,"stv_port":27016,"stv_name":"Uncletopia | Dallas | 1 | All Maps | STV","players":[{"user_id":44,"name":"Freezbe","steam_id":76561198043515966,"connected_time":1306000000000,"state":"active","ping":60},{"user_id":31,"name":"locked cathode tube","steam_id":76561198085044565,"connected_time":1541000000000,"state":"active","ping":88},{"user_id":9,"name":"thezranger","steam_id":76561198454086460,"connected_time":2449000000000,"state":"active","ping":72},{"user_id":11,"name":"friendly salamander","steam_id":76561198888219116,"connected_time":2245000000000,"state":"active","ping":76},{"user_id":32,"name":"Nine-Tails Delsin","steam_id":76561198149825187,"connected_time":1531000000000,"state":"active","ping":158},{"user_id":34,"name":"William Lovett","steam_id":76561197991063996,"connected_time":1477000000000,"state":"active","ping":75},{"user_id":40,"name":"Cpaztik ‚ò£","steam_id":76561198071172731,"connected_time":1393000000000,"state":"active","ping":52},{"user_id":62,"name":"freesia","steam_id":76561198127525888,"connected_time":124000000000,"state":"active","ping":47},{"user_id":41,"name":"Firedust19","steam_id":76561198153238631,"connected_time":1389000000000,"state":"active","ping":85},{"user_id":42,"name":"Srg-Waffle","steam_id":76561198204555116,"connected_time":1346000000000,"state":"active","ping":100},{"user_id":18,"name":"Kk","steam_id":76561198197211135,"connected_time":1908000000000,"state":"active","ping":59},{"user_id":19,"name":"KiloeJet","steam_id":76561199084636926,"connected_time":1838000000000,"state":"active","ping":84},{"user_id":43,"name":"paChewychomp","steam_id":76561198068738250,"connected_time":1311000000000,"state":"active","ping":108},{"user_id":21,"name":"FearMeisterMedusa","steam_id":76561198330311673,"connected_time":1803000000000,"state":"active","ping":64},{"user_id":56,"name":"Gaio","steam_id":76561198136293406,"connected_time":968000000000,"state":"active","ping":55},{"user_id":24,"name":"Speedy","steam_id":76561198873086850,"connected_time":1659000000000,"state":"active","ping":155},{"user_id":26,"name":"Pumper","steam_id":76561198800459538,"connected_time":1623000000000,"state":"active","ping":42},{"user_id":59,"name":"schmuck","steam_id":76561198143789773,"connected_time":323000000000,"state":"active","ping":51},{"user_id":46,"name":"Go1deN","steam_id":76561198889933398,"connected_time":1262000000000,"state":"active","ping":60},{"user_id":50,"name":"DaddyLongStroke","steam_id":76561198268164223,"connected_time":1116000000000,"state":"active","ping":132},{"user_id":51,"name":"Deadline","steam_id":76561199079078845,"connected_time":1109000000000,"state":"active","ping":128},{"user_id":52,"name":"shrimp","steam_id":76561198092401427,"connected_time":1109000000000,"state":"active","ping":60},{"user_id":63,"name":"DlTTO","steam_id":76561199427026752,"connected_time":88000000000,"state":"active","ping":90},{"user_id":61,"name":"Vazquez Perez","steam_id":76561199185750989,"connected_time":294000000000,"state":"active","ping":86}]},{"server_id":108,"name":"Uncletopia | Dallas | 2 | All Maps","name_short":"dal-2","host":"dal-1.us.uncletopia.com","port":27025,"enabled":true,"region":"us-central","cc":"us","latitude":32.779167,"longitude":-96.80889,"reserved":0,"last_update":"0001-01-01T00:00:00Z","name_a2s":"Uncletopia | Dallas | 2 | All Maps","protocol":17,"map":"cp_mountainlab","folder":"tf","game":"Team Fortress","app_id":440,"player_count":0,"max_players":24,"Bots":0,"server_type":"Dedicated","server_os":"Linux","password":true,"vac":true,"version":"7961495","steam_id":85568392924469988,"keywords":["cp","nocrits","nodmgspread","uncletopia"],"game_id":440,"stv_port":27026,"stv_name":"Uncletopia | Dallas | 2 | All Maps | STV","players":null},{"server_id":404,"name":"Uncletopia | Dallas | 3 | All Maps","name_short":"dal-3","host":"dal-1.us.uncletopia.com","port":27035,"enabled":true,"region":"us-central","cc":"us","latitude":32.779167,"longitude":-96.80889,"reserved":0,"last_update":"0001-01-01T00:00:00Z","name_a2s":"Uncletopia | Dallas | 3 | All Maps","protocol":17,"map":"pl_barnblitz","folder":"tf","game":"Team Fortress","app_id":440,"player_count":21,"max_players":24,"Bots":0,"server_type":"Dedicated","server_os":"Linux","password":true,"vac":true,"version":"7961495","steam_id":85568392924515219,"keywords":["nocrits","nodmgspread","payload","uncletopia"],"game_id":440,"stv_port":27036,"stv_name":"Uncletopia | Dallas | 3 | All Maps | STV","players":[{"user_id":64,"name":"Jimmy","steam_id":76561198857959855,"connected_time":2242000000000,"state":"active","ping":81},{"user_id":86,"name":"LLLFarm2012","steam_id":76561199199786915,"connected_time":533000000000,"state":"active","ping":76},{"user_id":92,"name":"GhostFreak","steam_id":76561198325306224,"connected_time":122000000000,"state":"active","ping":61},{"user_id":79,"name":"Nostic","steam_id":76561199508767541,"connected_time":906000000000,"state":"active","ping":47},{"user_id":93,"name":"Ursus Ludius","steam_id":76561198025470722,"connected_time":117000000000,"state":"active","ping":78},{"user_id":98,"name":"Billy Mays","steam_id":76561197998876324,"connected_time":20000000000,"state":"spawning","ping":86},{"user_id":81,"name":"ÔΩêÔΩíÔΩèÔΩÜÔΩÖ ÔΩâÔΩìÔΩÅ","steam_id":76561198106966849,"connected_time":887000000000,"state":"active","ping":132},{"user_id":85,"name":"moon","steam_id":76561199187008629,"connected_time":639000000000,"state":"active","ping":86},{"user_id":55,"name":"–í–ï–°–ï–õ–¨–ï's father","steam_id":76561198962598376,"connected_time":3068000000000,"state":"active","ping":179},{"user_id":61,"name":"CoffeeZombi","steam_id":76561198172708053,"connected_time":2483000000000,"state":"active","ping":75},{"user_id":66,"name":"Sappho of Lesbos","steam_id":76561198115931381,"connected_time":1905000000000,"state":"active","ping":67},{"user_id":95,"name":"dadgummit","steam_id":76561198005806915,"connected_time":75000000000,"state":"active","ping":86},{"user_id":90,"name":"Sylvain","steam_id":76561198113385271,"connected_time":412000000000,"state":"active","ping":81},{"user_id":82,"name":"Blaze","steam_id":76561198043797702,"connected_time":851000000000,"state":"active","ping":73},{"user_id":84,"name":"need a dispenser here","steam_id":76561198060912995,"connected_time":771000000000,"state":"active","ping":66},{"user_id":96,"name":"Iron Argus","steam_id":76561198181088245,"connected_time":65000000000,"state":"active","ping":77},{"user_id":52,"name":"Boring","steam_id":76561198827219701,"connected_time":3116000000000,"state":"active","ping":182},{"user_id":41,"name":"Jango","steam_id":76561198084589742,"connected_time":3594000000000,"state":"active","ping":72},{"user_id":97,"name":"DagyDin","steam_id":76561199212257554,"connected_time":62000000000,"state":"active","ping":105},{"user_id":44,"name":"–í–ï–°–ï–õ–¨–ï","steam_id":76561199046301803,"connected_time":3547000000000,"state":"active","ping":167},{"user_id":62,"name":"elcarlos1010","steam_id":76561198201986832,"connected_time":2427000000000,"state":"active","ping":46}]},{"server_id":405,"name":"Uncletopia | Dallas | 4 | Community","name_short":"dal-4","host":"dal-1.us.uncletopia.com","port":27045,"enabled":true,"region":"us-central","cc":"us","latitude":32.779167,"longitude":-96.80889,"reserved":0,"last_update":"0001-01-01T00:00:00Z","name_a2s":"Uncletopia | Dallas | 4 | Community","protocol":17,"map":"workshop/koth_synthetic_rc6a.ugc1549817316","folder":"tf","game":"Team Fortress","app_id":440,"player_count":0,"max_players":24,"Bots":0,"server_type":"Dedicated","server_os":"Linux","password":true,"vac":true,"version":"7961495","steam_id":85568392924515220,"keywords":["cp","nocrits","nodmgspread","uncletopia"],"game_id":440,"stv_port":27046,"stv_name":"Uncletopia | Dallas | 4 | Community | STV","players":null},{"server_id":5,"name":"Uncletopia | Frankfurt | 1 | All Maps","name_short":"frk-1","host":"frk-1.de.uncletopia.com","port":27015,"enabled":true,"region":"eu","cc":"de","latitude":50.110924,"longitude":8.682127,"reserved":0,"last_update":"0001-01-01T00:00:00Z","name_a2s":"Uncletopia | Frankfurt | 1 | All Maps","protocol":17,"map":"pl_pier","folder":"tf","game":"Team Fortress","app_id":440,"player_count":24,"max_players":24,"Bots":0,"server_type":"Dedicated","server_os":"Linux","password":true,"vac":true,"version":"7961495","steam_id":85568392924469989,"keywords":["nocrits","nodmgspread","payload","uncletopia"],"game_id":440,"stv_port":27016,"stv_name":"Uncletopia | Frankfurt | 1 | All Maps | STV","players":[{"user_id":714,"name":"4gamabrodata","steam_id":76561199403446679,"connected_time":1132000000000,"state":"active","ping":64},{"user_id":702,"name":"ShadowTwin","steam_id":76561198046658200,"connected_time":1560000000000,"state":"active","ping":62},{"user_id":699,"name":"miiq130","steam_id":76561198188010666,"connected_time":1675000000000,"state":"active","ping":79},{"user_id":712,"name":"Fedm","steam_id":76561199020090514,"connected_time":1227000000000,"state":"active","ping":76},{"user_id":655,"name":"—Ç—É–∫–∫—É –∏—Ä–º–∞","steam_id":76561197998715016,"connected_time":2381000000000,"state":"active","ping":61},{"user_id":719,"name":"6bIK_0CeMEHuTEJIb","steam_id":76561198992528373,"connected_time":789000000000,"state":"active","ping":70},{"user_id":725,"name":"The Cool Ice Guy","steam_id":76561198146194820,"connected_time":599000000000,"state":"active","ping":51},{"user_id":711,"name":"Fat Pigeon","steam_id":76561198817940142,"connected_time":1236000000000,"state":"active","ping":59},{"user_id":474,"name":"‚ù§Speedbump‚ù§","steam_id":76561198388690313,"connected_time":12807000000000,"state":"active","ping":55},{"user_id":692,"name":"Fantres","steam_id":76561198141741930,"connected_time":1817000000000,"state":"active","ping":126},{"user_id":642,"name":"Murovelho","steam_id":76561198835081622,"connected_time":3405000000000,"state":"active","ping":105},{"user_id":726,"name":"Durin sein Vater","steam_id":76561198021246713,"connected_time":536000000000,"state":"active","ping":45},{"user_id":727,"name":"antlionguard","steam_id":76561198072747143,"connected_time":359000000000,"state":"active","ping":111},{"user_id":723,"name":"SomethingDeveloper","steam_id":76561198369567080,"connected_time":632000000000,"state":"active","ping":60},{"user_id":687,"name":"acetamiprid","steam_id":76561198058012525,"connected_time":1900000000000,"state":"active","ping":61},{"user_id":705,"name":"Nittugai","steam_id":76561198067366462,"connected_time":1416000000000,"state":"active","ping":62},{"user_id":696,"name":"terri_mik","steam_id":76561199047377351,"connected_time":1712000000000,"state":"active","ping":98},{"user_id":708,"name":"weed fairy","steam_id":76561197998843096,"connected_time":1348000000000,"state":"active","ping":74},{"user_id":724,"name":"COTHuK","steam_id":76561198330633932,"connected_time":625000000000,"state":"active","ping":78},{"user_id":717,"name":"swagmeester","steam_id":76561198045828392,"connected_time":976000000000,"state":"active","ping":61},{"user_id":720,"name":"James Potkukelkka","steam_id":76561198052976438,"connected_time":744000000000,"state":"active","ping":58},{"user_id":709,"name":"Yonio","steam_id":76561198408428132,"connected_time":1320000000000,"state":"active","ping":75},{"user_id":650,"name":"Leviticus Cornwall","steam_id":76561197993702685,"connected_time":2934000000000,"state":"active","ping":72},{"user_id":701,"name":"doctor sex","steam_id":76561198343097164,"connected_time":1628000000000,"state":"active","ping":82}]},{"server_id":110,"name":"Uncletopia | Frankfurt | 2 | All Maps","name_short":"frk-2","host":"frk-1.de.uncletopia.com","port":27025,"enabled":true,"region":"eu","cc":"de","latitude":50.110924,"longitude":8.682127,"reserved":0,"last_update":"0001-01-01T00:00:00Z","name_a2s":"Uncletopia | Frankfurt | 2 | All Maps","protocol":17,"map":"pl_snowycoast","folder":"tf","game":"Team Fortress","app_id":440,"player_count":25,"max_players":24,"Bots":0,"server_type":"Dedicated","server_os":"Linux","password":true,"vac":true,"version":"7961495","steam_id":85568392924469990,"keywords":["nocrits","nodmgspread","payload","uncletopia"],"game_id":440,"stv_port":27026,"stv_name":"Uncletopia | Frankfurt | 2 | All Maps | STV","players":[{"user_id":391,"name":"treelover69","steam_id":76561199207433674,"connected_time":468000000000,"state":"active","ping":88},{"user_id":384,"name":"mesŒª","steam_id":76561198324582918,"connected_time":650000000000,"state":"active","ping":104},{"user_id":315,"name":"Sunduchek","steam_id":76561198067934157,"connected_time":6454000000000,"state":"active","ping":129},{"user_id":385,"name":"QUACK","steam_id":76561198059385462,"connected_time":564000000000,"state":"active","ping":60},{"user_id":313,"name":"KALACH","steam_id":76561198028664460,"connected_time":6509000000000,"state":"active","ping":94},{"user_id":361,"name":"NALA","steam_id":76561198039806469,"connected_time":3277000000000,"state":"active","ping":66},{"user_id":392,"name":"Peekatew","steam_id":76561198024712439,"connected_time":425000000000,"state":"active","ping":51},{"user_id":387,"name":"Kolodziej","steam_id":76561198088672385,"connected_time":524000000000,"state":"active","ping":65},{"user_id":337,"name":"Suolainen","steam_id":76561198133341026,"connected_time":5209000000000,"state":"active","ping":89},{"user_id":402,"name":"FilipeLuk","steam_id":76561198150675438,"connected_time":229000000000,"state":"active","ping":75},{"user_id":389,"name":"Rodia","steam_id":76561197968293161,"connected_time":495000000000,"state":"active","ping":87},{"user_id":413,"name":"Tyrfing‚ô†","steam_id":76561198162815484,"connected_time":2000000000,"state":"spawning","ping":84},{"user_id":377,"name":"‚ù§Stella‚ù§ X3","steam_id":76561198402691965,"connected_time":1047000000000,"state":"active","ping":55},{"user_id":235,"name":"bow\u0026arrow enjoyer","steam_id":76561198052898368,"connected_time":11385000000000,"state":"active","ping":74},{"user_id":403,"name":"SUSHII","steam_id":76561198086702651,"connected_time":227000000000,"state":"active","ping":57},{"user_id":405,"name":"Boss baby (real)","steam_id":76561198358450003,"connected_time":186000000000,"state":"active","ping":98},{"user_id":393,"name":"skai -TA-","steam_id":76561198184881255,"connected_time":410000000000,"state":"active","ping":70},{"user_id":408,"name":"Michael","steam_id":76561198003146906,"connected_time":123000000000,"state":"active","ping":60},{"user_id":394,"name":"Silvestro","steam_id":76561198021660066,"connected_time":399000000000,"state":"active","ping":67},{"user_id":401,"name":"Super medyk","steam_id":76561198170125887,"connected_time":305000000000,"state":"active","ping":63},{"user_id":412,"name":"DoomGuy","steam_id":76561198303785233,"connected_time":103000000000,"state":"active","ping":108},{"user_id":396,"name":"Ergas","steam_id":76561198860861032,"connected_time":394000000000,"state":"active","ping":71},{"user_id":414,"name":"Bastyon","steam_id":76561198317641368,"connected_time":2000000000,"state":"spawning","ping":80},{"user_id":397,"name":"aSpectVEVO","steam_id":76561198237799694,"connected_time":387000000000,"state":"active","ping":55},{"user_id":411,"name":"–∫–∞—Ä–∞—Å–∏–∫","steam_id":76561197971140507,"connected_time":106000000000,"state":"active","ping":63}]},{"server_id":308,"name":"Uncletopia | Frankfurt | 3 | All Maps","name_short":"frk-3","host":"frk-1.de.uncletopia.com","port":27035,"enabled":true,"region":"eu","cc":"de","latitude":50.110924,"longitude":8.682127,"reserved":0,"last_update":"0001-01-01T00:00:00Z","name_a2s":"Uncletopia | Frankfurt | 3 | All Maps","protocol":17,"map":"cp_dustbowl","folder":"tf","game":"Team Fortress","app_id":440,"player_count":24,"max_players":24,"Bots":0,"server_type":"Dedicated","server_os":"Linux","password":true,"vac":true,"version":"7961495","steam_id":85568392924504274,"keywords":["cp","nocrits","nodmgspread","uncletopia"],"game_id":440,"stv_port":27036,"stv_name":"Uncletopia | Frankfurt | 3 | All Maps | STV","players":[{"user_id":214,"name":"Kavary","steam_id":76561198024792146,"connected_time":4914000000000,"state":"active","ping":77},{"user_id":278,"name":"Samael","steam_id":76561198110478679,"connected_time":762000000000,"state":"active","ping":61},{"user_id":201,"name":"Chilly","steam_id":76561198050290328,"connected_time":5149000000000,"state":"active","ping":64},{"user_id":250,"name":"laido riteris","steam_id":76561199098499873,"connected_time":1446000000000,"state":"active","ping":60},{"user_id":262,"name":"Kiers","steam_id":76561198834266801,"connected_time":1271000000000,"state":"active","ping":65},{"user_id":267,"name":"konstt","steam_id":76561198168270939,"connected_time":1087000000000,"state":"active","ping":84},{"user_id":285,"name":"birchy","steam_id":76561198166697295,"connected_time":393000000000,"state":"active","ping":59},{"user_id":271,"name":"$kelly","steam_id":76561198195270894,"connected_time":907000000000,"state":"active","ping":75},{"user_id":284,"name":"noah","steam_id":76561198099457089,"connected_time":446000000000,"state":"active","ping":93},{"user_id":276,"name":"gart","steam_id":76561198203394358,"connected_time":842000000000,"state":"active","ping":103},{"user_id":272,"name":"WHUSSKEY","steam_id":76561198137827441,"connected_time":894000000000,"state":"active","ping":51},{"user_id":219,"name":"SynthBox3","steam_id":76561199094075745,"connected_time":4822000000000,"state":"active","ping":78},{"user_id":282,"name":"KingPotatoChips","steam_id":76561198035156465,"connected_time":531000000000,"state":"active","ping":54},{"user_id":286,"name":"Tigerd23","steam_id":76561198043050870,"connected_time":367000000000,"state":"active","ping":175},{"user_id":261,"name":"cricky","steam_id":76561198159428655,"connected_time":1307000000000,"state":"active","ping":67},{"user_id":242,"name":"Purrplehaze","steam_id":76561198297604298,"connected_time":2620000000000,"state":"active","ping":60},{"user_id":263,"name":"GMsU | Rebikas","steam_id":76561198077053764,"connected_time":1271000000000,"state":"active","ping":44},{"user_id":246,"name":"maxx","steam_id":76561198260625229,"connected_time":2400000000000,"state":"active","ping":59},{"user_id":277,"name":"cockroach","steam_id":76561198841841656,"connected_time":811000000000,"state":"active","ping":55},{"user_id":235,"name":"usuikui","steam_id":76561198093304268,"connected_time":3318000000000,"state":"active","ping":66},{"user_id":279,"name":"ugandan bruce le","steam_id":76561198826732598,"connected_time":720000000000,"state":"active","ping":69},{"user_id":287,"name":"r06u3","steam_id":76561198254099253,"connected_time":358000000000,"state":"active","ping":165},{"user_id":265,"name":"schizophrenic gaming","steam_id":76561198974055623,"connected_time":1233000000000,"state":"active","ping":120},{"user_id":289,"name":"Bonca","steam_id":76561198137503531,"connected_time":62000000000,"state":"active","ping":82}]},{"server_id":309,"name":"Uncletopia | Frankfurt | 4 | All Maps","name_short":"frk-4","host":"frk-1.de.uncletopia.com","port":27045,"enabled":true,"region":"eu","cc":"de","latitude":50.110924,"longitude":8.682127,"reserved":0,"last_update":"0001-01-01T00:00:00Z","name_a2s":"Uncletopia | Frankfurt | 4 | All Maps","protocol":17,"map":"koth_sawmill","folder":"tf","game":"Team Fortress","app_id":440,"player_count":21,"max_players":24,"Bots":0,"server_type":"Dedicated","server_os":"Linux","password":true,"vac":true,"version":"7961495","steam_id":85568392924504275,"keywords":["cp","nocrits","nodmgspread","uncletopia"],"game_id":440,"stv_port":27046,"stv_name":"Uncletopia | Frankfurt | 4 | All Maps | STV","players":[{"user_id":116,"name":"Notedgy0u0","steam_id":76561199067184738,"connected_time":2139000000000,"state":"active","ping":102},{"user_id":141,"name":"adam","steam_id":76561199024816404,"connected_time":160000000000,"state":"active","ping":73},{"user_id":124,"name":"begging for frags","steam_id":76561198044210844,"connected_time":1019000000000,"state":"active","ping":55},{"user_id":109,"name":"Big Trader","steam_id":76561197992364667,"connected_time":2250000000000,"state":"active","ping":49},{"user_id":127,"name":"st. pheenis hell","steam_id":76561198128250460,"connected_time":1000000000000,"state":"active","ping":88},{"user_id":142,"name":"G-Smokesz Gaming","steam_id":76561198278095231,"connected_time":147000000000,"state":"active","ping":58},{"user_id":103,"name":"Eyeball Sucker","steam_id":76561198195865734,"connected_time":3153000000000,"state":"active","ping":86},{"user_id":143,"name":"Katnor","steam_id":76561199141290973,"connected_time":141000000000,"state":"active","ping":67},{"user_id":106,"name":"spy","steam_id":76561199402711007,"connected_time":2433000000000,"state":"active","ping":116},{"user_id":108,"name":"TheOnlyRufio","steam_id":76561199201933811,"connected_time":2323000000000,"state":"active","ping":136},{"user_id":146,"name":"Heavy Duty","steam_id":76561198219594541,"connected_time":29000000000,"state":"active","ping":102},{"user_id":139,"name":"Absolute Murder Man","steam_id":76561198073920791,"connected_time":343000000000,"state":"active","ping":65},{"user_id":118,"name":"Edd","steam_id":76561198078741162,"connected_time":1998000000000,"state":"active","ping":75},{"user_id":144,"name":"Dr. Cox","steam_id":76561198246629218,"connected_time":134000000000,"state":"active","ping":101},{"user_id":134,"name":"Megafrox","steam_id":76561199091818724,"connected_time":729000000000,"state":"active","ping":107},{"user_id":131,"name":"PLSNO (RYAN)","steam_id":76561198086542505,"connected_time":937000000000,"state":"active","ping":75},{"user_id":132,"name":"StarDoc2222","steam_id":76561199389114520,"connected_time":872000000000,"state":"active","ping":138},{"user_id":117,"name":"y0stErCix","steam_id":76561198219698192,"connected_time":2133000000000,"state":"active","ping":71},{"user_id":98,"name":"yush","steam_id":76561198121688934,"connected_time":3577000000000,"state":"active","ping":76},{"user_id":120,"name":"Carry Krypl","steam_id":76561198136938121,"connected_time":1188000000000,"state":"active","ping":49},{"user_id":138,"name":"Jeryx","steam_id":76561197995602803,"connected_time":466000000000,"state":"active","ping":46}]},{"server_id":310,"name":"Uncletopia | Frankfurt | 5 | All Maps","name_short":"frk-5","host":"frk-1.de.uncletopia.com","port":27055,"enabled":true,"region":"eu","cc":"de","latitude":50.110924,"longitude":8.682127,"reserved":0,"last_update":"0001-01-01T00:00:00Z","name_a2s":"Uncletopia | Frankfurt | 5 | All Maps","protocol":17,"map":"pl_pier","folder":"tf","game":"Team Fortress","app_id":440,"player_count":24,"max_players":24,"Bots":0,"server_type":"Dedicated","server_os":"Linux","password":true,"vac":true,"version":"7961495","steam_id":85568392924504277,"keywords":["nocrits","nodmgspread","payload","uncletopia"],"game_id":440,"stv_port":27056,"stv_name":"Uncletopia | Frankfurt | 5 | All Maps | STV","players":[{"user_id":364,"name":"timmy.27","steam_id":76561198063296613,"connected_time":630000000000,"state":"active","ping":77},{"user_id":365,"name":"TSx* Bargal","steam_id":76561198040266872,"connected_time":623000000000,"state":"active","ping":59},{"user_id":369,"name":"TSx* Naxer","steam_id":76561198011986779,"connected_time":586000000000,"state":"active","ping":61},{"user_id":360,"name":"ItsSamson","steam_id":76561199074263107,"connected_time":731000000000,"state":"active","ping":61},{"user_id":367,"name":"Milo","steam_id":76561198407461881,"connected_time":615000000000,"state":"active","ping":57},{"user_id":342,"name":"Mr. Hunts","steam_id":76561197981910397,"connected_time":1505000000000,"state":"active","ping":75},{"user_id":362,"name":"literallyjasonx","steam_id":76561198835895387,"connected_time":689000000000,"state":"active","ping":72},{"user_id":380,"name":"Kriofty","steam_id":76561198811696536,"connected_time":133000000000,"state":"active","ping":82},{"user_id":379,"name":"The flying Drunksman","steam_id":76561198966358094,"connected_time":189000000000,"state":"active","ping":47},{"user_id":368,"name":"TSx* EmperoT","steam_id":76561198018656942,"connected_time":603000000000,"state":"active","ping":68},{"user_id":377,"name":"¬∞ ‚ó° ¬∞","steam_id":76561198865173364,"connected_time":444000000000,"state":"active","ping":93},{"user_id":378,"name":"Joo ‚ô¶","steam_id":76561197987609203,"connected_time":380000000000,"state":"active","ping":75},{"user_id":336,"name":"Ixion","steam_id":76561198041660675,"connected_time":1657000000000,"state":"active","ping":75},{"user_id":352,"name":"peppersalt","steam_id":76561198320880064,"connected_time":926000000000,"state":"active","ping":90},{"user_id":353,"name":"Alyx","steam_id":76561198064654326,"connected_time":916000000000,"state":"active","ping":62},{"user_id":340,"name":"ZID","steam_id":76561198214099068,"connected_time":1587000000000,"state":"active","ping":89},{"user_id":376,"name":"TSx* Dante","steam_id":76561198139309331,"connected_time":481000000000,"state":"active","ping":66},{"user_id":372,"name":"TSx* Osa__PL","steam_id":76561198027016799,"connected_time":578000000000,"state":"active","ping":61},{"user_id":224,"name":"john fortress","steam_id":76561198013237629,"connected_time":8906000000000,"state":"active","ping":115},{"user_id":322,"name":"Clusterfart","steam_id":76561198150242043,"connected_time":2460000000000,"state":"active","ping":150},{"user_id":332,"name":"Agnolotti","steam_id":76561198038827937,"connected_time":1868000000000,"state":"active","ping":63},{"user_id":356,"name":"Turek","steam_id":76561198280066503,"connected_time":871000000000,"state":"active","ping":70},{"user_id":374,"name":"VIN WEASEL","steam_id":76561198014387066,"connected_time":563000000000,"state":"active","ping":49},{"user_id":375,"name":"zebulon","steam_id":76561198384683504,"connected_time":536000000000,"state":"active","ping":45}]},{"server_id":311,"name":"Uncletopia | Frankfurt | 6 | All Maps","name_short":"frk-6","host":"frk-1.de.uncletopia.com","port":27065,"enabled":true,"region":"eu","cc":"de","latitude":50.110924,"longitude":8.682127,"reserved":0,"last_update":"0001-01-01T00:00:00Z","name_a2s":"Uncletopia | Frankfurt | 6 | All Maps","protocol":17,"map":"pl_badwater","folder":"tf","game":"Team Fortress","app_id":440,"player_count":24,"max_players":24,"Bots":0,"server_type":"Dedicated","server_os":"Linux","password":true,"vac":true,"version":"7961495","steam_id":85568392924504278,"keywords":["nocrits","nodmgspread","payload","uncletopia"],"game_id":440,"stv_port":27066,"stv_name":"Uncletopia | Frankfurt | 6 | All Maps | STV","players":[{"user_id":239,"name":"Hej soko≈Çy!","steam_id":76561198406300604,"connected_time":234000000000,"state":"active","ping":69},{"user_id":237,"name":"stegosaurus sex","steam_id":76561199120843402,"connected_time":260000000000,"state":"active","ping":45},{"user_id":235,"name":"pip","steam_id":76561198089560908,"connected_time":300000000000,"state":"active","ping":90},{"user_id":177,"name":"Olaznot","steam_id":76561199111472610,"connected_time":3546000000000,"state":"active","ping":75},{"user_id":233,"name":"Armed Monkey","steam_id":76561197993681829,"connected_time":349000000000,"state":"active","ping":56},{"user_id":236,"name":"diarrea inoculada 2000","steam_id":76561198412197820,"connected_time":299000000000,"state":"active","ping":73},{"user_id":210,"name":"[P-roc] Cmm Bert","steam_id":76561198016658674,"connected_time":1841000000000,"state":"active","ping":48},{"user_id":186,"name":"SirVitek","steam_id":76561198142961758,"connected_time":3266000000000,"state":"active","ping":52},{"user_id":225,"name":"Isaac Boush","steam_id":76561198179746529,"connected_time":1056000000000,"state":"active","ping":61},{"user_id":221,"name":"Taez","steam_id":76561198261820803,"connected_time":1385000000000,"state":"active","ping":61},{"user_id":187,"name":"a good guy","steam_id":76561199046855105,"connected_time":3152000000000,"state":"active","ping":85},{"user_id":238,"name":"Domcxz","steam_id":76561198291703984,"connected_time":248000000000,"state":"active","ping":61},{"user_id":204,"name":"Gaxkang","steam_id":76561198125768571,"connected_time":2398000000000,"state":"active","ping":59},{"user_id":166,"name":"After8","steam_id":76561198090750865,"connected_time":4142000000000,"state":"active","ping":60},{"user_id":212,"name":"drearyplane8","steam_id":76561198216074509,"connected_time":1826000000000,"state":"active","ping":42},{"user_id":214,"name":"HRTV","steam_id":76561198978457123,"connected_time":1727000000000,"state":"active","ping":84},{"user_id":240,"name":"what the œ°","steam_id":76561198139303045,"connected_time":229000000000,"state":"active","ping":83},{"user_id":241,"name":"Kahvi","steam_id":76561198723244199,"connected_time":216000000000,"state":"active","ping":87},{"user_id":242,"name":"Krabs","steam_id":76561198161679477,"connected_time":211000000000,"state":"active","ping":57},{"user_id":119,"name":"potato","steam_id":76561199466718294,"connected_time":6496000000000,"state":"active","ping":64},{"user_id":223,"name":"GentleBot","steam_id":76561198310527981,"connected_time":1225000000000,"state":"active","ping":136},{"user_id":227,"name":"Sholunan","steam_id":76561198062435739,"connected_time":958000000000,"state":"active","ping":56},{"user_id":229,"name":"General Dummkopfs","steam_id":76561198071315425,"connected_time":820000000000,"state":"active","ping":59},{"user_id":244,"name":"cazador","steam_id":76561198123096922,"connected_time":64000000000,"state":"active","ping":94}]},{"server_id":23,"name":"Uncletopia | Frankfurt | 7 | Stopwatch","name_short":"frk-7","host":"frk-1.de.uncletopia.com","port":27075,"enabled":true,"region":"eu","cc":"de","latitude":50.110924,"longitude":8.682127,"reserved":0,"last_update":"0001-01-01T00:00:00Z","name_a2s":"Uncletopia | Frankfurt | 7 | Stopwatch","protocol":17,"map":"workshop/koth_product_final.ugc454272353","folder":"tf","game":"Team Fortress","app_id":440,"player_count":0,"max_players":24,"Bots":0,"server_type":"Dedicated","server_os":"Linux","password":true,"vac":true,"version":"7961495","steam_id":85568392924742827,"keywords":["cp","nocrits","nodmgspread","uncletopia"],"game_id":440,"stv_port":27076,"stv_name":"Uncletopia | Frankfurt | 7 | Stopwatch | STV","players":null},{"server_id":24,"name":"Uncletopia | Frankfurt | 8 | Community","name_short":"frk-8","host":"frk-1.de.uncletopia.com","port":27085,"enabled":true,"region":"eu","cc":"de","latitude":50.110924,"longitude":8.682127,"reserved":0,"last_update":"0001-01-01T00:00:00Z","name_a2s":"Uncletopia | Frankfurt | 8 | Community","protocol":17,"map":"workshop/koth_trenchfoot_ab1.ugc731436616","folder":"tf","game":"Team Fortress","app_id":440,"player_count":3,"max_players":24,"Bots":0,"server_type":"Dedicated","server_os":"Linux","password":true,"vac":true,"version":"7961495","steam_id":85568392924742828,"keywords":["cp","nocrits","nodmgspread","uncletopia"],"game_id":440,"stv_port":27086,"stv_name":"Uncletopia | Frankfurt | 8 | Community | STV","players":[{"user_id":18,"name":"RootqitGHG","steam_id":76561199198399363,"connected_time":67000000000,"state":"active","ping":54},{"user_id":12,"name":"FanFish","steam_id":76561199389558024,"connected_time":1154000000000,"state":"active","ping":60},{"user_id":13,"name":"Fire Moon","steam_id":76561198145916155,"connected_time":1127000000000,"state":"active","ping":54}]},{"server_id":202,"name":"Uncletopia | Hong Kong | 1 | All Maps","name_short":"hgk-1","host":"hgk-1.hk.uncletopia.com","port":27015,"enabled":true,"region":"asia","cc":"hk","latitude":22.302711,"longitude":114.177216,"reserved":0,"last_update":"0001-01-01T00:00:00Z","name_a2s":"Uncletopia | Hong Kong | 1 | All Maps","protocol":17,"map":"cp_process_final","folder":"tf","game":"Team Fortress","app_id":440,"player_count":0,"max_players":24,"Bots":0,"server_type":"Dedicated","server_os":"Linux","password":true,"vac":true,"version":"7961495","steam_id":85568392924494504,"keywords":["cp","nocrits","nodmgspread","uncletopia"],"game_id":440,"stv_port":27016,"stv_name":"Uncletopia | Hong Kong | 1 | All Maps | STV","players":null},{"server_id":1,"name":"Uncletopia | Los Angeles | 1 | All Maps","name_short":"lax-1","host":"lax-1.us.uncletopia.com","port":27015,"enabled":true,"region":"us-west","cc":"us","latitude":33.94279,"longitude":-118.41004,"reserved":0,"last_update":"0001-01-01T00:00:00Z","name_a2s":"Uncletopia | Los Angeles | 1 | All Maps","protocol":17,"map":"koth_highpass","folder":"tf","game":"Team Fortress","app_id":440,"player_count":0,"max_players":24,"Bots":0,"server_type":"Dedicated","server_os":"Linux","password":true,"vac":true,"version":"7961495","steam_id":85568392924469991,"keywords":["cp","nocrits","nodmgspread","uncletopia"],"game_id":440,"stv_port":27016,"stv_name":"Uncletopia | Los Angeles | 1 | All Maps | STV","players":null},{"server_id":112,"name":"Uncletopia | Los Angeles | 2 | All Maps","name_short":"lax-2","host":"lax-1.us.uncletopia.com","port":27025,"enabled":true,"region":"us-west","cc":"us","latitude":33.94279,"longitude":-118.41004,"reserved":0,"last_update":"0001-01-01T00:00:00Z","name_a2s":"Uncletopia | Los Angeles | 2 | All Maps","protocol":17,"map":"koth_cascade","folder":"tf","game":"Team Fortress","app_id":440,"player_count":0,"max_players":24,"Bots":0,"server_type":"Dedicated","server_os":"Linux","password":true,"vac":true,"version":"7961495","steam_id":85568392924469992,"keywords":["cp","nocrits","nodmgspread","uncletopia"],"game_id":440,"stv_port":27026,"stv_name":"Uncletopia | Los Angeles | 2 | All Maps | STV","players":null},{"server_id":324,"name":"Uncletopia | Los Angeles | 3 | All Maps","name_short":"lax-3","host":"lax-1.us.uncletopia.com","port":27035,"enabled":true,"region":"us-west","cc":"us","latitude":33.94279,"longitude":-118.41004,"reserved":0,"last_update":"0001-01-01T00:00:00Z","name_a2s":"Uncletopia | Los Angeles | 3 | All Maps","protocol":17,"map":"pl_hoodoo_final","folder":"tf","game":"Team Fortress","app_id":440,"player_count":0,"max_players":24,"Bots":0,"server_type":"Dedicated","server_os":"Linux","password":true,"vac":true,"version":"7961495","steam_id":85568392924510198,"keywords":["nocrits","nodmgspread","payload","uncletopia"],"game_id":440,"stv_port":27036,"stv_name":"Uncletopia | Los Angeles | 3 | All Maps | STV","players":null},{"server_id":25,"name":"Uncletopia | Los Angeles | 4 | Stopwatch","name_short":"lax-4","host":"lax-1.us.uncletopia.com","port":27045,"enabled":true,"region":"us-west","cc":"us","latitude":33.94279,"longitude":-118.41004,"reserved":0,"last_update":"0001-01-01T00:00:00Z","name_a2s":"Uncletopia | Los Angeles | 4 | Stopwatch","protocol":17,"map":"pl_upward","folder":"tf","game":"Team Fortress","app_id":440,"player_count":0,"max_players":24,"Bots":0,"server_type":"Dedicated","server_os":"Linux","password":true,"vac":true,"version":"7961495","steam_id":85568392924510199,"keywords":["nocrits","nodmgspread","payload","uncletopia"],"game_id":440,"stv_port":27046,"stv_name":"Uncletopia | Los Angeles | 4 | Stopwatch | STV","players":null},{"server_id":11,"name":"Uncletopia | London | 1 | All Maps","name_short":"lon-1","host":"lon-1.uk.uncletopia.com","port":27015,"enabled":true,"region":"eu","cc":"gb","latitude":51.509865,"longitude":-0.118092,"reserved":0,"last_update":"0001-01-01T00:00:00Z","name_a2s":"Uncletopia | London | 1 | All Maps","protocol":17,"map":"cp_snakewater_final1","folder":"tf","game":"Team Fortress","app_id":440,"player_count":25,"max_players":24,"Bots":0,"server_type":"Dedicated","server_os":"Linux","password":true,"vac":true,"version":"7961495","steam_id":85568392924367362,"keywords":["cp","nocrits","nodmgspread","uncletopia"],"game_id":440,"stv_port":27016,"stv_name":"Uncletopia | London | 1 | All Maps | STV","players":[{"user_id":503,"name":"doktor spiele","steam_id":76561199057953617,"connected_time":35000000000,"state":"active","ping":60},{"user_id":467,"name":"Slifer the Furry Warrior","steam_id":76561198062255803,"connected_time":1261000000000,"state":"active","ping":90},{"user_id":473,"name":"Mr.Teenie","steam_id":76561198207640319,"connected_time":726000000000,"state":"active","ping":41},{"user_id":458,"name":"hqdefault.png","steam_id":76561198106049954,"connected_time":1430000000000,"state":"active","ping":76},{"user_id":455,"name":"Lyra","steam_id":76561198043601838,"connected_time":1441000000000,"state":"active","ping":60},{"user_id":242,"name":"magÃ∂pÃ∂iÃ∂e ‚úø","steam_id":76561198797266244,"connected_time":15860000000000,"state":"active","ping":74},{"user_id":463,"name":"png.png","steam_id":76561198444446521,"connected_time":1328000000000,"state":"active","ping":97},{"user_id":475,"name":"DDO1","steam_id":76561198348234399,"connected_time":682000000000,"state":"active","ping":45},{"user_id":482,"name":"waahh im baby gugu gaga im cry","steam_id":76561198190583242,"connected_time":498000000000,"state":"active","ping":103},{"user_id":443,"name":"Artemis","steam_id":76561198199091801,"connected_time":2295000000000,"state":"active","ping":53},{"user_id":462,"name":"Purple Soup :D","steam_id":76561198985100366,"connected_time":1400000000000,"state":"active","ping":80},{"user_id":406,"name":"Time traveler","steam_id":76561199262658394,"connected_time":7142000000000,"state":"active","ping":93},{"user_id":437,"name":"rigel_","steam_id":76561198148640847,"connected_time":3064000000000,"state":"active","ping":83},{"user_id":456,"name":"Laru","steam_id":76561197998838438,"connected_time":1440000000000,"state":"active","ping":86},{"user_id":484,"name":"rob","steam_id":76561198122211848,"connected_time":421000000000,"state":"active","ping":92},{"user_id":421,"name":"sloppy transgirl toppy","steam_id":76561198057092208,"connected_time":5254000000000,"state":"active","ping":66},{"user_id":471,"name":"Archer","steam_id":76561197994239444,"connected_time":910000000000,"state":"active","ping":104},{"user_id":481,"name":"Pterodactyl P. Jones","steam_id":76561198017513012,"connected_time":575000000000,"state":"active","ping":43},{"user_id":485,"name":"MrXtr","steam_id":76561198966247397,"connected_time":374000000000,"state":"active","ping":54},{"user_id":446,"name":"Mr Boombastic","steam_id":76561199188883519,"connected_time":2090000000000,"state":"active","ping":45},{"user_id":506,"name":"[KZ] TenGr1_G4m3r","steam_id":76561198107460765,"connected_time":5000000000,"state":"spawning","ping":334},{"user_id":395,"name":"clunk","steam_id":76561198836460767,"connected_time":7928000000000,"state":"active","ping":74},{"user_id":417,"name":"suna militisto","steam_id":76561198352926998,"connected_time":5772000000000,"state":"active","ping":105},{"user_id":477,"name":"Hox","steam_id":76561198977801115,"connected_time":674000000000,"state":"active","ping":88},{"user_id":454,"name":"‚ù§ [HoneyBe_] ‚ù§","steam_id":76561198288930154,"connected_time":1451000000000,"state":"active","ping":57}]},{"server_id":114,"name":"Uncletopia | London | 2 | All Maps","name_short":"lon-2","host":"lon-1.uk.uncletopia.com","port":27025,"enabled":true,"region":"eu","cc":"gb","latitude":51.509865,"longitude":-0.118092,"reserved":0,"last_update":"0001-01-01T00:00:00Z","name_a2s":"Uncletopia | London | 2 | All Maps","protocol":17,"map":"koth_viaduct","folder":"tf","game":"Team Fortress","app_id":440,"player_count":0,"max_players":24,"Bots":0,"server_type":"Dedicated","server_os":"Linux","password":true,"vac":true,"version":"7961495","steam_id":85568392924470941,"keywords":["cp","nocrits","nodmgspread","uncletopia"],"game_id":440,"stv_port":27026,"stv_name":"Uncletopia | London | 2 | All Maps | STV","players":null},{"server_id":320,"name":"Uncletopia | London | 3 | All Maps","name_short":"lon-3","host":"lon-1.uk.uncletopia.com","port":27035,"enabled":true,"region":"eu","cc":"gb","latitude":51.509865,"longitude":-0.118092,"reserved":0,"last_update":"0001-01-01T00:00:00Z","name_a2s":"Uncletopia | London | 3 | All Maps","protocol":17,"map":"pl_upward","folder":"tf","game":"Team Fortress","app_id":440,"player_count":24,"max_players":24,"Bots":0,"server_type":"Dedicated","server_os":"Linux","password":true,"vac":true,"version":"7961495","steam_id":85568392924510192,"keywords":["nocrits","nodmgspread","payload","uncletopia"],"game_id":440,"stv_port":27036,"stv_name":"Uncletopia | London | 3 | All Maps | STV","players":[{"user_id":16,"name":"B‚àûp | ‚ù§Fasto‚ù§","steam_id":76561198118298527,"connected_time":5445000000000,"state":"active","ping":49},{"user_id":17,"name":"B‚àûp | ‚ù§Hina‚ù§","steam_id":76561198058465921,"connected_time":5419000000000,"state":"active","ping":50},{"user_id":111,"name":"Glorious Leader Xi Jinping","steam_id":76561198293811839,"connected_time":87000000000,"state":"active","ping":45},{"user_id":110,"name":"Tankedup_","steam_id":76561198168659251,"connected_time":126000000000,"state":"active","ping":43},{"user_id":26,"name":"woople","steam_id":76561198076625889,"connected_time":4502000000000,"state":"active","ping":77},{"user_id":107,"name":"Personano","steam_id":76561198994355577,"connected_time":417000000000,"state":"active","ping":49},{"user_id":100,"name":"Loaf","steam_id":76561198111670210,"connected_time":883000000000,"state":"active","ping":48},{"user_id":82,"name":"Tavish","steam_id":76561197971486686,"connected_time":1559000000000,"state":"active","ping":50},{"user_id":76,"name":"9c","steam_id":76561198315632083,"connected_time":1819000000000,"state":"active","ping":82},{"user_id":71,"name":"smoker66","steam_id":76561199333678263,"connected_time":2202000000000,"state":"active","ping":67},{"user_id":102,"name":"xian1800","steam_id":76561198187136602,"connected_time":839000000000,"state":"active","ping":67},{"user_id":44,"name":"Froenzi","steam_id":76561198168841723,"connected_time":3284000000000,"state":"active","ping":54},{"user_id":106,"name":"stepbro","steam_id":76561198119607160,"connected_time":595000000000,"state":"active","ping":79},{"user_id":109,"name":"Rui","steam_id":76561198263735498,"connected_time":157000000000,"state":"active","ping":93},{"user_id":88,"name":"Kiogeki","steam_id":76561197996707843,"connected_time":1221000000000,"state":"active","ping":79},{"user_id":42,"name":"meatsoupcube","steam_id":76561198276802249,"connected_time":3322000000000,"state":"active","ping":102},{"user_id":96,"name":"¬°!Ulexos!¬°","steam_id":76561198087502998,"connected_time":1085000000000,"state":"active","ping":60},{"user_id":64,"name":"KLAMA  ‚ù§","steam_id":76561198351549661,"connected_time":2377000000000,"state":"active","ping":75},{"user_id":78,"name":"yipieeee :DDD","steam_id":76561198076219289,"connected_time":1774000000000,"state":"active","ping":58},{"user_id":66,"name":"boneez","steam_id":76561198186800982,"connected_time":2295000000000,"state":"active","ping":58},{"user_id":51,"name":"Basketball","steam_id":76561198412009389,"connected_time":2977000000000,"state":"active","ping":46},{"user_id":89,"name":"eMcP","steam_id":76561198382509396,"connected_time":1153000000000,"state":"active","ping":56},{"user_id":80,"name":"Majima gaming tf2","steam_id":76561198325645019,"connected_time":1707000000000,"state":"active","ping":68},{"user_id":99,"name":"5UP3R TH30 B4G","steam_id":76561198852348375,"connected_time":979000000000,"state":"active","ping":46}]},{"server_id":321,"name":"Uncletopia | London | 4 | All Maps","name_short":"lon-4","host":"lon-1.uk.uncletopia.com","port":27045,"enabled":true,"region":"eu","cc":"gb","latitude":51.509865,"longitude":-0.118092,"reserved":0,"last_update":"0001-01-01T00:00:00Z","name_a2s":"Uncletopia | London | 4 | All Maps","protocol":17,"map":"cp_steel","folder":"tf","game":"Team Fortress","app_id":440,"player_count":24,"max_players":24,"Bots":0,"server_type":"Dedicated","server_os":"Linux","password":true,"vac":true,"version":"7961495","steam_id":85568392924510193,"keywords":["cp","nocrits","nodmgspread","uncletopia"],"game_id":440,"stv_port":27046,"stv_name":"Uncletopia | London | 4 | All Maps | STV","players":[{"user_id":255,"name":"Doktor Glas","steam_id":76561198075963840,"connected_time":295000000000,"state":"active","ping":61},{"user_id":192,"name":"El_Kommadante","steam_id":76561198079551685,"connected_time":3624000000000,"state":"active","ping":41},{"user_id":223,"name":"Tryrn","steam_id":76561198075487436,"connected_time":2336000000000,"state":"active","ping":85},{"user_id":241,"name":"xeri","steam_id":76561198058928752,"connected_time":1339000000000,"state":"active","ping":51},{"user_id":261,"name":"jude","steam_id":76561198979036031,"connected_time":64000000000,"state":"active","ping":40},{"user_id":249,"name":"Dispenser(Dispenser)","steam_id":76561199211831658,"connected_time":691000000000,"state":"active","ping":45},{"user_id":259,"name":"I jazzed myself","steam_id":76561198203016603,"connected_time":245000000000,"state":"active","ping":47},{"user_id":233,"name":"The Medic Revolution","steam_id":76561198435297875,"connected_time":1904000000000,"state":"active","ping":41},{"user_id":218,"name":"Czechmated","steam_id":76561198075648001,"connected_time":2468000000000,"state":"active","ping":56},{"user_id":189,"name":"GO BANANAS","steam_id":76561198845046853,"connected_time":4054000000000,"state":"active","ping":49},{"user_id":193,"name":"Marukuso","steam_id":76561198154229845,"connected_time":3480000000000,"state":"active","ping":60},{"user_id":226,"name":"Blar","steam_id":76561198042438229,"connected_time":2244000000000,"state":"active","ping":44},{"user_id":230,"name":"Random Romain","steam_id":76561198355825319,"connected_time":2033000000000,"state":"active","ping":56},{"user_id":234,"name":"walter","steam_id":76561198021950957,"connected_time":1898000000000,"state":"active","ping":95},{"user_id":256,"name":"LAKAKA","steam_id":76561199187453820,"connected_time":292000000000,"state":"active","ping":154},{"user_id":235,"name":"Cg Studios","steam_id":76561198286908002,"connected_time":1857000000000,"state":"active","ping":44},{"user_id":248,"name":"Lark","steam_id":76561198066937447,"connected_time":836000000000,"state":"active","ping":93},{"user_id":260,"name":"MEGOS","steam_id":76561198172740637,"connected_time":76000000000,"state":"active","ping":62},{"user_id":246,"name":"Mathieu.","steam_id":76561198039268163,"connected_time":1199000000000,"state":"active","ping":60},{"user_id":204,"name":"Fatmagic Mukbang ASMR","steam_id":76561198063492110,"connected_time":3022000000000,"state":"active","ping":73},{"user_id":201,"name":"Th3Celestial","steam_id":76561198353312252,"connected_time":3278000000000,"state":"active","ping":45},{"user_id":191,"name":"Sham!","steam_id":76561198050434275,"connected_time":3743000000000,"state":"active","ping":59},{"user_id":258,"name":"Labracababrador","steam_id":76561198255280285,"connected_time":265000000000,"state":"active","ping":62},{"user_id":253,"name":"not poggers","steam_id":76561198237631092,"connected_time":465000000000,"state":"active","ping":79}]},{"server_id":21,"name":"Uncletopia | London | 5 | All Maps","name_short":"lon-5","host":"lon-1.uk.uncletopia.com","port":27055,"enabled":true,"region":"eu","cc":"gb","latitude":51.509865,"longitude":-0.118092,"reserved":0,"last_update":"0001-01-01T00:00:00Z","name_a2s":"Uncletopia | London | 5 | All Maps","protocol":17,"map":"cp_steel","folder":"tf","game":"Team Fortress","app_id":440,"player_count":24,"max_players":24,"Bots":0,"server_type":"Dedicated","server_os":"Linux","password":true,"vac":true,"version":"7961495","steam_id":85568392924742829,"keywords":["cp","nocrits","nodmgspread","uncletopia"],"game_id":440,"stv_port":27056,"stv_name":"Uncletopia | London | 5 | All Maps | STV","players":[{"user_id":97,"name":"Lwyz016","steam_id":76561199164626058,"connected_time":3516000000000,"state":"active","ping":70},{"user_id":164,"name":"Greasy","steam_id":76561198868180366,"connected_time":517000000000,"state":"active","ping":59},{"user_id":93,"name":"compact disc","steam_id":76561198154677956,"connected_time":4169000000000,"state":"active","ping":74},{"user_id":158,"name":"plutoboi","steam_id":76561199471752188,"connected_time":757000000000,"state":"active","ping":42},{"user_id":143,"name":"Burpman","steam_id":76561198022897937,"connected_time":1878000000000,"state":"active","ping":48},{"user_id":173,"name":"Armored","steam_id":76561198267449130,"connected_time":64000000000,"state":"active","ping":68},{"user_id":96,"name":",","steam_id":76561199383437138,"connected_time":3554000000000,"state":"active","ping":121},{"user_id":170,"name":"procionestorto","steam_id":76561199218389634,"connected_time":198000000000,"state":"active","ping":85},{"user_id":166,"name":"cislastar","steam_id":76561198027202375,"connected_time":393000000000,"state":"active","ping":53},{"user_id":161,"name":"Silverguy","steam_id":76561198261509394,"connected_time":649000000000,"state":"active","ping":148},{"user_id":171,"name":"YT-Alex29","steam_id":76561199057757290,"connected_time":190000000000,"state":"active","ping":184},{"user_id":144,"name":"NESS","steam_id":76561197995225318,"connected_time":1784000000000,"state":"active","ping":48},{"user_id":157,"name":"Franco.2509","steam_id":76561198140662407,"connected_time":793000000000,"state":"active","ping":83},{"user_id":148,"name":"pierogi","steam_id":76561198718760200,"connected_time":1544000000000,"state":"active","ping":59},{"user_id":108,"name":"please do not the cat","steam_id":76561198089003514,"connected_time":2792000000000,"state":"active","ping":52},{"user_id":132,"name":"Bullet magnet (FIN)","steam_id":76561197975715220,"connected_time":2104000000000,"state":"active","ping":76},{"user_id":149,"name":"7 7","steam_id":76561198190663138,"connected_time":1535000000000,"state":"active","ping":102},{"user_id":167,"name":"Lofi_on_Hifi","steam_id":76561198131011868,"connected_time":383000000000,"state":"active","ping":96},{"user_id":169,"name":"Dr. Love [Tosh]","steam_id":76561198040614926,"connected_time":278000000000,"state":"active","ping":60},{"user_id":109,"name":"callthecounselortonight","steam_id":76561198236015392,"connected_time":2786000000000,"state":"active","ping":117},{"user_id":159,"name":"rkmidda","steam_id":76561199038785662,"connected_time":755000000000,"state":"active","ping":44},{"user_id":160,"name":"kirbdogg231","steam_id":76561197984927439,"connected_time":733000000000,"state":"active","ping":46},{"user_id":32,"name":"Zombieslayer","steam_id":76561198407877826,"connected_time":8013000000000,"state":"active","ping":145},{"user_id":140,"name":"dools18","steam_id":76561198880768062,"connected_time":1993000000000,"state":"active","ping":58}]},{"server_id":22,"name":"Uncletopia | London | 6 | All Maps","name_short":"lon-6","host":"lon-1.uk.uncletopia.com","port":27065,"enabled":true,"region":"eu","cc":"gb","latitude":51.509865,"longitude":-0.118092,"reserved":0,"last_update":"0001-01-01T00:00:00Z","name_a2s":"Uncletopia | London | 6 | All Maps","protocol":17,"map":"koth_highpass","folder":"tf","game":"Team Fortress","app_id":440,"player_count":1,"max_players":24,"Bots":0,"server_type":"Dedicated","server_os":"Linux","password":true,"vac":true,"version":"7961495","steam_id":85568392924742830,"keywords":["cp","nocrits","nodmgspread","uncletopia"],"game_id":440,"stv_port":27066,"stv_name":"Uncletopia | London | 6 | All Maps | STV","players":[{"user_id":23,"name":"Rejdory","steam_id":76561198416604100,"connected_time":84000000000,"state":"active","ping":60}]},{"server_id":40,"name":"Uncletopia | London | 7 | Stopwatch","name_short":"lon-7","host":"lon-1.uk.uncletopia.com","port":27075,"enabled":true,"region":"eu","cc":"gb","latitude":51.509865,"longitude":-0.118092,"reserved":0,"last_update":"0001-01-01T00:00:00Z","name_a2s":"Uncletopia | London | 7 | Stopwatch","protocol":17,"map":"workshop/pl_vigil_rc10.ugc1266210012","folder":"tf","game":"Team Fortress","app_id":440,"player_count":0,"max_players":24,"Bots":0,"server_type":"Dedicated","server_os":"Linux","password":true,"vac":true,"version":"7961495","steam_id":85568392924964314,"keywords":["nocrits","nodmgspread","payload","uncletopia"],"game_id":440,"stv_port":27076,"stv_name":"Uncletopia | London | 7 | Stopwatch | STV","players":null},{"server_id":41,"name":"Uncletopia | London | 8 | Community","name_short":"lon-8","host":"lon-1.uk.uncletopia.com","port":27085,"enabled":true,"region":"eu","cc":"gb","latitude":51.509865,"longitude":-0.118092,"reserved":0,"last_update":"0001-01-01T00:00:00Z","name_a2s":"Uncletopia | London | 8 | Community","protocol":17,"map":"workshop/cp_propaganda_b18.ugc1603743849","folder":"tf","game":"Team Fortress","app_id":440,"player_count":18,"max_players":24,"Bots":0,"server_type":"Dedicated","server_os":"Linux","password":true,"vac":true,"version":"7961495","steam_id":85568392924964315,"keywords":["cp","nocrits","nodmgspread","uncletopia"],"game_id":440,"stv_port":27086,"stv_name":"Uncletopia | London | 8 | Community | STV","players":[{"user_id":5,"name":"CheezusOfNazareth","steam_id":76561199093893813,"connected_time":2700000000000,"state":"active","ping":50},{"user_id":6,"name":"Dragonknight","steam_id":76561198080527208,"connected_time":2665000000000,"state":"active","ping":53},{"user_id":8,"name":"Space_Fennik","steam_id":76561198199571111,"connected_time":1654000000000,"state":"active","ping":62},{"user_id":27,"name":"Blue Bomb","steam_id":76561198963990989,"connected_time":17000000000,"state":"spawning","ping":363},{"user_id":10,"name":"Moondrop","steam_id":76561199421181719,"connected_time":1297000000000,"state":"active","ping":53},{"user_id":14,"name":"yuno appreciator","steam_id":76561198083286511,"connected_time":793000000000,"state":"active","ping":44},{"user_id":15,"name":"Trigster","steam_id":76561198062134705,"connected_time":601000000000,"state":"active","ping":38},{"user_id":16,"name":"hans","steam_id":76561198288069556,"connected_time":441000000000,"state":"active","ping":79},{"user_id":17,"name":"ECB","steam_id":76561197993401580,"connected_time":348000000000,"state":"active","ping":43},{"user_id":18,"name":"Green‚Ñ¢","steam_id":76561198136522734,"connected_time":336000000000,"state":"active","ping":106},{"user_id":19,"name":"Athudanu","steam_id":76561198052881337,"connected_time":294000000000,"state":"active","ping":49},{"user_id":20,"name":"Tnig","steam_id":76561197979225325,"connected_time":291000000000,"state":"active","ping":136},{"user_id":21,"name":"\u003e\u003c\u003e","steam_id":76561198152392309,"connected_time":251000000000,"state":"active","ping":45},{"user_id":22,"name":"That_One_Useless_Guy","steam_id":76561199122356477,"connected_time":234000000000,"state":"active","ping":49},{"user_id":28,"name":"Johnathan","steam_id":76561199137188824,"connected_time":11000000000,"state":"spawning","ping":169},{"user_id":24,"name":"Skunqu_","steam_id":76561198075654523,"connected_time":90000000000,"state":"active","ping":53},{"user_id":25,"name":"extrableu99","steam_id":76561199465342124,"connected_time":77000000000,"state":"active","ping":38},{"user_id":26,"name":"Endy","steam_id":76561198252942184,"connected_time":48000000000,"state":"active","ping":105}]},{"server_id":300,"name":"Uncletopia | Montr√©al | 1 | One Thousand Uncles","name_short":"mtl-1","host":"mtl-1.ca.uncletopia.com","port":27015,"enabled":true,"region":"us-east","cc":"ca","latitude":45.50889,"longitude":-73.56167,"reserved":0,"last_update":"0001-01-01T00:00:00Z","name_a2s":"Uncletopia | Montr√©al | 1 | One Thousand Uncles","protocol":17,"map":"pl_chilly","folder":"tf","game":"Team Fortress","app_id":440,"player_count":0,"max_players":32,"Bots":0,"server_type":"Dedicated","server_os":"Linux","password":true,"vac":true,"version":"7961495","steam_id":85568392924500087,"keywords":["alltalk","danepve","increased_maxplayers","norespawntime","payload","uncletopia"],"game_id":440,"stv_port":0,"stv_name":"","players":null},{"server_id":301,"name":"Uncletopia | Montr√©al | 2 | One Thousand Uncles","name_short":"mtl-2","host":"mtl-1.ca.uncletopia.com","port":27025,"enabled":true,"region":"us-east","cc":"ca","latitude":45.50889,"longitude":-73.56167,"reserved":0,"last_update":"0001-01-01T00:00:00Z","name_a2s":"Uncletopia | Montr√©al | 2 | One Thousand Uncles","protocol":17,"map":"pl_chilly","folder":"tf","game":"Team Fortress","app_id":440,"player_count":0,"max_players":32,"Bots":0,"server_type":"Dedicated","server_os":"Linux","password":true,"vac":true,"version":"7961495","steam_id":85568392924500088,"keywords":["alltalk","danepve","increased_maxplayers","norespawntime","payload","uncletopia"],"game_id":440,"stv_port":0,"stv_name":"","players":null},{"server_id":302,"name":"Uncletopia | Montr√©al | 3 | One Thousand Uncles","name_short":"mtl-3","host":"mtl-1.ca.uncletopia.com","port":27035,"enabled":true,"region":"us-east","cc":"ca","latitude":45.50889,"longitude":-73.56167,"reserved":0,"last_update":"0001-01-01T00:00:00Z","name_a2s":"Uncletopia | Montr√©al | 3 | One Thousand Uncles","protocol":17,"map":"pl_upward","folder":"tf","game":"Team Fortress","app_id":440,"player_count":18,"max_players":32,"Bots":16,"server_type":"Dedicated","server_os":"Linux","password":true,"vac":true,"version":"7961495","steam_id":85568392924500089,"keywords":["alltalk","bots","danepve","increased_maxplayers","norespawntime","payload","uncletopia"],"game_id":440,"stv_port":0,"stv_name":"","players":[{"user_id":22,"name":"Why not Zoidberg?","steam_id":76561197982207556,"connected_time":1115000000000,"state":"active","ping":75},{"user_id":30,"name":"joaolaratait","steam_id":76561199075783585,"connected_time":449000000000,"state":"active","ping":225}]},{"server_id":13,"name":"Uncletopia | New York City | 1 | All Maps","name_short":"nyc-1","host":"nyc-1.us.uncletopia.com","port":27015,"enabled":true,"region":"us-east","cc":"us","latitude":40.73061,"longitude":-73.93524,"reserved":0,"last_update":"0001-01-01T00:00:00Z","name_a2s":"Uncletopia | New York City | 1 | All Maps","protocol":17,"map":"cp_dustbowl","folder":"tf","game":"Team Fortress","app_id":440,"player_count":0,"max_players":24,"Bots":0,"server_type":"Dedicated","server_os":"Linux","password":true,"vac":true,"version":"7961495","steam_id":85568392924469993,"keywords":["cp","nocrits","nodmgspread","uncletopia"],"game_id":440,"stv_port":27016,"stv_name":"Uncletopia | New York City | 1 | All Maps | STV","players":null},{"server_id":14,"name":"Uncletopia | New York City | 2 | All Maps","name_short":"nyc-2","host":"nyc-1.us.uncletopia.com","port":27025,"enabled":true,"region":"us-east","cc":"us","latitude":40.73061,"longitude":-73.93524,"reserved":0,"last_update":"0001-01-01T00:00:00Z","name_a2s":"Uncletopia | New York City | 2 | All Maps","protocol":17,"map":"pl_upward","folder":"tf","game":"Team Fortress","app_id":440,"player_count":24,"max_players":24,"Bots":0,"server_type":"Dedicated","server_os":"Linux","password":true,"vac":true,"version":"7961495","steam_id":85568392924469994,"keywords":["nocrits","nodmgspread","payload","uncletopia"],"game_id":440,"stv_port":27026,"stv_name":"Uncletopia | New York City | 2 | All Maps | STV","players":[{"user_id":16,"name":"Reverie","steam_id":76561198987005784,"connected_time":2934000000000,"state":"active","ping":76},{"user_id":60,"name":"Shrebbie","steam_id":76561198875230824,"connected_time":404000000000,"state":"active","ping":35},{"user_id":61,"name":"PHDLeem","steam_id":76561198184711218,"connected_time":378000000000,"state":"active","ping":44},{"user_id":62,"name":"555","steam_id":76561199494948749,"connected_time":348000000000,"state":"active","ping":60},{"user_id":68,"name":"Ratlympics Gold Medalist","steam_id":76561198064981004,"connected_time":45000000000,"state":"active","ping":71},{"user_id":53,"name":"bumrusherz","steam_id":76561198440658195,"connected_time":1228000000000,"state":"active","ping":58},{"user_id":58,"name":"Mipsiek","steam_id":76561198164013471,"connected_time":499000000000,"state":"active","ping":40},{"user_id":52,"name":"Electroid","steam_id":76561199092263960,"connected_time":1349000000000,"state":"active","ping":63},{"user_id":65,"name":"Cube","steam_id":76561199021614213,"connected_time":153000000000,"state":"active","ping":151},{"user_id":69,"name":"BurnN8or101","steam_id":76561198132668224,"connected_time":16000000000,"state":"spawning","ping":83},{"user_id":46,"name":"Acro","steam_id":76561198092451804,"connected_time":1805000000000,"state":"active","ping":75},{"user_id":47,"name":"icecxld","steam_id":76561198079018805,"connected_time":1746000000000,"state":"active","ping":74},{"user_id":67,"name":"The_Epic_Conclusion","steam_id":76561198084250179,"connected_time":75000000000,"state":"active","ping":54},{"user_id":57,"name":"Zeek","steam_id":76561197987204351,"connected_time":821000000000,"state":"active","ping":44},{"user_id":30,"name":"bing","steam_id":76561198121256356,"connected_time":2572000000000,"state":"active","ping":53},{"user_id":31,"name":"barry steakfries","steam_id":76561199472218520,"connected_time":2558000000000,"state":"active","ping":55},{"user_id":59,"name":"Phish","steam_id":76561199068509900,"connected_time":406000000000,"state":"active","ping":43},{"user_id":33,"name":"the keebler","steam_id":76561199486326945,"connected_time":2501000000000,"state":"active","ping":72},{"user_id":34,"name":"Poop sock","steam_id":76561198957996236,"connected_time":2501000000000,"state":"active","ping":72},{"user_id":56,"name":"Lemonüçã","steam_id":76561198119362095,"connected_time":837000000000,"state":"active","ping":45},{"user_id":63,"name":"LAter","steam_id":76561199204251336,"connected_time":328000000000,"state":"active","ping":62},{"user_id":37,"name":"Tas","steam_id":76561198034586968,"connected_time":2473000000000,"state":"active","ping":38},{"user_id":64,"name":"Nat, enjoyer of binguses","steam_id":76561198075839429,"connected_time":324000000000,"state":"active","ping":110},{"user_id":43,"name":"Larry Ca√±onga","steam_id":76561198081053203,"connected_time":2370000000000,"state":"active","ping":119}]},{"server_id":15,"name":"Uncletopia | New York City | 3 | Stopwatch","name_short":"nyc-3","host":"nyc-1.us.uncletopia.com","port":27035,"enabled":true,"region":"us-east","cc":"us","latitude":40.73061,"longitude":-73.93524,"reserved":0,"last_update":"0001-01-01T00:00:00Z","name_a2s":"Uncletopia | New York City | 3 | Stopwatch","protocol":17,"map":"workshop/koth_ashville_final.ugc2130459942","folder":"tf","game":"Team Fortress","app_id":440,"player_count":0,"max_players":24,"Bots":0,"server_type":"Dedicated","server_os":"Linux","password":true,"vac":true,"version":"7961495","steam_id":85568392924742820,"keywords":["cp","nocrits","nodmgspread","uncletopia"],"game_id":440,"stv_port":27036,"stv_name":"Uncletopia | New York City | 3 | Stopwatch | STV","players":null},{"server_id":16,"name":"Uncletopia | New York City | 4 | Community","name_short":"nyc-4","host":"nyc-1.us.uncletopia.com","port":27045,"enabled":true,"region":"us-east","cc":"us","latitude":40.73061,"longitude":-73.93524,"reserved":0,"last_update":"0001-01-01T00:00:00Z","name_a2s":"Uncletopia | New York City | 4 | Community","protocol":17,"map":"workshop/cp_overgrown_rc8.ugc503939302","folder":"tf","game":"Team Fortress","app_id":440,"player_count":0,"max_players":24,"Bots":0,"server_type":"Dedicated","server_os":"Linux","password":true,"vac":true,"version":"7961495","steam_id":85568392924742821,"keywords":["cp","nocrits","nodmgspread","uncletopia"],"game_id":440,"stv_port":27046,"stv_name":"Uncletopia | New York City | 4 | Community | STV","players":null},{"server_id":142,"name":"Uncletopia | S√£o Paulo | 1 | All Maps","name_short":"sao-1","host":"sao-1.br.uncletopia.com","port":27015,"enabled":true,"region":"sa","cc":"br","latitude":-23.533773,"longitude":-46.62529,"reserved":0,"last_update":"0001-01-01T00:00:00Z","name_a2s":"Uncletopia | S√£o Paulo | 1 | All Maps","protocol":17,"map":"cp_process_final","folder":"tf","game":"Team Fortress","app_id":440,"player_count":0,"max_players":24,"Bots":0,"server_type":"Dedicated","server_os":"Linux","password":true,"vac":true,"version":"7961495","steam_id":85568392924469996,"keywords":["cp","nocrits","nodmgspread","uncletopia"],"game_id":440,"stv_port":27016,"stv_name":"Uncletopia | S√£o Paulo | 1 | All Maps | STV","players":null},{"server_id":143,"name":"Uncletopia | S√£o Paulo | 2 | Community","name_short":"sao-2","host":"sao-2.br.uncletopia.com","port":27015,"enabled":true,"region":"sa","cc":"br","latitude":-23.533773,"longitude":-46.62529,"reserved":0,"last_update":"0001-01-01T00:00:00Z","name_a2s":"Uncletopia | S√£o Paulo | 2 | Community","protocol":17,"map":"workshop/cp_croissant_final.ugc458840209","folder":"tf","game":"Team Fortress","app_id":440,"player_count":0,"max_players":24,"Bots":0,"server_type":"Dedicated","server_os":"Linux","password":true,"vac":true,"version":"7961495","steam_id":85568392924485349,"keywords":["cp","nocrits","nodmgspread","uncletopia"],"game_id":440,"stv_port":27016,"stv_name":"Uncletopia | S√£o Paulo | 2 | Community | STV","players":null},{"server_id":7,"name":"Uncletopia | Seattle | 1 | All Maps","name_short":"sea-1","host":"sea-1.us.uncletopia.com","port":27015,"enabled":true,"region":"us-west","cc":"us","latitude":47.608013,"longitude":-122.33517,"reserved":0,"last_update":"0001-01-01T00:00:00Z","name_a2s":"Uncletopia | Seattle | 1 | All Maps","protocol":17,"map":"pl_upward","folder":"tf","game":"Team Fortress","app_id":440,"player_count":24,"max_players":24,"Bots":0,"server_type":"Dedicated","server_os":"Linux","password":true,"vac":true,"version":"7961495","steam_id":85568392924469997,"keywords":["nocrits","nodmgspread","payload","uncletopia"],"game_id":440,"stv_port":27016,"stv_name":"Uncletopia | Seattle | 1 | All Maps | STV","players":[{"user_id":187,"name":"Nibotshooter","steam_id":76561199284825579,"connected_time":964000000000,"state":"active","ping":74},{"user_id":204,"name":"gary","steam_id":76561199466597572,"connected_time":669000000000,"state":"active","ping":116},{"user_id":213,"name":"Rusty","steam_id":76561198055585129,"connected_time":393000000000,"state":"active","ping":45},{"user_id":194,"name":"what da tuna","steam_id":76561199204728099,"connected_time":833000000000,"state":"active","ping":93},{"user_id":202,"name":"Archie","steam_id":76561198137112917,"connected_time":686000000000,"state":"active","ping":64},{"user_id":192,"name":"NETRO","steam_id":76561198238207170,"connected_time":846000000000,"state":"active","ping":76},{"user_id":160,"name":"Confirmed Bachelor","steam_id":76561198441041496,"connected_time":3472000000000,"state":"active","ping":45},{"user_id":193,"name":"Rocky","steam_id":76561198048158539,"connected_time":845000000000,"state":"active","ping":85},{"user_id":167,"name":"Hazel The Boy Maid","steam_id":76561199247095754,"connected_time":3262000000000,"state":"active","ping":64},{"user_id":209,"name":"Trips","steam_id":76561198054581597,"connected_time":576000000000,"state":"active","ping":63},{"user_id":186,"name":"expired water","steam_id":76561198986774696,"connected_time":1328000000000,"state":"active","ping":53},{"user_id":164,"name":"Doctor Bear  ï ‚Ä¢·¥•‚Ä¢ î","steam_id":76561197968103161,"connected_time":3361000000000,"state":"active","ping":116},{"user_id":214,"name":"gloobern","steam_id":76561198341190679,"connected_time":182000000000,"state":"active","ping":48},{"user_id":215,"name":"Shark Sandwich","steam_id":76561198025007938,"connected_time":180000000000,"state":"active","ping":49},{"user_id":197,"name":"Deltaco","steam_id":76561198094572694,"connected_time":765000000000,"state":"active","ping":164},{"user_id":210,"name":"Œª T O M I C S P E E D","steam_id":76561198378581038,"connected_time":569000000000,"state":"active","ping":150},{"user_id":198,"name":"Lord Shmeck","steam_id":76561198023851456,"connected_time":752000000000,"state":"active","ping":46},{"user_id":199,"name":"HollowMan","steam_id":76561198967266827,"connected_time":744000000000,"state":"active","ping":118},{"user_id":205,"name":"Cave Dweller","steam_id":76561198374825685,"connected_time":668000000000,"state":"active","ping":78},{"user_id":183,"name":"Just a Good Friend","steam_id":76561198140052403,"connected_time":1680000000000,"state":"active","ping":60},{"user_id":185,"name":"Yakashama","steam_id":76561198204869719,"connected_time":1447000000000,"state":"active","ping":38},{"user_id":206,"name":"Mormon Discoball","steam_id":76561198028006216,"connected_time":666000000000,"state":"active","ping":47},{"user_id":212,"name":"The Capn Fake Taxi","steam_id":76561198028236497,"connected_time":479000000000,"state":"active","ping":80},{"user_id":211,"name":"BillyBot3000","steam_id":76561199070290695,"connected_time":567000000000,"state":"active","ping":139}]},{"server_id":119,"name":"Uncletopia | Seattle | 2 | All Maps","name_short":"sea-2","host":"sea-1.us.uncletopia.com","port":27025,"enabled":true,"region":"us-west","cc":"us","latitude":47.608013,"longitude":-122.33517,"reserved":0,"last_update":"0001-01-01T00:00:00Z","name_a2s":"Uncletopia | Seattle | 2 | All Maps","protocol":17,"map":"koth_lakeside_final","folder":"tf","game":"Team Fortress","app_id":440,"player_count":0,"max_players":24,"Bots":0,"server_type":"Dedicated","server_os":"Linux","password":true,"vac":true,"version":"7961495","steam_id":85568392924469998,"keywords":["cp","nocrits","nodmgspread","uncletopia"],"game_id":440,"stv_port":27026,"stv_name":"Uncletopia | Seattle | 2 | All Maps | STV","players":null},{"server_id":406,"name":"Uncletopia | Seattle | 3 | Stopwatch","name_short":"sea-3","host":"sea-1.us.uncletopia.com","port":27035,"enabled":true,"region":"us-west","cc":"us","latitude":47.608013,"longitude":-122.33517,"reserved":0,"last_update":"0001-01-01T00:00:00Z","name_a2s":"Uncletopia | Seattle | 3 | Stopwatch","protocol":17,"map":"cp_gullywash_final1","folder":"tf","game":"Team Fortress","app_id":440,"player_count":0,"max_players":24,"Bots":0,"server_type":"Dedicated","server_os":"Linux","password":true,"vac":true,"version":"7961495","steam_id":85568392924515217,"keywords":["cp","nocrits","nodmgspread","uncletopia"],"game_id":440,"stv_port":27036,"stv_name":"Uncletopia | Seattle | 3 | Stopwatch | STV","players":null},{"server_id":17,"name":"Uncletopia | San Francisco | 1 | All Maps","name_short":"sfo-1","host":"sfo-1.us.uncletopia.com","port":27015,"enabled":true,"region":"us-west","cc":"us","latitude":37.77397,"longitude":-122.4313,"reserved":0,"last_update":"0001-01-01T00:00:00Z","name_a2s":"Uncletopia | San Francisco | 1 | All Maps","protocol":17,"map":"koth_highpass","folder":"tf","game":"Team Fortress","app_id":440,"player_count":0,"max_players":24,"Bots":0,"server_type":"Dedicated","server_os":"Linux","password":true,"vac":true,"version":"7961495","steam_id":85568392924469999,"keywords":["cp","nocrits","nodmgspread","uncletopia"],"game_id":440,"stv_port":27016,"stv_name":"Uncletopia | San Francisco | 1 | All Maps | STV","players":null},{"server_id":18,"name":"Uncletopia | San Francisco | 2 | All Maps","name_short":"sfo-2","host":"sfo-1.us.uncletopia.com","port":27025,"enabled":true,"region":"us-west","cc":"us","latitude":37.77397,"longitude":-122.4313,"reserved":0,"last_update":"0001-01-01T00:00:00Z","name_a2s":"Uncletopia | San Francisco | 2 | All Maps","protocol":17,"map":"cp_freight_final1","folder":"tf","game":"Team Fortress","app_id":440,"player_count":0,"max_players":24,"Bots":0,"server_type":"Dedicated","server_os":"Linux","password":true,"vac":true,"version":"7961495","steam_id":85568392924470000,"keywords":["cp","nocrits","nodmgspread","uncletopia"],"game_id":440,"stv_port":27026,"stv_name":"Uncletopia | San Francisco | 2 | All Maps | STV","players":null},{"server_id":19,"name":"Uncletopia | San Francisco | 3 | Stopwatch","name_short":"sfo-3","host":"sfo-1.us.uncletopia.com","port":27035,"enabled":true,"region":"us-west","cc":"us","latitude":37.77397,"longitude":-122.4313,"reserved":0,"last_update":"0001-01-01T00:00:00Z","name_a2s":"Uncletopia | San Francisco | 3 | Stopwatch","protocol":17,"map":"workshop/koth_product_final.ugc454272353","folder":"tf","game":"Team Fortress","app_id":440,"player_count":0,"max_players":24,"Bots":0,"server_type":"Dedicated","server_os":"Linux","password":true,"vac":true,"version":"7961495","steam_id":85568392924742824,"keywords":["cp","nocrits","nodmgspread","uncletopia"],"game_id":440,"stv_port":27036,"stv_name":"Uncletopia | San Francisco | 3 | Stopwatch | STV","players":null},{"server_id":20,"name":"Uncletopia | San Francisco | 4 | Community","name_short":"sfo-4","host":"sfo-1.us.uncletopia.com","port":27045,"enabled":true,"region":"us-west","cc":"us","latitude":37.77397,"longitude":-122.4313,"reserved":0,"last_update":"0001-01-01T00:00:00Z","name_a2s":"Uncletopia | San Francisco | 4 | Community","protocol":17,"map":"workshop/pl_cactuscanyon_redux_final2.ugc2579644293","folder":"tf","game":"Team Fortress","app_id":440,"player_count":0,"max_players":24,"Bots":0,"server_type":"Dedicated","server_os":"Linux","password":true,"vac":true,"version":"7961495","steam_id":85568392924742826,"keywords":["nocrits","nodmgspread","payload","uncletopia"],"game_id":440,"stv_port":27046,"stv_name":"Uncletopia | San Francisco | 4 | Community | STV","players":null},{"server_id":141,"name":"Uncletopia | Sydney | 1 | All Maps","name_short":"syd-1","host":"syd-1.au.uncletopia.com","port":27015,"enabled":true,"region":"au","cc":"au","latitude":-33.865143,"longitude":151.2099,"reserved":0,"last_update":"0001-01-01T00:00:00Z","name_a2s":"Uncletopia | Sydney | 1 | All Maps","protocol":17,"map":"koth_viaduct","folder":"tf","game":"Team Fortress","app_id":440,"player_count":0,"max_players":24,"Bots":0,"server_type":"Dedicated","server_os":"Linux","password":true,"vac":true,"version":"7961495","steam_id":85568392924470001,"keywords":["cp","nocrits","nodmgspread","uncletopia"],"game_id":440,"stv_port":27016,"stv_name":"Uncletopia | Sydney | 1 | All Maps | STV","players":null},{"server_id":123,"name":"Uncletopia | Sydney | 2 | All Maps","name_short":"syd-2","host":"syd-1.au.uncletopia.com","port":27025,"enabled":true,"region":"au","cc":"au","latitude":-33.865143,"longitude":151.2099,"reserved":0,"last_update":"0001-01-01T00:00:00Z","name_a2s":"Uncletopia | Sydney | 2 | All Maps","protocol":17,"map":"cp_process_final","folder":"tf","game":"Team Fortress","app_id":440,"player_count":0,"max_players":24,"Bots":0,"server_type":"Dedicated","server_os":"Linux","password":true,"vac":true,"version":"7961495","steam_id":85568392924470002,"keywords":["cp","nocrits","nodmgspread","uncletopia"],"game_id":440,"stv_port":27026,"stv_name":"Uncletopia | Sydney | 2 | All Maps | STV","players":null},{"server_id":395,"name":"Uncletopia | Sydney | 3 | All Maps","name_short":"syd-3","host":"syd-1.au.uncletopia.com","port":27035,"enabled":true,"region":"au","cc":"au","latitude":-33.865143,"longitude":151.2099,"reserved":0,"last_update":"0001-01-01T00:00:00Z","name_a2s":"Uncletopia | Sydney | 3 | All Maps","protocol":17,"map":"cp_snakewater_final1","folder":"tf","game":"Team Fortress","app_id":440,"player_count":0,"max_players":24,"Bots":0,"server_type":"Dedicated","server_os":"Linux","password":true,"vac":true,"version":"7961495","steam_id":85568392925194467,"keywords":["cp","nocrits","nodmgspread","uncletopia"],"game_id":440,"stv_port":27036,"stv_name":"Uncletopia | Sydney | 3 | All Maps | STV","players":null},{"server_id":396,"name":"Uncletopia | Sydney | 4 | All Maps","name_short":"syd-4","host":"syd-1.au.uncletopia.com","port":27045,"enabled":true,"region":"au","cc":"au","latitude":-33.865143,"longitude":151.2099,"reserved":0,"last_update":"0001-01-01T00:00:00Z","name_a2s":"Uncletopia | Sydney | 4 | All Maps","protocol":17,"map":"koth_lakeside_final","folder":"tf","game":"Team Fortress","app_id":440,"player_count":0,"max_players":24,"Bots":0,"server_type":"Dedicated","server_os":"Linux","password":true,"vac":true,"version":"7961495","steam_id":85568392925397958,"keywords":["cp","nocrits","nodmgspread","uncletopia"],"game_id":440,"stv_port":27046,"stv_name":"Uncletopia | Sydney | 4 | All Maps | STV","players":null},{"server_id":58,"name":"Uncletopia | Sydney | 5 | Stopwatch","name_short":"syd-5","host":"syd-1.au.uncletopia.com","port":27055,"enabled":true,"region":"au","cc":"au","latitude":-33.865143,"longitude":151.2099,"reserved":0,"last_update":"0001-01-01T00:00:00Z","name_a2s":"Uncletopia | Sydney | 5 | Stopwatch","protocol":17,"map":"cp_snakewater_final1","folder":"tf","game":"Team Fortress","app_id":440,"player_count":0,"max_players":24,"Bots":0,"server_type":"Dedicated","server_os":"Linux","password":true,"vac":true,"version":"7961495","steam_id":85568392925397959,"keywords":["cp","nocrits","nodmgspread","uncletopia"],"game_id":440,"stv_port":27056,"stv_name":"Uncletopia | Sydney | 5 | Stopwatch | STV","players":null},{"server_id":59,"name":"Uncletopia | Sydney | 6 | Community","name_short":"syd-6","host":"syd-1.au.uncletopia.com","port":27065,"enabled":true,"region":"au","cc":"au","latitude":-33.865143,"longitude":151.2099,"reserved":0,"last_update":"0001-01-01T00:00:00Z","name_a2s":"Uncletopia | Sydney | 6 | Community","protocol":17,"map":"workshop/koth_trenchfoot_ab1.ugc731436616","folder":"tf","game":"Team Fortress","app_id":440,"player_count":0,"max_players":24,"Bots":0,"server_type":"Dedicated","server_os":"Linux","password":true,"vac":true,"version":"7961495","steam_id":85568392925397960,"keywords":["cp","nocrits","nodmgspread","uncletopia"],"game_id":440,"stv_port":27066,"stv_name":"Uncletopia | Sydney | 6 | Community | STV","players":null},{"server_id":49,"name":"Uncletopia | Warsaw | 1 | One Thousand Uncles","name_short":"waw-1","host":"waw-1.pl.uncletopia.com","port":27015,"enabled":true,"region":"eu","cc":"pl","latitude":52.2297,"longitude":21.017532,"reserved":0,"last_update":"0001-01-01T00:00:00Z","name_a2s":"Uncletopia | Warsaw | 1 | One Thousand Uncles","protocol":17,"map":"cp_egypt_final","folder":"tf","game":"Team Fortress","app_id":440,"player_count":30,"max_players":32,"Bots":16,"server_type":"Dedicated","server_os":"Linux","password":true,"vac":true,"version":"7961495","steam_id":85568392925397850,"keywords":["alltalk","bots","cp","danepve","increased_maxplayers","norespawntime","uncletopia"],"game_id":440,"stv_port":0,"stv_name":"","players":[{"user_id":415,"name":"‚ú™‚ú™Maryky‚ú™‚ú™","steam_id":76561198184672426,"connected_time":236000000000,"state":"active","ping":62},{"user_id":343,"name":"Vanes #savetf2","steam_id":76561198070099171,"connected_time":5622000000000,"state":"active","ping":95},{"user_id":407,"name":"Animatic","steam_id":76561198186421601,"connected_time":1428000000000,"state":"active","ping":180},{"user_id":362,"name":"adv6","steam_id":76561198029789989,"connected_time":4486000000000,"state":"active","ping":74},{"user_id":386,"name":"PuPuruPuruPumPu","steam_id":76561198391950490,"connected_time":2147000000000,"state":"active","ping":105},{"user_id":410,"name":"---\u003e‡∂û\u003c---","steam_id":76561199484813677,"connected_time":1106000000000,"state":"active","ping":102},{"user_id":411,"name":"Yuxues","steam_id":76561199218188958,"connected_time":892000000000,"state":"active","ping":91},{"user_id":414,"name":"Pain in a Box","steam_id":76561197990777173,"connected_time":348000000000,"state":"active","ping":65},{"user_id":385,"name":"Anesska.","steam_id":76561199097059869,"connected_time":2293000000000,"state":"active","ping":42},{"user_id":282,"name":"Jared","steam_id":76561198020432651,"connected_time":8386000000000,"state":"active","ping":141},{"user_id":416,"name":"Mr.Polak","steam_id":76561199150414172,"connected_time":199000000000,"state":"active","ping":54},{"user_id":422,"name":"Filip_XD_PLAYER","steam_id":76561198982102190,"connected_time":80000000000,"state":"active","ping":63},{"user_id":419,"name":"masturbator cybersport","steam_id":76561199325274331,"connected_time":125000000000,"state":"active","ping":94},{"user_id":421,"name":"Kristal","steam_id":76561199180395012,"connected_time":102000000000,"state":"active","ping":71}]},{"server_id":50,"name":"Uncletopia | Warsaw | 2 | One Thousand Uncles","name_short":"waw-2","host":"waw-1.pl.uncletopia.com","port":27025,"enabled":true,"region":"eu","cc":"pl","latitude":52.2297,"longitude":21.017532,"reserved":0,"last_update":"0001-01-01T00:00:00Z","name_a2s":"Uncletopia | Warsaw | 2 | One Thousand Uncles","protocol":17,"map":"cp_egypt_final","folder":"tf","game":"Team Fortress","app_id":440,"player_count":18,"max_players":32,"Bots":16,"server_type":"Dedicated","server_os":"Linux","password":true,"vac":true,"version":"7961495","steam_id":85568392925397851,"keywords":["alltalk","bots","cp","danepve","increased_maxplayers","norespawntime","uncletopia"],"game_id":440,"stv_port":0,"stv_name":"","players":[{"user_id":190,"name":"What?","steam_id":76561198121960984,"connected_time":610000000000,"state":"active","ping":55},{"user_id":182,"name":"semoku","steam_id":76561198838877619,"connected_time":1864000000000,"state":"active","ping":62}]},{"server_id":51,"name":"Uncletopia | Warsaw | 3 | All Maps","name_short":"waw-3","host":"waw-1.pl.uncletopia.com","port":27035,"enabled":true,"region":"eu","cc":"pl","latitude":52.2297,"longitude":21.017532,"reserved":0,"last_update":"0001-01-01T00:00:00Z","name_a2s":"Uncletopia | Warsaw | 3 | All Maps","protocol":17,"map":"cp_altitude","folder":"tf","game":"Team Fortress","app_id":440,"player_count":0,"max_players":24,"Bots":0,"server_type":"Dedicated","server_os":"Linux","password":true,"vac":true,"version":"7961495","steam_id":85568392925397852,"keywords":["cp","nocrits","nodmgspread","uncletopia"],"game_id":440,"stv_port":27036,"stv_name":"Uncletopia | Warsaw | 3 | All Maps | STV","players":null},{"server_id":52,"name":"Uncletopia | Warsaw | 4 | All Maps","name_short":"waw-4","host":"waw-1.pl.uncletopia.com","port":27045,"enabled":true,"region":"eu","cc":"pl","latitude":52.2297,"longitude":21.017532,"reserved":0,"last_update":"0001-01-01T00:00:00Z","name_a2s":"Uncletopia | Warsaw | 4 | All Maps","protocol":17,"map":"koth_highpass","folder":"tf","game":"Team Fortress","app_id":440,"player_count":0,"max_players":24,"Bots":0,"server_type":"Dedicated","server_os":"Linux","password":true,"vac":true,"version":"7961495","steam_id":85568392925397853,"keywords":["cp","nocrits","nodmgspread","uncletopia"],"game_id":440,"stv_port":27046,"stv_name":"Uncletopia | Warsaw | 4 | All Maps | STV","players":null},{"server_id":53,"name":"Uncletopia | Warsaw | 5 | Stopwatch","name_short":"waw-5","host":"waw-1.pl.uncletopia.com","port":27055,"enabled":true,"region":"eu","cc":"pl","latitude":52.2297,"longitude":21.017532,"reserved":0,"last_update":"0001-01-01T00:00:00Z","name_a2s":"Uncletopia | Warsaw | 5 | Stopwatch","protocol":17,"map":"workshop/koth_ashville_final.ugc2130459942","folder":"tf","game":"Team Fortress","app_id":440,"player_count":0,"max_players":24,"Bots":0,"server_type":"Dedicated","server_os":"Linux","password":true,"vac":true,"version":"7961495","steam_id":85568392925397854,"keywords":["cp","nocrits","nodmgspread","uncletopia"],"game_id":440,"stv_port":27056,"stv_name":"Uncletopia | Warsaw | 5 | Stopwatch | STV","players":null},{"server_id":54,"name":"Uncletopia | Warsaw | 6 | Community","name_short":"waw-6","host":"waw-1.pl.uncletopia.com","port":27065,"enabled":true,"region":"eu","cc":"pl","latitude":52.2297,"longitude":21.017532,"reserved":0,"last_update":"0001-01-01T00:00:00Z","name_a2s":"Uncletopia | Warsaw | 6 | Community","protocol":17,"map":"workshop/cp_coilblaze_rc7.ugc1272700588","folder":"tf","game":"Team Fortress","app_id":440,"player_count":0,"max_players":24,"Bots":0,"server_type":"Dedicated","server_os":"Linux","password":true,"vac":true,"version":"7961495","steam_id":85568392925397856,"keywords":["cp","nocrits","nodmgspread","uncletopia"],"game_id":440,"stv_port":27066,"stv_name":"Uncletopia | Warsaw | 6 | Community | STV","players":null}]}