{"status":true,"message":"","result":[{"server_id":9,"name":"Uncletopia | Atlanta | 1 | All Maps","name_short":"atl-1","host":"atl-1.us.uncletopia.com","port":27015,"enabled":true,"region":"us-east","cc":"us","latitude":33.753746,"longitude":-84.38633,"reserved":0,"last_update":"0001-01-01T00:00:00Z","name_a2s":"Uncletopia | Atlanta | 1 | All Maps","protocol":17,"map":"pl_badwater","folder":"tf","game":"Team Fortress","app_id":440,"player_count":24,"max_players":24,"Bots":0,"server_type":"Dedicated","server_os":"Linux","password":true,"vac":true,"version":"7882260","steam_id":85568392924469982,"keywords":["nocrits","nodmgspread","payload","uncletopia"],"game_id":440,"stv_port":27016,"stv_name":"Uncletopia | Atlanta | 1 | All Maps | STV","players":[{"user_id":445,"name":"Bag","steam_id":76561198012395490,"connected_time":4733000000000,"state":"active","ping":56},{"user_id":510,"name":"GeekyNerd54","steam_id":76561198314982395,"connected_time":863000000000,"state":"active","ping":70},{"user_id":495,"name":"Lethal","steam_id":76561198055545714,"connected_time":1385000000000,"state":"active","ping":111},{"user_id":498,"name":"badasscoolboy57","steam_id":76561198795412055,"connected_time":1174000000000,"state":"active","ping":86},{"user_id":509,"name":"Crafty Catgirl","steam_id":76561198007903454,"connected_time":1059000000000,"state":"active","ping":66},{"user_id":515,"name":"ash","steam_id":76561198127890645,"connected_time":530000000000,"state":"active","ping":72},{"user_id":511,"name":"WaterWorks","steam_id":76561198801899310,"connected_time":736000000000,"state":"active","ping":95},{"user_id":492,"name":"Nitro","steam_id":76561198044877244,"connected_time":1582000000000,"state":"active","ping":98},{"user_id":488,"name":"∆ê’å—¥∆≥","steam_id":76561198099470277,"connected_time":1719000000000,"state":"active","ping":67},{"user_id":513,"name":"hatsune miku‚ô°","steam_id":76561199445009981,"connected_time":706000000000,"state":"active","ping":114},{"user_id":504,"name":"NamelessBear‚Ñ¢","steam_id":76561198014564006,"connected_time":1109000000000,"state":"active","ping":67},{"user_id":505,"name":"Random","steam_id":76561198318879454,"connected_time":1106000000000,"state":"active","ping":87},{"user_id":388,"name":"baconandx","steam_id":76561198355074004,"connected_time":6197000000000,"state":"active","ping":77},{"user_id":480,"name":"Oddball","steam_id":76561198040440984,"connected_time":2376000000000,"state":"active","ping":88},{"user_id":506,"name":"snyderboys","steam_id":76561198067509348,"connected_time":1105000000000,"state":"active","ping":82},{"user_id":514,"name":"noel","steam_id":76561198128280883,"connected_time":673000000000,"state":"active","ping":77},{"user_id":497,"name":"Horse","steam_id":76561198004583631,"connected_time":1235000000000,"state":"active","ping":99},{"user_id":484,"name":"ATL1 | Kramer","steam_id":76561198083595936,"connected_time":1836000000000,"state":"active","ping":75},{"user_id":500,"name":"‚ô•Bunny‚ô•Slut‚ô•","steam_id":76561198206376851,"connected_time":1168000000000,"state":"active","ping":123},{"user_id":507,"name":"Motorol¬™","steam_id":76561198358119669,"connected_time":1099000000000,"state":"active","ping":110},{"user_id":420,"name":"Animal Slices","steam_id":76561198137545511,"connected_time":5589000000000,"state":"active","ping":75},{"user_id":465,"name":"krueger","steam_id":76561198268654031,"connected_time":3411000000000,"state":"active","ping":75},{"user_id":508,"name":"StormyBoyo","steam_id":76561198273482774,"connected_time":1099000000000,"state":"active","ping":99},{"user_id":487,"name":"kite","steam_id":76561198346516392,"connected_time":1786000000000,"state":"active","ping":85}]},{"server_id":104,"name":"Uncletopia | Atlanta | 2 | All Maps","name_short":"atl-2","host":"atl-1.us.uncletopia.com","port":27025,"enabled":true,"region":"us-east","cc":"us","latitude":33.753746,"longitude":-84.38633,"reserved":0,"last_update":"0001-01-01T00:00:00Z","name_a2s":"Uncletopia | Atlanta | 2 | All Maps","protocol":17,"map":"cp_dustbowl","folder":"tf","game":"Team Fortress","app_id":440,"player_count":24,"max_players":24,"Bots":0,"server_type":"Dedicated","server_os":"Linux","password":true,"vac":true,"version":"7882260","steam_id":85568392924469983,"keywords":["cp","nocrits","nodmgspread","uncletopia"],"game_id":440,"stv_port":27026,"stv_name":"Uncletopia | Atlanta | 2 | All Maps | STV","players":[{"user_id":318,"name":"TwoBit","steam_id":76561198062437559,"connected_time":1307000000000,"state":"active","ping":91},{"user_id":320,"name":"Chef Bup","steam_id":76561198097921285,"connected_time":1277000000000,"state":"active","ping":55},{"user_id":270,"name":"troll","steam_id":76561198040890252,"connected_time":5013000000000,"state":"active","ping":57},{"user_id":327,"name":"Save","steam_id":76561198032740584,"connected_time":175000000000,"state":"active","ping":96},{"user_id":310,"name":"Timon's high on crack cocaine!","steam_id":76561198180396430,"connected_time":1742000000000,"state":"active","ping":72},{"user_id":259,"name":"freak ya nature","steam_id":76561198310502474,"connected_time":5549000000000,"state":"active","ping":59},{"user_id":300,"name":"powerofsalad","steam_id":76561197998214476,"connected_time":2051000000000,"state":"active","ping":70},{"user_id":288,"name":"Professionalidiot","steam_id":76561198994182750,"connected_time":2692000000000,"state":"active","ping":97},{"user_id":321,"name":"inax","steam_id":76561198398677744,"connected_time":1124000000000,"state":"active","ping":105},{"user_id":296,"name":"***FoRgIvEn***","steam_id":76561199216222247,"connected_time":2473000000000,"state":"active","ping":88},{"user_id":317,"name":"knight","steam_id":76561199467779621,"connected_time":1369000000000,"state":"active","ping":169},{"user_id":324,"name":"Aloha :3","steam_id":76561198148517055,"connected_time":302000000000,"state":"active","ping":114},{"user_id":313,"name":"The Juice","steam_id":76561198065307144,"connected_time":1465000000000,"state":"active","ping":74},{"user_id":319,"name":"Sahbi","steam_id":76561199196292242,"connected_time":1284000000000,"state":"active","ping":86},{"user_id":325,"name":"SuperGuyStuf","steam_id":76561198041318651,"connected_time":275000000000,"state":"active","ping":58},{"user_id":316,"name":"machineclone","steam_id":76561198076320219,"connected_time":1401000000000,"state":"active","ping":170},{"user_id":293,"name":"good soup guy","steam_id":76561199210237835,"connected_time":2563000000000,"state":"active","ping":92},{"user_id":326,"name":"ryder","steam_id":76561199230391346,"connected_time":267000000000,"state":"active","ping":61},{"user_id":304,"name":"Koi","steam_id":76561198064411172,"connected_time":2024000000000,"state":"active","ping":57},{"user_id":323,"name":"potatotomato","steam_id":76561199092769902,"connected_time":798000000000,"state":"active","ping":111},{"user_id":322,"name":"YoteDab McFapDab.jpg","steam_id":76561197984870380,"connected_time":1022000000000,"state":"active","ping":69},{"user_id":309,"name":"Marshmallow Supreme","steam_id":76561198057291909,"connected_time":1767000000000,"state":"active","ping":69},{"user_id":315,"name":"xLeoparrd","steam_id":76561198940657194,"connected_time":1437000000000,"state":"active","ping":85},{"user_id":295,"name":"Phonixj123","steam_id":76561198813565300,"connected_time":2495000000000,"state":"active","ping":98}]},{"server_id":400,"name":"Uncletopia | Atlanta | 3 | Community","name_short":"atl-3","host":"atl-1.us.uncletopia.com","port":27035,"enabled":true,"region":"us-east","cc":"us","latitude":33.753746,"longitude":-84.38633,"reserved":0,"last_update":"0001-01-01T00:00:00Z","name_a2s":"Uncletopia | Atlanta | 3 | Community","protocol":17,"map":"workshop/pl_fifthcurve_rc1.ugc648227046","folder":"tf","game":"Team Fortress","app_id":440,"player_count":0,"max_players":24,"Bots":0,"server_type":"Dedicated","server_os":"Linux","password":true,"vac":true,"version":"7882260","steam_id":85568392924515187,"keywords":["nocrits","nodmgspread","payload","uncletopia"],"game_id":440,"stv_port":27036,"stv_name":"Uncletopia | Atlanta | 3 | Community | STV","players":null},{"server_id":401,"name":"Uncletopia | Atlanta | 4 | No Payload","name_short":"atl-4","host":"atl-1.us.uncletopia.com","port":27045,"enabled":true,"region":"us-east","cc":"us","latitude":33.753746,"longitude":-84.38633,"reserved":0,"last_update":"0001-01-01T00:00:00Z","name_a2s":"","protocol":0,"map":"","folder":"","game":"","app_id":0,"player_count":0,"max_players":0,"Bots":0,"server_type":"","server_os":"","password":false,"vac":false,"version":"","steam_id":0,"keywords":null,"game_id":0,"stv_port":0,"stv_name":"","players":null},{"server_id":2,"name":"Uncletopia | Chicago | 1 | All Maps","name_short":"chi-1","host":"chi-1.us.uncletopia.com","port":27015,"enabled":true,"region":"us-central","cc":"us","latitude":41.881832,"longitude":-87.62318,"reserved":0,"last_update":"0001-01-01T00:00:00Z","name_a2s":"Uncletopia | Chicago | 1 | All Maps","protocol":17,"map":"cp_steel","folder":"tf","game":"Team Fortress","app_id":440,"player_count":24,"max_players":24,"Bots":0,"server_type":"Dedicated","server_os":"Linux","password":true,"vac":true,"version":"7882260","steam_id":85568392924469984,"keywords":["cp","nocrits","nodmgspread","uncletopia"],"game_id":440,"stv_port":27016,"stv_name":"Uncletopia | Chicago | 1 | All Maps | STV","players":[{"user_id":645,"name":"Knavish","steam_id":76561198073434372,"connected_time":4488000000000,"state":"active","ping":90},{"user_id":723,"name":"edwinbrood","steam_id":76561198044848769,"connected_time":821000000000,"state":"active","ping":64},{"user_id":712,"name":"Iggy","steam_id":76561198059602545,"connected_time":1872000000000,"state":"active","ping":53},{"user_id":722,"name":"capybara(happy womens month)","steam_id":76561198798828328,"connected_time":823000000000,"state":"active","ping":46},{"user_id":724,"name":"Astro Knight","steam_id":76561198062767484,"connected_time":810000000000,"state":"active","ping":81},{"user_id":731,"name":"xiii","steam_id":76561198079416036,"connected_time":496000000000,"state":"active","ping":40},{"user_id":718,"name":"wedoalittletrolling TF2EASY.COM","steam_id":76561198984807162,"connected_time":1595000000000,"state":"active","ping":58},{"user_id":733,"name":"ganchy","steam_id":76561198088384838,"connected_time":225000000000,"state":"active","ping":75},{"user_id":725,"name":"StonedGiant","steam_id":76561197984386932,"connected_time":802000000000,"state":"active","ping":62},{"user_id":726,"name":"[TSG] Turner's Chocolate Milk","steam_id":76561198058963288,"connected_time":794000000000,"state":"active","ping":70},{"user_id":684,"name":"The Spinach Party","steam_id":76561199086132117,"connected_time":3251000000000,"state":"active","ping":85},{"user_id":730,"name":"blob","steam_id":76561198122375328,"connected_time":582000000000,"state":"active","ping":58},{"user_id":735,"name":"Jabawakai","steam_id":76561198088881254,"connected_time":53000000000,"state":"active","ping":57},{"user_id":689,"name":"Zoot","steam_id":76561198121944243,"connected_time":3090000000000,"state":"active","ping":73},{"user_id":702,"name":"the girl scout","steam_id":76561198350685969,"connected_time":2710000000000,"state":"active","ping":102},{"user_id":693,"name":"Auto_Correct","steam_id":76561198254988078,"connected_time":3063000000000,"state":"active","ping":75},{"user_id":721,"name":"Maverick","steam_id":76561198322829814,"connected_time":1018000000000,"state":"active","ping":79},{"user_id":732,"name":"Chad","steam_id":76561198222313772,"connected_time":482000000000,"state":"active","ping":71},{"user_id":734,"name":"Waddlehi","steam_id":76561198072553840,"connected_time":133000000000,"state":"active","ping":55},{"user_id":647,"name":"DootDoot!","steam_id":76561198108054777,"connected_time":4465000000000,"state":"active","ping":69},{"user_id":727,"name":"Torrensz64(But weezer)","steam_id":76561198239036482,"connected_time":789000000000,"state":"active","ping":56},{"user_id":719,"name":"PKBEAST_7","steam_id":76561198177136537,"connected_time":1232000000000,"state":"active","ping":88},{"user_id":554,"name":"Lia_Rein","steam_id":76561198151569597,"connected_time":6460000000000,"state":"active","ping":175},{"user_id":729,"name":"Local","steam_id":76561198069537437,"connected_time":785000000000,"state":"active","ping":105}]},{"server_id":106,"name":"Uncletopia | Chicago | 2 | All Maps","name_short":"chi-2","host":"chi-1.us.uncletopia.com","port":27025,"enabled":true,"region":"us-central","cc":"us","latitude":41.881832,"longitude":-87.62318,"reserved":0,"last_update":"0001-01-01T00:00:00Z","name_a2s":"Uncletopia | Chicago | 2 | All Maps","protocol":17,"map":"pl_frontier_final","folder":"tf","game":"Team Fortress","app_id":440,"player_count":24,"max_players":24,"Bots":0,"server_type":"Dedicated","server_os":"Linux","password":true,"vac":true,"version":"7882260","steam_id":85568392924469985,"keywords":["nocrits","nodmgspread","payload","uncletopia"],"game_id":440,"stv_port":27026,"stv_name":"Uncletopia | Chicago | 2 | All Maps | STV","players":[{"user_id":481,"name":"Laesonated","steam_id":76561198887105282,"connected_time":1287000000000,"state":"active","ping":82},{"user_id":461,"name":"Loleo","steam_id":76561198348132374,"connected_time":2390000000000,"state":"active","ping":57},{"user_id":485,"name":"Tattletails","steam_id":76561198055690341,"connected_time":1228000000000,"state":"active","ping":166},{"user_id":459,"name":"DarthEthanBoy","steam_id":76561198441643581,"connected_time":2632000000000,"state":"active","ping":66},{"user_id":482,"name":"minecraft","steam_id":76561198104345201,"connected_time":1277000000000,"state":"active","ping":81},{"user_id":448,"name":"tookalook","steam_id":76561198108046923,"connected_time":2919000000000,"state":"active","ping":60},{"user_id":449,"name":"dog","steam_id":76561198263873491,"connected_time":2894000000000,"state":"active","ping":45},{"user_id":464,"name":"Slice of Meat [415fam,NERD]","steam_id":76561198004553723,"connected_time":2103000000000,"state":"active","ping":69},{"user_id":484,"name":"primordialheath","steam_id":76561199386942638,"connected_time":1242000000000,"state":"active","ping":61},{"user_id":406,"name":"Van","steam_id":76561198073518712,"connected_time":6467000000000,"state":"active","ping":60},{"user_id":477,"name":"Cedric","steam_id":76561198072090580,"connected_time":1441000000000,"state":"active","ping":92},{"user_id":453,"name":"bring back the goddamn mcrib","steam_id":76561198326083509,"connected_time":2858000000000,"state":"active","ping":124},{"user_id":479,"name":"Coconut Gun","steam_id":76561198017331048,"connected_time":1312000000000,"state":"active","ping":56},{"user_id":460,"name":"Penis Chopper","steam_id":76561199016999537,"connected_time":2477000000000,"state":"active","ping":112},{"user_id":462,"name":"Aiden939","steam_id":76561198860530097,"connected_time":2348000000000,"state":"active","ping":83},{"user_id":493,"name":"BigNugs","steam_id":76561198056402610,"connected_time":18000000000,"state":"spawning","ping":77},{"user_id":490,"name":"Dallas","steam_id":76561198066542919,"connected_time":369000000000,"state":"active","ping":98},{"user_id":422,"name":"YesMargaret","steam_id":76561198127971751,"connected_time":5665000000000,"state":"active","ping":70},{"user_id":455,"name":"Person","steam_id":76561198093244204,"connected_time":2843000000000,"state":"active","ping":75},{"user_id":489,"name":"Strangelove","steam_id":76561198353773611,"connected_time":821000000000,"state":"active","ping":84},{"user_id":469,"name":"Preacher","steam_id":76561198022215764,"connected_time":1917000000000,"state":"active","ping":70},{"user_id":487,"name":"Im totally a hacker","steam_id":76561198888005736,"connected_time":1198000000000,"state":"active","ping":73},{"user_id":434,"name":"FiddyFoMike","steam_id":76561198057072581,"connected_time":4671000000000,"state":"active","ping":97},{"user_id":476,"name":"shmunk","steam_id":76561198116572221,"connected_time":1651000000000,"state":"active","ping":61}]},{"server_id":402,"name":"Uncletopia | Chicago | 3 | All Maps","name_short":"chi-3","host":"chi-1.us.uncletopia.com","port":27035,"enabled":true,"region":"us-central","cc":"us","latitude":41.881832,"longitude":-87.62318,"reserved":0,"last_update":"0001-01-01T00:00:00Z","name_a2s":"Uncletopia | Chicago | 3 | All Maps","protocol":17,"map":"pl_barnblitz","folder":"tf","game":"Team Fortress","app_id":440,"player_count":25,"max_players":24,"Bots":0,"server_type":"Dedicated","server_os":"Linux","password":true,"vac":true,"version":"7882260","steam_id":85568392924515191,"keywords":["nocrits","nodmgspread","payload","uncletopia"],"game_id":440,"stv_port":27036,"stv_name":"Uncletopia | Chicago | 3 | All Maps | STV","players":[{"user_id":606,"name":"hot twinks in your area","steam_id":76561199143725014,"connected_time":940000000000,"state":"active","ping":85},{"user_id":609,"name":"smash2tec","steam_id":76561199171564052,"connected_time":901000000000,"state":"active","ping":97},{"user_id":581,"name":"Vanya","steam_id":76561198042631561,"connected_time":2620000000000,"state":"active","ping":80},{"user_id":613,"name":"Kobrakiddmeow","steam_id":76561198080696266,"connected_time":208000000000,"state":"connecting","ping":0},{"user_id":600,"name":"Gumby","steam_id":76561198044364226,"connected_time":1849000000000,"state":"active","ping":62},{"user_id":566,"name":"TJThomas","steam_id":76561198038292405,"connected_time":4016000000000,"state":"active","ping":62},{"user_id":593,"name":"SHADOW (he/him)","steam_id":76561198207768148,"connected_time":2035000000000,"state":"active","ping":104},{"user_id":484,"name":"Ringo x Seiran","steam_id":76561198357437908,"connected_time":8824000000000,"state":"active","ping":61},{"user_id":608,"name":"Follow Christ not others","steam_id":76561198452519031,"connected_time":915000000000,"state":"active","ping":89},{"user_id":603,"name":"Letters","steam_id":76561198035508148,"connected_time":1415000000000,"state":"active","ping":95},{"user_id":577,"name":"(no monitor) (no tongue) ayylie","steam_id":76561198042127970,"connected_time":3396000000000,"state":"active","ping":78},{"user_id":562,"name":"Mehman","steam_id":76561199020244051,"connected_time":4324000000000,"state":"active","ping":105},{"user_id":610,"name":"Poyo Boyo","steam_id":76561198010201227,"connected_time":574000000000,"state":"active","ping":72},{"user_id":573,"name":"Rhutebeer","steam_id":76561198018302761,"connected_time":3644000000000,"state":"active","ping":100},{"user_id":602,"name":"Smooky","steam_id":76561198191435451,"connected_time":1733000000000,"state":"active","ping":76},{"user_id":599,"name":"Wiener Hole Paper Cut","steam_id":76561198000808203,"connected_time":1860000000000,"state":"active","ping":82},{"user_id":595,"name":"Snazzy_","steam_id":76561198014803098,"connected_time":2028000000000,"state":"active","ping":67},{"user_id":605,"name":"Homunculus Gambino","steam_id":76561198158433378,"connected_time":987000000000,"state":"active","ping":70},{"user_id":614,"name":"Dark_Eagle","steam_id":76561198397908108,"connected_time":203000000000,"state":"active","ping":84},{"user_id":554,"name":"Elora","steam_id":76561198040510572,"connected_time":4901000000000,"state":"active","ping":134},{"user_id":555,"name":"OneManEnsemble","steam_id":76561198200890163,"connected_time":4891000000000,"state":"active","ping":81},{"user_id":567,"name":"SPOOKY_","steam_id":76561198073395404,"connected_time":3735000000000,"state":"active","ping":163},{"user_id":585,"name":"Dookie","steam_id":76561198354025894,"connected_time":2399000000000,"state":"active","ping":66},{"user_id":615,"name":"brian.dahlmann","steam_id":76561198360431651,"connected_time":202000000000,"state":"active","ping":83},{"user_id":616,"name":"strwbrylopunny","steam_id":76561198402500100,"connected_time":180000000000,"state":"active","ping":61}]},{"server_id":403,"name":"Uncletopia | Chicago | 4 | All Maps","name_short":"chi-4","host":"chi-1.us.uncletopia.com","port":27045,"enabled":true,"region":"us-central","cc":"us","latitude":41.881832,"longitude":-87.62318,"reserved":0,"last_update":"0001-01-01T00:00:00Z","name_a2s":"Uncletopia | Chicago | 4 | All Maps","protocol":17,"map":"pl_upward","folder":"tf","game":"Team Fortress","app_id":440,"player_count":24,"max_players":24,"Bots":0,"server_type":"Dedicated","server_os":"Linux","password":true,"vac":true,"version":"7882260","steam_id":85568392924515193,"keywords":["nocrits","nodmgspread","payload","uncletopia"],"game_id":440,"stv_port":27046,"stv_name":"Uncletopia | Chicago | 4 | All Maps | STV","players":[{"user_id":171,"name":"Le Meilleur","steam_id":76561198054581325,"connected_time":591000000000,"state":"active","ping":57},{"user_id":176,"name":"Sprucelass","steam_id":76561197998391724,"connected_time":49000000000,"state":"active","ping":59},{"user_id":140,"name":"cmjgamingOHHH YEA","steam_id":76561199124037552,"connected_time":3016000000000,"state":"active","ping":65},{"user_id":145,"name":"Protato","steam_id":76561198061182563,"connected_time":2543000000000,"state":"active","ping":70},{"user_id":175,"name":"stupid haver","steam_id":76561198044443985,"connected_time":81000000000,"state":"active","ping":83},{"user_id":141,"name":"LegendaryMister151","steam_id":76561198064890524,"connected_time":2930000000000,"state":"active","ping":85},{"user_id":169,"name":"BowlOfSoup","steam_id":76561198000849668,"connected_time":725000000000,"state":"active","ping":85},{"user_id":135,"name":"Powerpuker LFT","steam_id":76561198034620567,"connected_time":3499000000000,"state":"active","ping":60},{"user_id":143,"name":"wiiblob","steam_id":76561198109106242,"connected_time":2763000000000,"state":"active","ping":143},{"user_id":147,"name":"Coach McFish","steam_id":76561198210456405,"connected_time":2465000000000,"state":"active","ping":78},{"user_id":151,"name":"Allen","steam_id":76561198398918486,"connected_time":2306000000000,"state":"active","ping":115},{"user_id":172,"name":"The Grim Heaper","steam_id":76561197987759101,"connected_time":416000000000,"state":"active","ping":117},{"user_id":173,"name":"payload","steam_id":76561198063475894,"connected_time":405000000000,"state":"active","ping":63},{"user_id":167,"name":"WALL-E","steam_id":76561198154701370,"connected_time":845000000000,"state":"active","ping":80},{"user_id":168,"name":"Definitely Not A Replicant.","steam_id":76561198087464370,"connected_time":738000000000,"state":"active","ping":117},{"user_id":170,"name":"Stiff Woody","steam_id":76561198047845399,"connected_time":662000000000,"state":"active","ping":74},{"user_id":161,"name":"Mister Rattlebones","steam_id":76561198065560157,"connected_time":916000000000,"state":"active","ping":55},{"user_id":165,"name":"saina","steam_id":76561198057685475,"connected_time":864000000000,"state":"active","ping":46},{"user_id":139,"name":"Gogo","steam_id":76561198172430633,"connected_time":3092000000000,"state":"active","ping":87},{"user_id":144,"name":"he munch","steam_id":76561198339644583,"connected_time":2614000000000,"state":"active","ping":55},{"user_id":174,"name":"brown municipal water","steam_id":76561198821195664,"connected_time":323000000000,"state":"active","ping":54},{"user_id":166,"name":"Paul Blart","steam_id":76561198068110623,"connected_time":857000000000,"state":"active","ping":103},{"user_id":158,"name":"Rafl","steam_id":76561198055222756,"connected_time":1716000000000,"state":"active","ping":73},{"user_id":133,"name":"Kazmirl","steam_id":76561198116008410,"connected_time":3582000000000,"state":"active","ping":106}]},{"server_id":36,"name":"Uncletopia | Chicago | 5 | All Maps","name_short":"chi-5","host":"chi-2.us.uncletopia.com","port":27015,"enabled":true,"region":"us-central","cc":"us","latitude":41.881832,"longitude":-87.62318,"reserved":0,"last_update":"0001-01-01T00:00:00Z","name_a2s":"Uncletopia | Chicago | 5 | All Maps","protocol":17,"map":"cp_powerhouse","folder":"tf","game":"Team Fortress","app_id":440,"player_count":24,"max_players":24,"Bots":0,"server_type":"Dedicated","server_os":"Linux","password":true,"vac":true,"version":"7882260","steam_id":85568392924866362,"keywords":["cp","nocrits","nodmgspread","uncletopia"],"game_id":440,"stv_port":27016,"stv_name":"Uncletopia | Chicago | 5 | All Maps | STV","players":[{"user_id":133,"name":"nav","steam_id":76561198872608266,"connected_time":566000000000,"state":"connecting","ping":306},{"user_id":18,"name":"SunNc","steam_id":76561198097711843,"connected_time":7431000000000,"state":"active","ping":117},{"user_id":105,"name":"kibsta","steam_id":76561198991982630,"connected_time":2445000000000,"state":"active","ping":47},{"user_id":119,"name":"playing tf2 in a van?","steam_id":76561198380018244,"connected_time":1308000000000,"state":"active","ping":75},{"user_id":138,"name":"marceline","steam_id":76561198799716780,"connected_time":169000000000,"state":"active","ping":78},{"user_id":117,"name":"Sone","steam_id":76561199404843697,"connected_time":1317000000000,"state":"active","ping":63},{"user_id":137,"name":"Snapsy","steam_id":76561198170457318,"connected_time":190000000000,"state":"active","ping":88},{"user_id":106,"name":"Ros","steam_id":76561199055963822,"connected_time":2359000000000,"state":"active","ping":68},{"user_id":114,"name":"Shark","steam_id":76561198219031981,"connected_time":1685000000000,"state":"active","ping":64},{"user_id":129,"name":"ultralisk52","steam_id":76561198051666604,"connected_time":798000000000,"state":"active","ping":67},{"user_id":84,"name":"Rec","steam_id":76561198022813906,"connected_time":3705000000000,"state":"active","ping":46},{"user_id":86,"name":"Jak(i)","steam_id":76561198076823144,"connected_time":3637000000000,"state":"active","ping":62},{"user_id":96,"name":"K—îliŒ∑ ‚òÑ‚òÑ‚òÑ","steam_id":76561198025495912,"connected_time":2806000000000,"state":"active","ping":41},{"user_id":135,"name":"Jacob","steam_id":76561198104661577,"connected_time":291000000000,"state":"active","ping":76},{"user_id":132,"name":"bong hit transplant","steam_id":76561198109783729,"connected_time":595000000000,"state":"active","ping":47},{"user_id":130,"name":"professional sink pisser","steam_id":76561198010370396,"connected_time":797000000000,"state":"active","ping":49},{"user_id":73,"name":"b√ºddeh","steam_id":76561198070735936,"connected_time":3798000000000,"state":"active","ping":66},{"user_id":142,"name":"Some random dude","steam_id":76561199477705792,"connected_time":30000000000,"state":"active","ping":121},{"user_id":100,"name":"C/Spoons","steam_id":76561198019227661,"connected_time":2738000000000,"state":"active","ping":39},{"user_id":116,"name":"Fobby #Savetf2","steam_id":76561198047681469,"connected_time":1333000000000,"state":"active","ping":74},{"user_id":131,"name":"skap","steam_id":76561199219790713,"connected_time":792000000000,"state":"active","ping":72},{"user_id":140,"name":"Antifa Supersoldier","steam_id":76561198141816516,"connected_time":51000000000,"state":"active","ping":62},{"user_id":134,"name":"Mug Moment Gaming","steam_id":76561198233098136,"connected_time":419000000000,"state":"active","ping":43},{"user_id":141,"name":"Emlopp","steam_id":76561198061926111,"connected_time":50000000000,"state":"active","ping":60}]},{"server_id":37,"name":"Uncletopia | Chicago | 6 | All Maps","name_short":"chi-6","host":"chi-2.us.uncletopia.com","port":27025,"enabled":true,"region":"us-central","cc":"us","latitude":41.881832,"longitude":-87.62318,"reserved":0,"last_update":"0001-01-01T00:00:00Z","name_a2s":"Uncletopia | Chicago | 6 | All Maps","protocol":17,"map":"koth_harvest_final","folder":"tf","game":"Team Fortress","app_id":440,"player_count":24,"max_players":24,"Bots":0,"server_type":"Dedicated","server_os":"Linux","password":true,"vac":true,"version":"7882260","steam_id":85568392924866363,"keywords":["cp","nocrits","nodmgspread","uncletopia"],"game_id":440,"stv_port":27026,"stv_name":"Uncletopia | Chicago | 6 | All Maps | STV","players":[{"user_id":607,"name":"Also Known As Assteeth","steam_id":76561198049837377,"connected_time":1912000000000,"state":"active","ping":49},{"user_id":588,"name":"Mint Jelly","steam_id":76561197991286751,"connected_time":2845000000000,"state":"active","ping":45},{"user_id":627,"name":"Lion of Judah","steam_id":76561198078674411,"connected_time":125000000000,"state":"active","ping":82},{"user_id":622,"name":"Cargoshorts Johnny","steam_id":76561198281732417,"connected_time":360000000000,"state":"active","ping":95},{"user_id":590,"name":"geeWIZ","steam_id":76561198067909242,"connected_time":2622000000000,"state":"active","ping":71},{"user_id":625,"name":"dunky donut","steam_id":76561198070574618,"connected_time":196000000000,"state":"active","ping":61},{"user_id":533,"name":"Cole Boye","steam_id":76561198282449106,"connected_time":7080000000000,"state":"active","ping":70},{"user_id":626,"name":"an inebriated newt fancier","steam_id":76561197985428155,"connected_time":176000000000,"state":"active","ping":55},{"user_id":620,"name":"Fstev ‚úò","steam_id":76561198358766202,"connected_time":458000000000,"state":"active","ping":208},{"user_id":619,"name":"Watchful Dilo","steam_id":76561199062829154,"connected_time":656000000000,"state":"active","ping":135},{"user_id":623,"name":"Forehead","steam_id":76561198124151399,"connected_time":340000000000,"state":"active","ping":63},{"user_id":604,"name":"Rikine","steam_id":76561198887083363,"connected_time":2185000000000,"state":"active","ping":52},{"user_id":608,"name":"Blue-Lobster-Gaming","steam_id":76561199220578772,"connected_time":1911000000000,"state":"active","ping":83},{"user_id":611,"name":"ZeroTwoMedicGayming","steam_id":76561199470465243,"connected_time":1780000000000,"state":"active","ping":82},{"user_id":628,"name":"Dice","steam_id":76561198079180538,"connected_time":110000000000,"state":"active","ping":86},{"user_id":617,"name":"jolo","steam_id":76561198042831480,"connected_time":1063000000000,"state":"active","ping":69},{"user_id":582,"name":"EK","steam_id":76561198151531499,"connected_time":3476000000000,"state":"active","ping":63},{"user_id":624,"name":"Sup m8","steam_id":76561198081659121,"connected_time":265000000000,"state":"active","ping":60},{"user_id":615,"name":"Riandox","steam_id":76561198130577326,"connected_time":1342000000000,"state":"active","ping":61},{"user_id":618,"name":"Bread Zoo","steam_id":76561198013732450,"connected_time":978000000000,"state":"active","ping":50},{"user_id":614,"name":"Geico Gaming","steam_id":76561198049203455,"connected_time":1532000000000,"state":"active","ping":64},{"user_id":598,"name":"AveraGeo","steam_id":76561198216949631,"connected_time":2234000000000,"state":"active","ping":68},{"user_id":602,"name":"CooL Guy","steam_id":76561198148263362,"connected_time":2201000000000,"state":"active","ping":56},{"user_id":603,"name":"sapoperro","steam_id":76561198873268379,"connected_time":2199000000000,"state":"active","ping":134}]},{"server_id":38,"name":"Uncletopia | Chicago | 7 | Stopwatch Beta","name_short":"chi-7","host":"chi-2.us.uncletopia.com","port":27035,"enabled":true,"region":"us-central","cc":"us","latitude":41.881832,"longitude":-87.62318,"reserved":0,"last_update":"0001-01-01T00:00:00Z","name_a2s":"Uncletopia | Chicago | 7 | Stopwatch Beta","protocol":17,"map":"workshop/koth_clearcut_b15.ugc2107050255","folder":"tf","game":"Team Fortress","app_id":440,"player_count":0,"max_players":24,"Bots":0,"server_type":"Dedicated","server_os":"Linux","password":true,"vac":true,"version":"7882260","steam_id":85568392924866364,"keywords":["cp","nocrits","nodmgspread","uncletopia"],"game_id":440,"stv_port":27036,"stv_name":"Uncletopia | Chicago | 7 | Stopwatch Beta | STV","players":null},{"server_id":39,"name":"Uncletopia | Chicago | 8 | Community","name_short":"chi-8","host":"chi-2.us.uncletopia.com","port":27045,"enabled":true,"region":"us-central","cc":"us","latitude":41.881832,"longitude":-87.62318,"reserved":0,"last_update":"0001-01-01T00:00:00Z","name_a2s":"Uncletopia | Chicago | 8 | Community","protocol":17,"map":"workshop/pl_fifthcurve_rc1.ugc648227046","folder":"tf","game":"Team Fortress","app_id":440,"player_count":0,"max_players":24,"Bots":0,"server_type":"Dedicated","server_os":"Linux","password":true,"vac":true,"version":"7882260","steam_id":85568392924866365,"keywords":["nocrits","nodmgspread","payload","uncletopia"],"game_id":440,"stv_port":27046,"stv_name":"Uncletopia | Chicago | 8 | Community | STV","players":null},{"server_id":8,"name":"Uncletopia | Dallas | 1 | All Maps","name_short":"dal-1","host":"dal-1.us.uncletopia.com","port":27015,"enabled":true,"region":"us-central","cc":"us","latitude":32.779167,"longitude":-96.80889,"reserved":0,"last_update":"0001-01-01T00:00:00Z","name_a2s":"Uncletopia | Dallas | 1 | All Maps","protocol":17,"map":"pl_snowycoast","folder":"tf","game":"Team Fortress","app_id":440,"player_count":24,"max_players":24,"Bots":0,"server_type":"Dedicated","server_os":"Linux","password":true,"vac":true,"version":"7882260","steam_id":85568392924469986,"keywords":["nocrits","nodmgspread","payload","uncletopia"],"game_id":440,"stv_port":27016,"stv_name":"Uncletopia | Dallas | 1 | All Maps | STV","players":[{"user_id":440,"name":"sneaky scout","steam_id":76561199241682865,"connected_time":901000000000,"state":"active","ping":124},{"user_id":424,"name":"nascarfan1966","steam_id":76561198046972750,"connected_time":2206000000000,"state":"active","ping":84},{"user_id":455,"name":"Lloyd","steam_id":76561197998390764,"connected_time":293000000000,"state":"active","ping":101},{"user_id":445,"name":"Mando","steam_id":76561198139662905,"connected_time":553000000000,"state":"active","ping":64},{"user_id":441,"name":"Kaloop5","steam_id":76561198971254775,"connected_time":871000000000,"state":"active","ping":121},{"user_id":446,"name":"SIRFUZWUZ","steam_id":76561198127725259,"connected_time":552000000000,"state":"active","ping":56},{"user_id":454,"name":"A SlimJim Meat Bicycle","steam_id":76561198358757709,"connected_time":309000000000,"state":"active","ping":93},{"user_id":436,"name":"errant","steam_id":76561197961758410,"connected_time":1197000000000,"state":"active","ping":34},{"user_id":416,"name":"TheHiddenBlade","steam_id":76561199129787866,"connected_time":2649000000000,"state":"active","ping":90},{"user_id":442,"name":"theconqueror","steam_id":76561199229806456,"connected_time":857000000000,"state":"active","ping":70},{"user_id":453,"name":"The Caretaker","steam_id":76561198125241411,"connected_time":356000000000,"state":"active","ping":91},{"user_id":433,"name":"ZackPlayz","steam_id":76561198393823932,"connected_time":1755000000000,"state":"active","ping":108},{"user_id":456,"name":"Shattered Glass","steam_id":76561198116835391,"connected_time":289000000000,"state":"active","ping":96},{"user_id":425,"name":"artichoke","steam_id":76561198980994364,"connected_time":2181000000000,"state":"active","ping":103},{"user_id":443,"name":"bork","steam_id":76561198838334204,"connected_time":846000000000,"state":"active","ping":45},{"user_id":451,"name":"WaywardFinn","steam_id":76561198040391296,"connected_time":375000000000,"state":"active","ping":96},{"user_id":428,"name":"imp","steam_id":76561198046951853,"connected_time":2013000000000,"state":"active","ping":85},{"user_id":418,"name":"Cheesi","steam_id":76561199417190840,"connected_time":2620000000000,"state":"active","ping":88},{"user_id":420,"name":"Grimm","steam_id":76561199242664677,"connected_time":2534000000000,"state":"active","ping":65},{"user_id":429,"name":"The One True Goblin","steam_id":76561198125034224,"connected_time":1964000000000,"state":"active","ping":63},{"user_id":449,"name":"Bedtime for Bonzo","steam_id":76561198121256258,"connected_time":499000000000,"state":"active","ping":74},{"user_id":452,"name":"leumas","steam_id":76561198240408540,"connected_time":374000000000,"state":"active","ping":75},{"user_id":435,"name":"Sneakinsed","steam_id":76561199102075970,"connected_time":1563000000000,"state":"active","ping":84},{"user_id":427,"name":"Frank.","steam_id":76561198225910596,"connected_time":2040000000000,"state":"active","ping":59}]},{"server_id":108,"name":"Uncletopia | Dallas | 2 | All Maps","name_short":"dal-2","host":"dal-1.us.uncletopia.com","port":27025,"enabled":true,"region":"us-central","cc":"us","latitude":32.779167,"longitude":-96.80889,"reserved":0,"last_update":"0001-01-01T00:00:00Z","name_a2s":"Uncletopia | Dallas | 2 | All Maps","protocol":17,"map":"pl_badwater","folder":"tf","game":"Team Fortress","app_id":440,"player_count":24,"max_players":24,"Bots":0,"server_type":"Dedicated","server_os":"Linux","password":true,"vac":true,"version":"7882260","steam_id":85568392924469988,"keywords":["nocrits","nodmgspread","payload","uncletopia"],"game_id":440,"stv_port":27026,"stv_name":"Uncletopia | Dallas | 2 | All Maps | STV","players":[{"user_id":501,"name":"King Dedede","steam_id":76561198313267119,"connected_time":1926000000000,"state":"active","ping":53},{"user_id":456,"name":"catfish from toontown","steam_id":76561198060070002,"connected_time":3580000000000,"state":"active","ping":56},{"user_id":587,"name":"The Pope","steam_id":76561198313560302,"connected_time":211000000000,"state":"active","ping":48},{"user_id":438,"name":"Pussy Punisher","steam_id":76561198032321388,"connected_time":4600000000000,"state":"active","ping":102},{"user_id":483,"name":"n99k","steam_id":76561198203732449,"connected_time":2358000000000,"state":"active","ping":77},{"user_id":467,"name":"Jailbreaker186","steam_id":76561199079970931,"connected_time":2799000000000,"state":"active","ping":146},{"user_id":457,"name":"Grand Piano Tuna","steam_id":76561198135137213,"connected_time":3520000000000,"state":"active","ping":47},{"user_id":487,"name":"TheFryingDutchman","steam_id":76561199193784099,"connected_time":2274000000000,"state":"active","ping":68},{"user_id":470,"name":"The Cool Man","steam_id":76561198096420556,"connected_time":2787000000000,"state":"active","ping":78},{"user_id":555,"name":"Carmaggedon","steam_id":76561198098744340,"connected_time":987000000000,"state":"active","ping":71},{"user_id":525,"name":"sleepy (Pocket choice)","steam_id":76561199283485895,"connected_time":1532000000000,"state":"active","ping":100},{"user_id":397,"name":"TeriyakiDynamite","steam_id":76561198050049346,"connected_time":7547000000000,"state":"active","ping":180},{"user_id":545,"name":"moe","steam_id":76561198929586245,"connected_time":1145000000000,"state":"active","ping":81},{"user_id":440,"name":"HOODOO_LOVER_2007","steam_id":76561199087691214,"connected_time":4577000000000,"state":"active","ping":94},{"user_id":576,"name":"Jattiti","steam_id":76561199214217870,"connected_time":443000000000,"state":"active","ping":81},{"user_id":592,"name":"Speedy","steam_id":76561198873086850,"connected_time":135000000000,"state":"active","ping":95},{"user_id":453,"name":"plink","steam_id":76561198057829889,"connected_time":3630000000000,"state":"active","ping":53},{"user_id":391,"name":"DMM","steam_id":76561198065426171,"connected_time":7914000000000,"state":"active","ping":55},{"user_id":551,"name":"Zixzs","steam_id":76561198055504126,"connected_time":1074000000000,"state":"active","ping":78},{"user_id":578,"name":"[ENG] Moo Guy","steam_id":76561198114598079,"connected_time":392000000000,"state":"active","ping":76},{"user_id":582,"name":"RUF","steam_id":76561198062315805,"connected_time":310000000000,"state":"active","ping":85},{"user_id":591,"name":"Grand_Fantasia","steam_id":76561198369996299,"connected_time":178000000000,"state":"active","ping":130},{"user_id":548,"name":"MellowBoy-2354","steam_id":76561199080630632,"connected_time":1128000000000,"state":"active","ping":93},{"user_id":541,"name":"deb","steam_id":76561198414336279,"connected_time":1232000000000,"state":"active","ping":61}]},{"server_id":5,"name":"Uncletopia | Frankfurt | 1 | All Maps","name_short":"frk-1","host":"frk-1.de.uncletopia.com","port":27015,"enabled":true,"region":"eu","cc":"de","latitude":50.110924,"longitude":8.682127,"reserved":0,"last_update":"0001-01-01T00:00:00Z","name_a2s":"Uncletopia | Frankfurt | 1 | All Maps","protocol":17,"map":"pl_barnblitz","folder":"tf","game":"Team Fortress","app_id":440,"player_count":24,"max_players":24,"Bots":0,"server_type":"Dedicated","server_os":"Linux","password":true,"vac":true,"version":"7882260","steam_id":85568392924469989,"keywords":["nocrits","nodmgspread","payload","uncletopia"],"game_id":440,"stv_port":27016,"stv_name":"Uncletopia | Frankfurt | 1 | All Maps | STV","players":[{"user_id":805,"name":"senior pomidor","steam_id":76561198123659806,"connected_time":620000000000,"state":"active","ping":95},{"user_id":788,"name":"Pepsy","steam_id":76561198167294143,"connected_time":1044000000000,"state":"active","ping":153},{"user_id":808,"name":"Bread","steam_id":76561198145232617,"connected_time":357000000000,"state":"active","ping":54},{"user_id":756,"name":"Hyppy ja liipasin pohjaan :D","steam_id":76561198080669698,"connected_time":3491000000000,"state":"active","ping":100},{"user_id":771,"name":"Groose","steam_id":76561198261094295,"connected_time":1695000000000,"state":"active","ping":64},{"user_id":789,"name":"Pa-Py-ro-ni","steam_id":76561198139054162,"connected_time":956000000000,"state":"active","ping":147},{"user_id":785,"name":"murf","steam_id":76561199184831395,"connected_time":1166000000000,"state":"active","ping":51},{"user_id":790,"name":"Liko","steam_id":76561197994660517,"connected_time":945000000000,"state":"active","ping":73},{"user_id":807,"name":"Raskell","steam_id":76561198064617950,"connected_time":507000000000,"state":"active","ping":162},{"user_id":806,"name":"nikkielmao","steam_id":76561198086229832,"connected_time":593000000000,"state":"active","ping":60},{"user_id":791,"name":"Yeets3er","steam_id":76561199137127757,"connected_time":930000000000,"state":"active","ping":61},{"user_id":794,"name":"DoDonPachi","steam_id":76561199085984801,"connected_time":880000000000,"state":"active","ping":75},{"user_id":782,"name":"El Bisexual","steam_id":76561198053207411,"connected_time":1231000000000,"state":"active","ping":191},{"user_id":783,"name":"Roofedskydiver","steam_id":76561198453258659,"connected_time":1212000000000,"state":"active","ping":148},{"user_id":784,"name":"ShiningSpider","steam_id":76561199020884035,"connected_time":1205000000000,"state":"active","ping":163},{"user_id":786,"name":"TrokirachOnFireíâ≠","steam_id":76561198857553302,"connected_time":1132000000000,"state":"active","ping":61},{"user_id":802,"name":"Sandy","steam_id":76561198049652500,"connected_time":745000000000,"state":"active","ping":75},{"user_id":809,"name":"AVOID EVERYONE","steam_id":76561198051852765,"connected_time":92000000000,"state":"active","ping":61},{"user_id":800,"name":"Pawoss","steam_id":76561198050416391,"connected_time":804000000000,"state":"active","ping":76},{"user_id":795,"name":"‚òÅ Lou1smeister ‚òÅ","steam_id":76561198004032968,"connected_time":870000000000,"state":"active","ping":75},{"user_id":804,"name":"Alice in Rubberland","steam_id":76561198087328346,"connected_time":712000000000,"state":"active","ping":148},{"user_id":766,"name":"asko","steam_id":76561198081966620,"connected_time":2336000000000,"state":"active","ping":85},{"user_id":803,"name":"margaret thatcher's girl power","steam_id":76561199401283123,"connected_time":728000000000,"state":"active","ping":67},{"user_id":799,"name":"joebot","steam_id":76561197975606100,"connected_time":846000000000,"state":"active","ping":144}]},{"server_id":110,"name":"Uncletopia | Frankfurt | 2 | All Maps","name_short":"frk-2","host":"frk-1.de.uncletopia.com","port":27025,"enabled":true,"region":"eu","cc":"de","latitude":50.110924,"longitude":8.682127,"reserved":0,"last_update":"0001-01-01T00:00:00Z","name_a2s":"Uncletopia | Frankfurt | 2 | All Maps","protocol":17,"map":"koth_viaduct","folder":"tf","game":"Team Fortress","app_id":440,"player_count":0,"max_players":24,"Bots":0,"server_type":"Dedicated","server_os":"Linux","password":true,"vac":true,"version":"7882260","steam_id":85568392924469990,"keywords":["cp","nocrits","nodmgspread","uncletopia"],"game_id":440,"stv_port":27026,"stv_name":"Uncletopia | Frankfurt | 2 | All Maps | STV","players":null},{"server_id":308,"name":"Uncletopia | Frankfurt | 3 | All Maps","name_short":"frk-3","host":"frk-1.de.uncletopia.com","port":27035,"enabled":true,"region":"eu","cc":"de","latitude":50.110924,"longitude":8.682127,"reserved":0,"last_update":"0001-01-01T00:00:00Z","name_a2s":"Uncletopia | Frankfurt | 3 | All Maps","protocol":17,"map":"koth_viaduct","folder":"tf","game":"Team Fortress","app_id":440,"player_count":0,"max_players":24,"Bots":0,"server_type":"Dedicated","server_os":"Linux","password":true,"vac":true,"version":"7882260","steam_id":85568392924504274,"keywords":["cp","nocrits","nodmgspread","uncletopia"],"game_id":440,"stv_port":27036,"stv_name":"Uncletopia | Frankfurt | 3 | All Maps | STV","players":null},{"server_id":309,"name":"Uncletopia | Frankfurt | 4 | All Maps","name_short":"frk-4","host":"frk-1.de.uncletopia.com","port":27045,"enabled":true,"region":"eu","cc":"de","latitude":50.110924,"longitude":8.682127,"reserved":0,"last_update":"0001-01-01T00:00:00Z","name_a2s":"Uncletopia | Frankfurt | 4 | All Maps","protocol":17,"map":"pl_barnblitz","folder":"tf","game":"Team Fortress","app_id":440,"player_count":0,"max_players":24,"Bots":0,"server_type":"Dedicated","server_os":"Linux","password":true,"vac":true,"version":"7882260","steam_id":85568392924504275,"keywords":["nocrits","nodmgspread","payload","uncletopia"],"game_id":440,"stv_port":27046,"stv_name":"Uncletopia | Frankfurt | 4 | All Maps | STV","players":null},{"server_id":310,"name":"Uncletopia | Frankfurt | 5 | All Maps","name_short":"frk-5","host":"frk-1.de.uncletopia.com","port":27055,"enabled":true,"region":"eu","cc":"de","latitude":50.110924,"longitude":8.682127,"reserved":0,"last_update":"0001-01-01T00:00:00Z","name_a2s":"Uncletopia | Frankfurt | 5 | All Maps","protocol":17,"map":"pl_snowycoast","folder":"tf","game":"Team Fortress","app_id":440,"player_count":0,"max_players":24,"Bots":0,"server_type":"Dedicated","server_os":"Linux","password":true,"vac":true,"version":"7882260","steam_id":85568392924504277,"keywords":["nocrits","nodmgspread","payload","uncletopia"],"game_id":440,"stv_port":27056,"stv_name":"Uncletopia | Frankfurt | 5 | All Maps | STV","players":null},{"server_id":311,"name":"Uncletopia | Frankfurt | 6 | All Maps","name_short":"frk-6","host":"frk-1.de.uncletopia.com","port":27065,"enabled":true,"region":"eu","cc":"de","latitude":50.110924,"longitude":8.682127,"reserved":0,"last_update":"0001-01-01T00:00:00Z","name_a2s":"Uncletopia | Frankfurt | 6 | All Maps","protocol":17,"map":"koth_lakeside_final","folder":"tf","game":"Team Fortress","app_id":440,"player_count":0,"max_players":24,"Bots":0,"server_type":"Dedicated","server_os":"Linux","password":true,"vac":true,"version":"7882260","steam_id":85568392924504278,"keywords":["cp","nocrits","nodmgspread","uncletopia"],"game_id":440,"stv_port":27066,"stv_name":"Uncletopia | Frankfurt | 6 | All Maps | STV","players":null},{"server_id":23,"name":"Uncletopia | Frankfurt | 7 | Stopwatch Beta","name_short":"frk-7","host":"frk-1.de.uncletopia.com","port":27075,"enabled":true,"region":"eu","cc":"de","latitude":50.110924,"longitude":8.682127,"reserved":0,"last_update":"0001-01-01T00:00:00Z","name_a2s":"Uncletopia | Frankfurt | 7 | Stopwatch Beta","protocol":17,"map":"workshop/koth_bagel_rc6.ugc2514036946","folder":"tf","game":"Team Fortress","app_id":440,"player_count":0,"max_players":24,"Bots":0,"server_type":"Dedicated","server_os":"Linux","password":true,"vac":true,"version":"7882260","steam_id":85568392924742827,"keywords":["cp","nocrits","nodmgspread","uncletopia"],"game_id":440,"stv_port":27076,"stv_name":"Uncletopia | Frankfurt | 7 | Stopwatch Beta | STV","players":null},{"server_id":24,"name":"Uncletopia | Frankfurt | 8 | Community","name_short":"frk-8","host":"frk-1.de.uncletopia.com","port":27085,"enabled":true,"region":"eu","cc":"de","latitude":50.110924,"longitude":8.682127,"reserved":0,"last_update":"0001-01-01T00:00:00Z","name_a2s":"Uncletopia | Frankfurt | 8 | Community","protocol":17,"map":"workshop/pl_corrode_rc2.ugc546577989","folder":"tf","game":"Team Fortress","app_id":440,"player_count":0,"max_players":24,"Bots":0,"server_type":"Dedicated","server_os":"Linux","password":true,"vac":true,"version":"7882260","steam_id":85568392924742828,"keywords":["nocrits","nodmgspread","payload","uncletopia"],"game_id":440,"stv_port":27086,"stv_name":"Uncletopia | Frankfurt | 8 | Community | STV","players":null},{"server_id":202,"name":"Uncletopia | Hong Kong | 1 | All Maps","name_short":"hgk-1","host":"hgk-1.hk.uncletopia.com","port":27015,"enabled":true,"region":"asia","cc":"hk","latitude":22.302711,"longitude":114.177216,"reserved":0,"last_update":"0001-01-01T00:00:00Z","name_a2s":"Uncletopia | Hong Kong | 1 | All Maps","protocol":17,"map":"koth_viaduct","folder":"tf","game":"Team Fortress","app_id":440,"player_count":0,"max_players":24,"Bots":0,"server_type":"Dedicated","server_os":"Linux","password":true,"vac":true,"version":"7882260","steam_id":85568392924494504,"keywords":["cp","nocrits","nodmgspread","uncletopia"],"game_id":440,"stv_port":27016,"stv_name":"Uncletopia | Hong Kong | 1 | All Maps | STV","players":null},{"server_id":1,"name":"Uncletopia | Los Angeles | 1 | All Maps","name_short":"lax-1","host":"lax-1.us.uncletopia.com","port":27015,"enabled":true,"region":"us-west","cc":"us","latitude":33.94279,"longitude":-118.41004,"reserved":0,"last_update":"0001-01-01T00:00:00Z","name_a2s":"Uncletopia | Los Angeles | 1 | All Maps","protocol":17,"map":"cp_sunshine","folder":"tf","game":"Team Fortress","app_id":440,"player_count":24,"max_players":24,"Bots":0,"server_type":"Dedicated","server_os":"Linux","password":true,"vac":true,"version":"7882260","steam_id":85568392924469991,"keywords":["cp","nocrits","nodmgspread","uncletopia"],"game_id":440,"stv_port":27016,"stv_name":"Uncletopia | Los Angeles | 1 | All Maps | STV","players":[{"user_id":305,"name":"Schnitz","steam_id":76561198265484253,"connected_time":377000000000,"state":"active","ping":57},{"user_id":304,"name":"Skagerecked","steam_id":76561198006578524,"connected_time":415000000000,"state":"active","ping":86},{"user_id":325,"name":"Magnet Dood","steam_id":76561198364178746,"connected_time":37000000000,"state":"active","ping":108},{"user_id":265,"name":"whxle","steam_id":76561198253193544,"connected_time":3535000000000,"state":"active","ping":104},{"user_id":306,"name":"50,372 european wheat farmers","steam_id":76561198297326065,"connected_time":365000000000,"state":"active","ping":49},{"user_id":287,"name":"GLXy","steam_id":76561198207551544,"connected_time":1901000000000,"state":"active","ping":76},{"user_id":307,"name":"carti","steam_id":76561199037980939,"connected_time":364000000000,"state":"active","ping":81},{"user_id":314,"name":"gerge","steam_id":76561198092238353,"connected_time":252000000000,"state":"active","ping":82},{"user_id":321,"name":"The Spanked Monkey","steam_id":76561198128293111,"connected_time":107000000000,"state":"active","ping":105},{"user_id":276,"name":"Why Me...","steam_id":76561199124019937,"connected_time":3208000000000,"state":"active","ping":66},{"user_id":309,"name":"TheLuzinator","steam_id":76561198377144604,"connected_time":353000000000,"state":"active","ping":137},{"user_id":267,"name":"A Can of Arizona Green Tea","steam_id":76561198062481133,"connected_time":3426000000000,"state":"active","ping":94},{"user_id":303,"name":"SLOPPY BLOWJOB DEVIL","steam_id":76561198819545533,"connected_time":420000000000,"state":"active","ping":105},{"user_id":320,"name":"Brain Magic","steam_id":76561198010201477,"connected_time":186000000000,"state":"active","ping":56},{"user_id":300,"name":"Moomin","steam_id":76561198072726213,"connected_time":429000000000,"state":"active","ping":53},{"user_id":297,"name":"NFL.com","steam_id":76561198113405376,"connected_time":1255000000000,"state":"active","ping":54},{"user_id":311,"name":"jay","steam_id":76561199474493516,"connected_time":315000000000,"state":"active","ping":46},{"user_id":301,"name":"medicbag_lover42","steam_id":76561199059733640,"connected_time":424000000000,"state":"active","ping":74},{"user_id":312,"name":"i cry .","steam_id":76561199193020423,"connected_time":304000000000,"state":"active","ping":55},{"user_id":315,"name":"Grungy Bungee","steam_id":76561199105386998,"connected_time":247000000000,"state":"active","ping":81},{"user_id":326,"name":"BuncusBeffer","steam_id":76561198285936616,"connected_time":12000000000,"state":"active","ping":73},{"user_id":296,"name":"Tocha","steam_id":76561198119725400,"connected_time":1293000000000,"state":"active","ping":101},{"user_id":324,"name":"TwistedHowitzer","steam_id":76561199483209856,"connected_time":47000000000,"state":"active","ping":304},{"user_id":323,"name":"gumcuzzler","steam_id":76561198118644686,"connected_time":82000000000,"state":"active","ping":54}]},{"server_id":112,"name":"Uncletopia | Los Angeles | 2 | All Maps","name_short":"lax-2","host":"lax-1.us.uncletopia.com","port":27025,"enabled":true,"region":"us-west","cc":"us","latitude":33.94279,"longitude":-118.41004,"reserved":0,"last_update":"0001-01-01T00:00:00Z","name_a2s":"Uncletopia | Los Angeles | 2 | All Maps","protocol":17,"map":"pl_upward","folder":"tf","game":"Team Fortress","app_id":440,"player_count":24,"max_players":24,"Bots":0,"server_type":"Dedicated","server_os":"Linux","password":true,"vac":true,"version":"7882260","steam_id":85568392924469992,"keywords":["nocrits","nodmgspread","payload","uncletopia"],"game_id":440,"stv_port":27026,"stv_name":"Uncletopia | Los Angeles | 2 | All Maps | STV","players":[{"user_id":95,"name":"ZeFizzyPop‚Ñ¢","steam_id":76561198258104981,"connected_time":624000000000,"state":"active","ping":106},{"user_id":104,"name":"RIP Old Man Chico :(","steam_id":76561198865172720,"connected_time":211000000000,"state":"active","ping":63},{"user_id":63,"name":"Belmore","steam_id":76561198009355231,"connected_time":2615000000000,"state":"active","ping":51},{"user_id":21,"name":"‡ºò ‚ãÜÀöüéßCaffeine‚òï*Àñ¬∞","steam_id":76561199259309294,"connected_time":4510000000000,"state":"active","ping":138},{"user_id":97,"name":"help me","steam_id":76561199041547921,"connected_time":586000000000,"state":"active","ping":77},{"user_id":99,"name":"Detective KOnan","steam_id":76561198046702519,"connected_time":515000000000,"state":"active","ping":98},{"user_id":103,"name":"Ralph Kramden (Slim Charles)","steam_id":76561197981687895,"connected_time":264000000000,"state":"active","ping":57},{"user_id":94,"name":"DioMagnus","steam_id":76561198299391327,"connected_time":647000000000,"state":"active","ping":45},{"user_id":90,"name":"Keb","steam_id":76561198095467734,"connected_time":1194000000000,"state":"active","ping":107},{"user_id":98,"name":"Orion","steam_id":76561198000418837,"connected_time":584000000000,"state":"active","ping":88},{"user_id":100,"name":"nosieman","steam_id":76561198068307876,"connected_time":386000000000,"state":"active","ping":63},{"user_id":88,"name":"Spooby","steam_id":76561198168114366,"connected_time":1380000000000,"state":"active","ping":108},{"user_id":29,"name":"Green Icicle","steam_id":76561198069624529,"connected_time":4132000000000,"state":"active","ping":63},{"user_id":89,"name":"HooDoo","steam_id":76561198088994018,"connected_time":1347000000000,"state":"active","ping":79},{"user_id":96,"name":"JellyParrot","steam_id":76561199190990163,"connected_time":617000000000,"state":"active","ping":99},{"user_id":102,"name":"BigGoose","steam_id":76561198833281392,"connected_time":296000000000,"state":"active","ping":72},{"user_id":92,"name":"elephant thumb","steam_id":76561198118859752,"connected_time":954000000000,"state":"active","ping":46},{"user_id":35,"name":"nori_420","steam_id":76561199117134203,"connected_time":4040000000000,"state":"active","ping":57},{"user_id":79,"name":"CoralDawn","steam_id":76561198292292930,"connected_time":1960000000000,"state":"active","ping":97},{"user_id":80,"name":"Church","steam_id":76561197999844640,"connected_time":1952000000000,"state":"active","ping":97},{"user_id":84,"name":"town.midi","steam_id":76561198059041027,"connected_time":1673000000000,"state":"active","ping":90},{"user_id":85,"name":"Starkiller","steam_id":76561198101643120,"connected_time":1555000000000,"state":"active","ping":71},{"user_id":43,"name":"A UsedNom","steam_id":76561198402832756,"connected_time":3857000000000,"state":"active","ping":45},{"user_id":46,"name":"yellow ·óúÀ¨·óú","steam_id":76561198366474647,"connected_time":3759000000000,"state":"active","ping":45}]},{"server_id":324,"name":"Uncletopia | Los Angeles | 3 | All Maps","name_short":"lax-3","host":"lax-1.us.uncletopia.com","port":27035,"enabled":true,"region":"us-west","cc":"us","latitude":33.94279,"longitude":-118.41004,"reserved":0,"last_update":"0001-01-01T00:00:00Z","name_a2s":"Uncletopia | Los Angeles | 3 | All Maps","protocol":17,"map":"pl_borneo","folder":"tf","game":"Team Fortress","app_id":440,"player_count":0,"max_players":24,"Bots":0,"server_type":"Dedicated","server_os":"Linux","password":true,"vac":true,"version":"7882260","steam_id":85568392924510198,"keywords":["nocrits","nodmgspread","payload","uncletopia"],"game_id":440,"stv_port":27036,"stv_name":"Uncletopia | Los Angeles | 3 | All Maps | STV","players":null},{"server_id":25,"name":"Uncletopia | Los Angeles | 4 | Stopwatch Beta","name_short":"lax-4","host":"lax-1.us.uncletopia.com","port":27045,"enabled":true,"region":"us-west","cc":"us","latitude":33.94279,"longitude":-118.41004,"reserved":0,"last_update":"0001-01-01T00:00:00Z","name_a2s":"Uncletopia | Los Angeles | 4 | Stopwatch Beta","protocol":17,"map":"koth_viaduct","folder":"tf","game":"Team Fortress","app_id":440,"player_count":0,"max_players":24,"Bots":0,"server_type":"Dedicated","server_os":"Linux","password":true,"vac":true,"version":"7882260","steam_id":85568392924510199,"keywords":["cp","nocrits","nodmgspread","uncletopia"],"game_id":440,"stv_port":27046,"stv_name":"Uncletopia | Los Angeles | 4 | Stopwatch Beta | STV","players":null},{"server_id":11,"name":"Uncletopia | London | 1 | All Maps","name_short":"lon-1","host":"lon-1.uk.uncletopia.com","port":27015,"enabled":true,"region":"eu","cc":"gb","latitude":51.509865,"longitude":-0.118092,"reserved":0,"last_update":"0001-01-01T00:00:00Z","name_a2s":"Uncletopia | London | 1 | All Maps","protocol":17,"map":"koth_harvest_final","folder":"tf","game":"Team Fortress","app_id":440,"player_count":24,"max_players":24,"Bots":0,"server_type":"Dedicated","server_os":"Linux","password":true,"vac":true,"version":"7882260","steam_id":85568392924367362,"keywords":["cp","nocrits","nodmgspread","uncletopia"],"game_id":440,"stv_port":27016,"stv_name":"Uncletopia | London | 1 | All Maps | STV","players":[{"user_id":1000,"name":"Elder Sw√∂tch","steam_id":76561198249329044,"connected_time":507000000000,"state":"active","ping":72},{"user_id":988,"name":"literally vi from arcane","steam_id":76561198275609453,"connected_time":761000000000,"state":"active","ping":69},{"user_id":981,"name":"Malsi","steam_id":76561199061284165,"connected_time":1911000000000,"state":"active","ping":85},{"user_id":1016,"name":"won listenT_T","steam_id":76561199273774208,"connected_time":39000000000,"state":"active","ping":76},{"user_id":1003,"name":"big piss","steam_id":76561198041295143,"connected_time":374000000000,"state":"active","ping":46},{"user_id":1017,"name":"Evix","steam_id":76561198418450671,"connected_time":5000000000,"state":"spawning","ping":46},{"user_id":983,"name":"Minimi","steam_id":76561198873850443,"connected_time":1880000000000,"state":"active","ping":39},{"user_id":965,"name":"A Succulent Chinese Meal","steam_id":76561198069472440,"connected_time":3325000000000,"state":"active","ping":71},{"user_id":992,"name":"Ivan Ivanich Ivanisky","steam_id":76561198030992243,"connected_time":716000000000,"state":"active","ping":112},{"user_id":1008,"name":"KeithStone","steam_id":76561197986083582,"connected_time":127000000000,"state":"active","ping":173},{"user_id":926,"name":"beebo","steam_id":76561199120277007,"connected_time":6771000000000,"state":"active","ping":45},{"user_id":954,"name":"Kristianma","steam_id":76561198021772843,"connected_time":4754000000000,"state":"active","ping":61},{"user_id":995,"name":"The Giant Enemy Spider","steam_id":76561199466021302,"connected_time":699000000000,"state":"active","ping":56},{"user_id":967,"name":"Slifer the /\\(‚óâ‡∑¥‚óâ)/ \\","steam_id":76561198062255803,"connected_time":3166000000000,"state":"active","ping":74},{"user_id":982,"name":"sora :3","steam_id":76561198096547662,"connected_time":1883000000000,"state":"active","ping":56},{"user_id":996,"name":"davegrohl","steam_id":76561198138458704,"connected_time":666000000000,"state":"active","ping":47},{"user_id":999,"name":"Gnome561","steam_id":76561198183771141,"connected_time":567000000000,"state":"active","ping":65},{"user_id":985,"name":"teddy","steam_id":76561198007436837,"connected_time":1848000000000,"state":"active","ping":31},{"user_id":974,"name":"SERIAL_CODE","steam_id":76561197981488663,"connected_time":2529000000000,"state":"active","ping":44},{"user_id":978,"name":"Rob","steam_id":76561198346638308,"connected_time":2031000000000,"state":"active","ping":51},{"user_id":928,"name":"Bonca","steam_id":76561198137503531,"connected_time":6693000000000,"state":"active","ping":69},{"user_id":947,"name":"gnarly business","steam_id":76561198832688767,"connected_time":5387000000000,"state":"active","ping":46},{"user_id":970,"name":"Mega Saturn","steam_id":76561198024750500,"connected_time":2806000000000,"state":"active","ping":79},{"user_id":1002,"name":"Mateen (pbuh)","steam_id":76561198253308058,"connected_time":434000000000,"state":"active","ping":69}]},{"server_id":114,"name":"Uncletopia | London | 2 | All Maps","name_short":"lon-2","host":"lon-1.uk.uncletopia.com","port":27025,"enabled":true,"region":"eu","cc":"gb","latitude":51.509865,"longitude":-0.118092,"reserved":0,"last_update":"0001-01-01T00:00:00Z","name_a2s":"Uncletopia | London | 2 | All Maps","protocol":17,"map":"pl_snowycoast","folder":"tf","game":"Team Fortress","app_id":440,"player_count":24,"max_players":24,"Bots":0,"server_type":"Dedicated","server_os":"Linux","password":true,"vac":true,"version":"7882260","steam_id":85568392924470941,"keywords":["nocrits","nodmgspread","payload","uncletopia"],"game_id":440,"stv_port":27026,"stv_name":"Uncletopia | London | 2 | All Maps | STV","players":[{"user_id":522,"name":"‚ô¶‚ô£Quadric‚ô•‚ô†","steam_id":76561198061003853,"connected_time":2753000000000,"state":"active","ping":124},{"user_id":533,"name":"tm`","steam_id":76561197993580412,"connected_time":1600000000000,"state":"active","ping":70},{"user_id":529,"name":"\u003c2","steam_id":76561197985648849,"connected_time":1640000000000,"state":"active","ping":62},{"user_id":463,"name":"SirNeeco \u003c3","steam_id":76561198103014203,"connected_time":6245000000000,"state":"active","ping":66},{"user_id":517,"name":"Piteras","steam_id":76561198858532207,"connected_time":3077000000000,"state":"active","ping":81},{"user_id":505,"name":"Peanut","steam_id":76561198018865486,"connected_time":4140000000000,"state":"active","ping":64},{"user_id":509,"name":"Valen","steam_id":76561198049614521,"connected_time":3626000000000,"state":"active","ping":75},{"user_id":435,"name":"Twiggu","steam_id":76561198070853128,"connected_time":8565000000000,"state":"active","ping":81},{"user_id":465,"name":"Psychicpie","steam_id":76561198126065206,"connected_time":6213000000000,"state":"active","ping":59},{"user_id":496,"name":"Steen","steam_id":76561198122992510,"connected_time":4319000000000,"state":"active","ping":45},{"user_id":537,"name":"etc","steam_id":76561197998394797,"connected_time":1205000000000,"state":"active","ping":50},{"user_id":535,"name":"Monsrox","steam_id":76561198253732619,"connected_time":1555000000000,"state":"active","ping":158},{"user_id":534,"name":"t.tv/anguishjumps","steam_id":76561198086442571,"connected_time":1583000000000,"state":"active","ping":48},{"user_id":526,"name":"Criminal","steam_id":76561198353399383,"connected_time":2029000000000,"state":"active","ping":58},{"user_id":536,"name":"Plain Toast","steam_id":76561198451580251,"connected_time":1525000000000,"state":"active","ping":158},{"user_id":520,"name":"OWOverkill","steam_id":76561198120569764,"connected_time":2845000000000,"state":"active","ping":140},{"user_id":539,"name":"Spoofr","steam_id":76561199267825043,"connected_time":512000000000,"state":"active","ping":69},{"user_id":528,"name":"Jack_26","steam_id":76561198034566531,"connected_time":1935000000000,"state":"active","ping":96},{"user_id":507,"name":"GroGroudonDu31","steam_id":76561198155106297,"connected_time":3967000000000,"state":"active","ping":60},{"user_id":513,"name":"Paladin","steam_id":76561198042593027,"connected_time":3399000000000,"state":"active","ping":97},{"user_id":514,"name":"dinorno","steam_id":76561198146276830,"connected_time":3383000000000,"state":"active","ping":70},{"user_id":515,"name":"Vernom","steam_id":76561199244908741,"connected_time":3373000000000,"state":"active","ping":72},{"user_id":531,"name":"Cynosure","steam_id":76561198121286517,"connected_time":1615000000000,"state":"active","ping":32},{"user_id":532,"name":"Bassachusetts","steam_id":76561198073769916,"connected_time":1615000000000,"state":"active","ping":49}]},{"server_id":320,"name":"Uncletopia | London | 3 | All Maps","name_short":"lon-3","host":"lon-1.uk.uncletopia.com","port":27035,"enabled":true,"region":"eu","cc":"gb","latitude":51.509865,"longitude":-0.118092,"reserved":0,"last_update":"0001-01-01T00:00:00Z","name_a2s":"Uncletopia | London | 3 | All Maps","protocol":17,"map":"koth_lakeside_final","folder":"tf","game":"Team Fortress","app_id":440,"player_count":0,"max_players":24,"Bots":0,"server_type":"Dedicated","server_os":"Linux","password":true,"vac":true,"version":"7882260","steam_id":85568392924510192,"keywords":["cp","nocrits","nodmgspread","uncletopia"],"game_id":440,"stv_port":27036,"stv_name":"Uncletopia | London | 3 | All Maps | STV","players":null},{"server_id":321,"name":"Uncletopia | London | 4 | All Maps","name_short":"lon-4","host":"lon-1.uk.uncletopia.com","port":27045,"enabled":true,"region":"eu","cc":"gb","latitude":51.509865,"longitude":-0.118092,"reserved":0,"last_update":"0001-01-01T00:00:00Z","name_a2s":"Uncletopia | London | 4 | All Maps","protocol":17,"map":"pl_badwater","folder":"tf","game":"Team Fortress","app_id":440,"player_count":0,"max_players":24,"Bots":0,"server_type":"Dedicated","server_os":"Linux","password":true,"vac":true,"version":"7882260","steam_id":85568392924510193,"keywords":["nocrits","nodmgspread","payload","uncletopia"],"game_id":440,"stv_port":27046,"stv_name":"Uncletopia | London | 4 | All Maps | STV","players":null},{"server_id":21,"name":"Uncletopia | London | 5 | All Maps","name_short":"lon-5","host":"lon-1.uk.uncletopia.com","port":27055,"enabled":true,"region":"eu","cc":"gb","latitude":51.509865,"longitude":-0.118092,"reserved":0,"last_update":"0001-01-01T00:00:00Z","name_a2s":"Uncletopia | London | 5 | All Maps","protocol":17,"map":"cp_5gorge","folder":"tf","game":"Team Fortress","app_id":440,"player_count":18,"max_players":24,"Bots":0,"server_type":"Dedicated","server_os":"Linux","password":true,"vac":true,"version":"7882260","steam_id":85568392924742829,"keywords":["cp","nocrits","nodmgspread","uncletopia"],"game_id":440,"stv_port":27056,"stv_name":"Uncletopia | London | 5 | All Maps | STV","players":[{"user_id":686,"name":"BuzzBees ‚ù§","steam_id":76561198101502273,"connected_time":2314000000000,"state":"active","ping":60},{"user_id":700,"name":"Princess Peach","steam_id":76561198260272240,"connected_time":533000000000,"state":"active","ping":45},{"user_id":662,"name":"GabeTheGoldfish","steam_id":76561198153408011,"connected_time":4614000000000,"state":"active","ping":73},{"user_id":701,"name":"ja","steam_id":76561199228540618,"connected_time":473000000000,"state":"active","ping":75},{"user_id":707,"name":"drgh","steam_id":76561198087299888,"connected_time":71000000000,"state":"active","ping":68},{"user_id":702,"name":"dd","steam_id":76561198257836694,"connected_time":422000000000,"state":"active","ping":31},{"user_id":708,"name":"-Shambles-","steam_id":76561199371026366,"connected_time":47000000000,"state":"active","ping":311},{"user_id":672,"name":"Li√∏nHeart","steam_id":76561198081370704,"connected_time":3926000000000,"state":"active","ping":57},{"user_id":704,"name":"dools18","steam_id":76561198880768062,"connected_time":290000000000,"state":"active","ping":54},{"user_id":663,"name":"IndigoJones","steam_id":76561198050284262,"connected_time":4597000000000,"state":"active","ping":45},{"user_id":690,"name":"Tyranitar","steam_id":76561198094473194,"connected_time":2211000000000,"state":"active","ping":66},{"user_id":695,"name":"General Petrov","steam_id":76561198027204104,"connected_time":1094000000000,"state":"active","ping":81},{"user_id":691,"name":"my fault og","steam_id":76561198256811438,"connected_time":1380000000000,"state":"active","ping":94},{"user_id":640,"name":"A Pigeon","steam_id":76561198114090555,"connected_time":6365000000000,"state":"active","ping":80},{"user_id":698,"name":"puck_panzer","steam_id":76561198121260981,"connected_time":801000000000,"state":"active","ping":37},{"user_id":699,"name":"Willing to be science","steam_id":76561198067204908,"connected_time":712000000000,"state":"active","ping":59},{"user_id":636,"name":"Purps","steam_id":76561198053886680,"connected_time":6598000000000,"state":"active","ping":44},{"user_id":694,"name":"Ôº¥rendyÔº¨emon","steam_id":76561198158957324,"connected_time":1196000000000,"state":"active","ping":55}]},{"server_id":22,"name":"Uncletopia | London | 6 | All Maps","name_short":"lon-6","host":"lon-1.uk.uncletopia.com","port":27065,"enabled":true,"region":"eu","cc":"gb","latitude":51.509865,"longitude":-0.118092,"reserved":0,"last_update":"0001-01-01T00:00:00Z","name_a2s":"Uncletopia | London | 6 | All Maps","protocol":17,"map":"koth_cascade","folder":"tf","game":"Team Fortress","app_id":440,"player_count":0,"max_players":24,"Bots":0,"server_type":"Dedicated","server_os":"Linux","password":true,"vac":true,"version":"7882260","steam_id":85568392924742830,"keywords":["cp","nocrits","nodmgspread","uncletopia"],"game_id":440,"stv_port":27066,"stv_name":"Uncletopia | London | 6 | All Maps | STV","players":null},{"server_id":40,"name":"Uncletopia | London | 7 | No Payload","name_short":"lon-7","host":"lon-1.uk.uncletopia.com","port":27075,"enabled":true,"region":"eu","cc":"gb","latitude":51.509865,"longitude":-0.118092,"reserved":0,"last_update":"0001-01-01T00:00:00Z","name_a2s":"Uncletopia | London | 7 | No Payload","protocol":17,"map":"koth_viaduct","folder":"tf","game":"Team Fortress","app_id":440,"player_count":0,"max_players":24,"Bots":0,"server_type":"Dedicated","server_os":"Linux","password":true,"vac":true,"version":"7882260","steam_id":85568392924964314,"keywords":["cp","nocrits","nodmgspread","uncletopia"],"game_id":440,"stv_port":27076,"stv_name":"Uncletopia | London | 7 | No Payload | STV","players":null},{"server_id":41,"name":"Uncletopia | London | 8 | Community","name_short":"lon-8","host":"lon-1.uk.uncletopia.com","port":27085,"enabled":true,"region":"eu","cc":"gb","latitude":51.509865,"longitude":-0.118092,"reserved":0,"last_update":"0001-01-01T00:00:00Z","name_a2s":"Uncletopia | London | 8 | Community","protocol":17,"map":"workshop/koth_bagel_rc6.ugc2514036946","folder":"tf","game":"Team Fortress","app_id":440,"player_count":0,"max_players":24,"Bots":0,"server_type":"Dedicated","server_os":"Linux","password":true,"vac":true,"version":"7882260","steam_id":85568392924964315,"keywords":["cp","nocrits","nodmgspread","uncletopia"],"game_id":440,"stv_port":27086,"stv_name":"Uncletopia | London | 8 | Community | STV","players":null},{"server_id":300,"name":"Uncletopia | Montr√©al | 1 | All Maps","name_short":"mtl-1","host":"mtl-1.ca.uncletopia.com","port":27015,"enabled":true,"region":"us-east","cc":"ca","latitude":45.50889,"longitude":-73.56167,"reserved":0,"last_update":"0001-01-01T00:00:00Z","name_a2s":"Uncletopia | Montr√©al | 1 | All Maps","protocol":17,"map":"koth_cascade","folder":"tf","game":"Team Fortress","app_id":440,"player_count":0,"max_players":24,"Bots":0,"server_type":"Dedicated","server_os":"Linux","password":true,"vac":true,"version":"7882260","steam_id":85568392924500087,"keywords":["cp","nocrits","nodmgspread","uncletopia"],"game_id":440,"stv_port":27016,"stv_name":"Uncletopia | Montr√©al | 1 | All Maps | STV","players":null},{"server_id":301,"name":"Uncletopia | Montr√©al | 2 | All Maps","name_short":"mtl-2","host":"mtl-1.ca.uncletopia.com","port":27025,"enabled":true,"region":"us-east","cc":"ca","latitude":45.50889,"longitude":-73.56167,"reserved":0,"last_update":"0001-01-01T00:00:00Z","name_a2s":"Uncletopia | Montr√©al | 2 | All Maps","protocol":17,"map":"pl_snowycoast","folder":"tf","game":"Team Fortress","app_id":440,"player_count":0,"max_players":24,"Bots":0,"server_type":"Dedicated","server_os":"Linux","password":true,"vac":true,"version":"7882260","steam_id":85568392924500088,"keywords":["nocrits","nodmgspread","payload","uncletopia"],"game_id":440,"stv_port":27026,"stv_name":"Uncletopia | Montr√©al | 2 | All Maps | STV","players":null},{"server_id":302,"name":"Uncletopia | Montr√©al | 3 | All Maps","name_short":"mtl-3","host":"mtl-1.ca.uncletopia.com","port":27035,"enabled":true,"region":"us-east","cc":"ca","latitude":45.50889,"longitude":-73.56167,"reserved":0,"last_update":"0001-01-01T00:00:00Z","name_a2s":"Uncletopia | Montr√©al | 3 | All Maps","protocol":17,"map":"koth_viaduct","folder":"tf","game":"Team Fortress","app_id":440,"player_count":0,"max_players":24,"Bots":0,"server_type":"Dedicated","server_os":"Linux","password":true,"vac":true,"version":"7882260","steam_id":85568392924500089,"keywords":["cp","nocrits","nodmgspread","uncletopia"],"game_id":440,"stv_port":27036,"stv_name":"Uncletopia | Montr√©al | 3 | All Maps | STV","players":null},{"server_id":303,"name":"Uncletopia | Montr√©al | 4 | No Payload","name_short":"mtl-4","host":"mtl-1.ca.uncletopia.com","port":27045,"enabled":true,"region":"us-east","cc":"ca","latitude":45.50889,"longitude":-73.56167,"reserved":0,"last_update":"0001-01-01T00:00:00Z","name_a2s":"Uncletopia | Montr√©al | 4 | No Payload","protocol":17,"map":"koth_highpass","folder":"tf","game":"Team Fortress","app_id":440,"player_count":0,"max_players":24,"Bots":0,"server_type":"Dedicated","server_os":"Linux","password":true,"vac":true,"version":"7882260","steam_id":85568392924500090,"keywords":["cp","nocrits","nodmgspread","uncletopia"],"game_id":440,"stv_port":27046,"stv_name":"Uncletopia | Montr√©al | 4 | No Payload | STV","players":null},{"server_id":13,"name":"Uncletopia | New York City | 1 | All Maps","name_short":"nyc-1","host":"nyc-1.us.uncletopia.com","port":27015,"enabled":true,"region":"us-east","cc":"us","latitude":40.73061,"longitude":-73.93524,"reserved":0,"last_update":"0001-01-01T00:00:00Z","name_a2s":"Uncletopia | New York City | 1 | All Maps","protocol":17,"map":"pl_badwater","folder":"tf","game":"Team Fortress","app_id":440,"player_count":24,"max_players":24,"Bots":0,"server_type":"Dedicated","server_os":"Linux","password":true,"vac":true,"version":"7882260","steam_id":85568392924469993,"keywords":["nocrits","nodmgspread","payload","uncletopia"],"game_id":440,"stv_port":27016,"stv_name":"Uncletopia | New York City | 1 | All Maps | STV","players":[{"user_id":11,"name":"Mochi","steam_id":76561199151314140,"connected_time":20614000000000,"state":"active","ping":36},{"user_id":269,"name":"drdoofus123","steam_id":76561198016826181,"connected_time":187000000000,"state":"active","ping":62},{"user_id":270,"name":"Major Woody","steam_id":76561198835541533,"connected_time":73000000000,"state":"active","ping":51},{"user_id":239,"name":"-=|FYG|=- Mr. Generous","steam_id":76561198047350765,"connected_time":2150000000000,"state":"active","ping":51},{"user_id":205,"name":"DiscoTraveler","steam_id":76561199240168088,"connected_time":4886000000000,"state":"active","ping":45},{"user_id":255,"name":"Xavibite","steam_id":76561198209380493,"connected_time":1122000000000,"state":"active","ping":43},{"user_id":271,"name":"Porcupine's Revenge!","steam_id":76561199121615234,"connected_time":64000000000,"state":"spawning","ping":63},{"user_id":252,"name":"SubZeroDestruction","steam_id":76561198145082209,"connected_time":1364000000000,"state":"active","ping":46},{"user_id":262,"name":"MetalNavigator","steam_id":76561198974231439,"connected_time":896000000000,"state":"active","ping":91},{"user_id":268,"name":"Carl, Good to see you","steam_id":76561198070574075,"connected_time":246000000000,"state":"active","ping":72},{"user_id":277,"name":"Illuminati42","steam_id":76561198372901972,"connected_time":27000000000,"state":"active","ping":71},{"user_id":267,"name":"coconut mall is my fav song","steam_id":76561198241082898,"connected_time":298000000000,"state":"active","ping":90},{"user_id":247,"name":"sauce","steam_id":76561198068430673,"connected_time":1599000000000,"state":"active","ping":67},{"user_id":238,"name":"ObsessedNerd505","steam_id":76561199045531456,"connected_time":2226000000000,"state":"active","ping":48},{"user_id":265,"name":"Pockets","steam_id":76561198001742296,"connected_time":463000000000,"state":"active","ping":75},{"user_id":245,"name":"ÎùºÎãà","steam_id":76561198399201495,"connected_time":1741000000000,"state":"active","ping":100},{"user_id":274,"name":"scarecrow (malicious)","steam_id":76561198082979347,"connected_time":55000000000,"state":"active","ping":139},{"user_id":275,"name":"Mycelion","steam_id":76561198024999530,"connected_time":45000000000,"state":"active","ping":87},{"user_id":266,"name":"drwwby","steam_id":76561198067741339,"connected_time":410000000000,"state":"active","ping":60},{"user_id":276,"name":"Scroobles","steam_id":76561199197646696,"connected_time":43000000000,"state":"active","ping":77},{"user_id":248,"name":"Bananadu","steam_id":76561198078062042,"connected_time":1576000000000,"state":"active","ping":42},{"user_id":258,"name":"Nice21","steam_id":76561199427548141,"connected_time":958000000000,"state":"active","ping":69},{"user_id":278,"name":"Jules","steam_id":76561198114847962,"connected_time":8000000000,"state":"spawning","ping":105},{"user_id":261,"name":"kefkja","steam_id":76561198283963218,"connected_time":912000000000,"state":"active","ping":48}]},{"server_id":14,"name":"Uncletopia | New York City | 2 | All Maps","name_short":"nyc-2","host":"nyc-1.us.uncletopia.com","port":27025,"enabled":true,"region":"us-east","cc":"us","latitude":40.73061,"longitude":-73.93524,"reserved":0,"last_update":"0001-01-01T00:00:00Z","name_a2s":"Uncletopia | New York City | 2 | All Maps","protocol":17,"map":"cp_powerhouse","folder":"tf","game":"Team Fortress","app_id":440,"player_count":24,"max_players":24,"Bots":0,"server_type":"Dedicated","server_os":"Linux","password":true,"vac":true,"version":"7882260","steam_id":85568392924469994,"keywords":["cp","nocrits","nodmgspread","uncletopia"],"game_id":440,"stv_port":27026,"stv_name":"Uncletopia | New York City | 2 | All Maps | STV","players":[{"user_id":75,"name":"Purplesphere","steam_id":76561198202786833,"connected_time":12867000000000,"state":"active","ping":177},{"user_id":163,"name":"Chiki","steam_id":76561198063590320,"connected_time":5643000000000,"state":"active","ping":73},{"user_id":231,"name":"fatcat","steam_id":76561197993786013,"connected_time":642000000000,"state":"active","ping":44},{"user_id":242,"name":"saib","steam_id":76561198966980576,"connected_time":110000000000,"state":"active","ping":43},{"user_id":240,"name":"Merch","steam_id":76561198063865897,"connected_time":228000000000,"state":"active","ping":60},{"user_id":226,"name":"Bush.exe","steam_id":76561198124385307,"connected_time":698000000000,"state":"active","ping":92},{"user_id":36,"name":"bimbo blow up doll! \u003c3","steam_id":76561198959541006,"connected_time":14552000000000,"state":"active","ping":58},{"user_id":168,"name":"yougotsauled","steam_id":76561198880754695,"connected_time":5450000000000,"state":"active","ping":45},{"user_id":243,"name":"inphlate","steam_id":76561199016973013,"connected_time":1000000000,"state":"spawning","ping":83},{"user_id":238,"name":"Mathatguy","steam_id":76561198225432188,"connected_time":294000000000,"state":"active","ping":89},{"user_id":241,"name":"Primal","steam_id":76561197983118203,"connected_time":208000000000,"state":"active","ping":81},{"user_id":235,"name":"SpongedSocks","steam_id":76561198374009086,"connected_time":471000000000,"state":"active","ping":52},{"user_id":159,"name":"Nerrrd_","steam_id":76561198870129960,"connected_time":6039000000000,"state":"active","ping":38},{"user_id":202,"name":"a team of ants doing their best","steam_id":76561198857184966,"connected_time":1327000000000,"state":"active","ping":48},{"user_id":228,"name":"Zero","steam_id":76561199383267408,"connected_time":683000000000,"state":"active","ping":79},{"user_id":236,"name":"ecks","steam_id":76561197978114705,"connected_time":442000000000,"state":"active","ping":77},{"user_id":229,"name":"Virtual Zorua","steam_id":76561198196180302,"connected_time":682000000000,"state":"active","ping":57},{"user_id":191,"name":"chuck","steam_id":76561198102300433,"connected_time":2382000000000,"state":"active","ping":65},{"user_id":187,"name":"JD","steam_id":76561198202669250,"connected_time":2867000000000,"state":"active","ping":68},{"user_id":196,"name":"counterstrike","steam_id":76561198050338907,"connected_time":2233000000000,"state":"active","ping":75},{"user_id":199,"name":"Mr. Pink","steam_id":76561198065858172,"connected_time":1748000000000,"state":"active","ping":51},{"user_id":169,"name":"Bing Bong","steam_id":76561198136502483,"connected_time":5448000000000,"state":"active","ping":88},{"user_id":194,"name":"Fizzz","steam_id":76561198097863181,"connected_time":2344000000000,"state":"active","ping":59},{"user_id":177,"name":"pisslow peter","steam_id":76561198153669555,"connected_time":4129000000000,"state":"active","ping":72}]},{"server_id":15,"name":"Uncletopia | New York City | 3 | Stopwatch Beta","name_short":"nyc-3","host":"nyc-1.us.uncletopia.com","port":27035,"enabled":true,"region":"us-east","cc":"us","latitude":40.73061,"longitude":-73.93524,"reserved":0,"last_update":"0001-01-01T00:00:00Z","name_a2s":"Uncletopia | New York City | 3 | Stopwatch Beta","protocol":17,"map":"pl_borneo","folder":"tf","game":"Team Fortress","app_id":440,"player_count":0,"max_players":24,"Bots":0,"server_type":"Dedicated","server_os":"Linux","password":true,"vac":true,"version":"7882260","steam_id":85568392924742820,"keywords":["nocrits","nodmgspread","payload","uncletopia"],"game_id":440,"stv_port":27036,"stv_name":"Uncletopia | New York City | 3 | Stopwatch Beta | STV","players":null},{"server_id":16,"name":"Uncletopia | New York City | 4 | Community","name_short":"nyc-4","host":"nyc-1.us.uncletopia.com","port":27045,"enabled":true,"region":"us-east","cc":"us","latitude":40.73061,"longitude":-73.93524,"reserved":0,"last_update":"0001-01-01T00:00:00Z","name_a2s":"Uncletopia | New York City | 4 | Community","protocol":17,"map":"workshop/pl_cactuscanyon_redux_final2.ugc2579644293","folder":"tf","game":"Team Fortress","app_id":440,"player_count":0,"max_players":24,"Bots":0,"server_type":"Dedicated","server_os":"Linux","password":true,"vac":true,"version":"7882260","steam_id":85568392924742821,"keywords":["nocrits","nodmgspread","payload","uncletopia"],"game_id":440,"stv_port":27046,"stv_name":"Uncletopia | New York City | 4 | Community | STV","players":null},{"server_id":142,"name":"Uncletopia | S√£o Paulo | 1 | All Maps","name_short":"sao-1","host":"sao-1.br.uncletopia.com","port":27015,"enabled":true,"region":"sa","cc":"br","latitude":-23.533773,"longitude":-46.62529,"reserved":0,"last_update":"0001-01-01T00:00:00Z","name_a2s":"Uncletopia | S√£o Paulo | 1 | All Maps","protocol":17,"map":"pl_pier","folder":"tf","game":"Team Fortress","app_id":440,"player_count":0,"max_players":24,"Bots":0,"server_type":"Dedicated","server_os":"Linux","password":true,"vac":true,"version":"7882260","steam_id":85568392924469996,"keywords":["nocrits","nodmgspread","payload","uncletopia"],"game_id":440,"stv_port":27016,"stv_name":"Uncletopia | S√£o Paulo | 1 | All Maps | STV","players":null},{"server_id":143,"name":"Uncletopia | S√£o Paulo | 2 | All Maps","name_short":"sao-2","host":"sao-2.br.uncletopia.com","port":27015,"enabled":true,"region":"sa","cc":"br","latitude":-23.533773,"longitude":-46.62529,"reserved":0,"last_update":"0001-01-01T00:00:00Z","name_a2s":"Uncletopia | S√£o Paulo | 2 | All Maps","protocol":17,"map":"pl_pier","folder":"tf","game":"Team Fortress","app_id":440,"player_count":21,"max_players":24,"Bots":0,"server_type":"Dedicated","server_os":"Linux","password":true,"vac":true,"version":"7882260","steam_id":85568392924485349,"keywords":["nocrits","nodmgspread","payload","uncletopia"],"game_id":440,"stv_port":27016,"stv_name":"Uncletopia | S√£o Paulo | 2 | All Maps | STV","players":[{"user_id":48,"name":"()","steam_id":76561198976110673,"connected_time":1335000000000,"state":"active","ping":67},{"user_id":20,"name":"Pedro","steam_id":76561198873002791,"connected_time":4637000000000,"state":"active","ping":74},{"user_id":44,"name":"DaisyIsBestGirl","steam_id":76561198353408382,"connected_time":1566000000000,"state":"active","ping":119},{"user_id":39,"name":"THE","steam_id":76561198815935521,"connected_time":1677000000000,"state":"active","ping":47},{"user_id":45,"name":"Zaparol","steam_id":76561198971733797,"connected_time":1550000000000,"state":"active","ping":72},{"user_id":82,"name":"I Eu Sei La Porra","steam_id":76561198834991585,"connected_time":108000000000,"state":"active","ping":60},{"user_id":74,"name":"kosthov","steam_id":76561198988371359,"connected_time":242000000000,"state":"active","ping":34},{"user_id":55,"name":"arthur","steam_id":76561198362333146,"connected_time":916000000000,"state":"active","ping":59},{"user_id":61,"name":"Torna-te S√°bio.","steam_id":76561198078377030,"connected_time":469000000000,"state":"active","ping":107},{"user_id":53,"name":"carlosedu3524","steam_id":76561199470351673,"connected_time":1170000000000,"state":"active","ping":74},{"user_id":56,"name":"dispener","steam_id":76561199087663959,"connected_time":887000000000,"state":"active","ping":50},{"user_id":57,"name":"skelly","steam_id":76561198844514989,"connected_time":807000000000,"state":"active","ping":88},{"user_id":59,"name":"Paul√£o","steam_id":76561198159571174,"connected_time":591000000000,"state":"active","ping":61},{"user_id":76,"name":"Guy","steam_id":76561199152296452,"connected_time":221000000000,"state":"active","ping":38},{"user_id":63,"name":"gooby","steam_id":76561198882809087,"connected_time":434000000000,"state":"active","ping":95},{"user_id":65,"name":"Cachorro Loko","steam_id":76561198149302888,"connected_time":396000000000,"state":"active","ping":59},{"user_id":80,"name":"Jao jAo jaO","steam_id":76561198408082822,"connected_time":173000000000,"state":"active","ping":59},{"user_id":67,"name":"Shanksnoob","steam_id":76561199167663941,"connected_time":350000000000,"state":"active","ping":66},{"user_id":70,"name":"cavaleiro no deserto","steam_id":76561198869886282,"connected_time":328000000000,"state":"active","ping":124},{"user_id":71,"name":"Blue9Fairy","steam_id":76561198039942928,"connected_time":311000000000,"state":"active","ping":51},{"user_id":72,"name":"Tecn√©cio","steam_id":76561198046465612,"connected_time":309000000000,"state":"active","ping":45}]},{"server_id":7,"name":"Uncletopia | Seattle | 1 | All Maps","name_short":"sea-1","host":"sea-1.us.uncletopia.com","port":27015,"enabled":true,"region":"us-west","cc":"us","latitude":47.608013,"longitude":-122.33517,"reserved":0,"last_update":"0001-01-01T00:00:00Z","name_a2s":"Uncletopia | Seattle | 1 | All Maps","protocol":17,"map":"cp_altitude","folder":"tf","game":"Team Fortress","app_id":440,"player_count":23,"max_players":24,"Bots":0,"server_type":"Dedicated","server_os":"Linux","password":true,"vac":true,"version":"7882260","steam_id":85568392924469997,"keywords":["cp","nocrits","nodmgspread","uncletopia"],"game_id":440,"stv_port":27016,"stv_name":"Uncletopia | Seattle | 1 | All Maps | STV","players":[{"user_id":390,"name":"Booxy","steam_id":76561197999872470,"connected_time":640000000000,"state":"active","ping":57},{"user_id":337,"name":"ZEKKER","steam_id":76561197967968980,"connected_time":5600000000000,"state":"active","ping":45},{"user_id":384,"name":"Bilgecrank","steam_id":76561197967191751,"connected_time":1768000000000,"state":"active","ping":62},{"user_id":398,"name":"Finkly","steam_id":76561198049828110,"connected_time":80000000000,"state":"active","ping":44},{"user_id":370,"name":"ed (bowl of soup in hand)","steam_id":76561198080475712,"connected_time":2324000000000,"state":"active","ping":61},{"user_id":325,"name":"Daz","steam_id":76561198041431938,"connected_time":7289000000000,"state":"active","ping":53},{"user_id":371,"name":"Ominous Whir","steam_id":76561198002851724,"connected_time":2322000000000,"state":"active","ping":90},{"user_id":352,"name":"Wildabeazt","steam_id":76561198257243073,"connected_time":4450000000000,"state":"active","ping":117},{"user_id":372,"name":"Fully Upgraded Tacos","steam_id":76561199071130651,"connected_time":2306000000000,"state":"active","ping":114},{"user_id":386,"name":"Banzailizard","steam_id":76561197986785469,"connected_time":1214000000000,"state":"active","ping":66},{"user_id":277,"name":"evilOlive","steam_id":76561198106222025,"connected_time":10415000000000,"state":"active","ping":77},{"user_id":380,"name":"Dimple #TF2Center","steam_id":76561198980324190,"connected_time":2034000000000,"state":"active","ping":66},{"user_id":389,"name":"Wooby Bear","steam_id":76561198014737582,"connected_time":648000000000,"state":"active","ping":143},{"user_id":333,"name":"jayeskae","steam_id":76561198144220801,"connected_time":6073000000000,"state":"active","ping":48},{"user_id":391,"name":"PigeonBurd","steam_id":76561198118798394,"connected_time":640000000000,"state":"active","ping":48},{"user_id":347,"name":"The Scatman","steam_id":76561198071693469,"connected_time":4546000000000,"state":"active","ping":52},{"user_id":385,"name":"lox","steam_id":76561198288531493,"connected_time":1379000000000,"state":"active","ping":56},{"user_id":331,"name":"fwoov","steam_id":76561198129166260,"connected_time":6548000000000,"state":"active","ping":75},{"user_id":397,"name":"Neil","steam_id":76561198063985817,"connected_time":226000000000,"state":"active","ping":60},{"user_id":365,"name":"mike, ski bum","steam_id":76561198225411004,"connected_time":2948000000000,"state":"active","ping":66},{"user_id":358,"name":"Saint Pablo","steam_id":76561198083300159,"connected_time":3798000000000,"state":"active","ping":72},{"user_id":379,"name":"SAVECASEY","steam_id":76561198857896847,"connected_time":2125000000000,"state":"active","ping":79},{"user_id":396,"name":"Excrement","steam_id":76561198167740127,"connected_time":264000000000,"state":"active","ping":81}]},{"server_id":119,"name":"Uncletopia | Seattle | 2 | All Maps","name_short":"sea-2","host":"sea-1.us.uncletopia.com","port":27025,"enabled":true,"region":"us-west","cc":"us","latitude":47.608013,"longitude":-122.33517,"reserved":0,"last_update":"0001-01-01T00:00:00Z","name_a2s":"Uncletopia | Seattle | 2 | All Maps","protocol":17,"map":"pl_borneo","folder":"tf","game":"Team Fortress","app_id":440,"player_count":17,"max_players":24,"Bots":0,"server_type":"Dedicated","server_os":"Linux","password":true,"vac":true,"version":"7882260","steam_id":85568392924469998,"keywords":["nocrits","nodmgspread","payload","uncletopia"],"game_id":440,"stv_port":27026,"stv_name":"Uncletopia | Seattle | 2 | All Maps | STV","players":[{"user_id":188,"name":"Moonkey","steam_id":76561199013741389,"connected_time":4622000000000,"state":"active","ping":104},{"user_id":237,"name":"WitchesBwew","steam_id":76561198871652065,"connected_time":735000000000,"state":"active","ping":92},{"user_id":238,"name":"momb","steam_id":76561198142234038,"connected_time":646000000000,"state":"active","ping":85},{"user_id":228,"name":"Robin Suarez","steam_id":76561198014698593,"connected_time":1625000000000,"state":"active","ping":54},{"user_id":227,"name":"KellyKapoor","steam_id":76561198040828123,"connected_time":1716000000000,"state":"active","ping":46},{"user_id":247,"name":"Acolyte of Goatse","steam_id":76561198046526036,"connected_time":2000000000,"state":"spawning","ping":70},{"user_id":246,"name":"EggaBacon","steam_id":76561198987353518,"connected_time":69000000000,"state":"active","ping":96},{"user_id":233,"name":"styles","steam_id":76561198149443710,"connected_time":1118000000000,"state":"active","ping":79},{"user_id":239,"name":"johnman gooberguy","steam_id":76561199014859764,"connected_time":517000000000,"state":"active","ping":76},{"user_id":189,"name":"S√°bado Gigante","steam_id":76561197994685971,"connected_time":4621000000000,"state":"active","ping":83},{"user_id":226,"name":"NovusOrdoDux","steam_id":76561198271936289,"connected_time":1914000000000,"state":"active","ping":102},{"user_id":221,"name":"chicken wit dah eggrow","steam_id":76561198115458307,"connected_time":2192000000000,"state":"active","ping":74},{"user_id":152,"name":"K2f","steam_id":76561198049600563,"connected_time":7028000000000,"state":"active","ping":63},{"user_id":245,"name":"Ypuoi","steam_id":76561198170203261,"connected_time":160000000000,"state":"active","ping":92},{"user_id":207,"name":"J O S H¬≥¬≤","steam_id":76561198122603779,"connected_time":3044000000000,"state":"active","ping":63},{"user_id":218,"name":"Whip_the_Rabbit","steam_id":76561198049896057,"connected_time":2311000000000,"state":"active","ping":81},{"user_id":201,"name":"Cr0w!","steam_id":76561198178437265,"connected_time":3471000000000,"state":"active","ping":50}]},{"server_id":406,"name":"Uncletopia | Seattle | 3 | Stopwatch Beta","name_short":"sea-3","host":"sea-1.us.uncletopia.com","port":27035,"enabled":true,"region":"us-west","cc":"us","latitude":47.608013,"longitude":-122.33517,"reserved":0,"last_update":"0001-01-01T00:00:00Z","name_a2s":"Uncletopia | Seattle | 3 | Stopwatch Beta","protocol":17,"map":"koth_viaduct","folder":"tf","game":"Team Fortress","app_id":440,"player_count":0,"max_players":24,"Bots":0,"server_type":"Dedicated","server_os":"Linux","password":true,"vac":true,"version":"7882260","steam_id":85568392924515217,"keywords":["cp","nocrits","nodmgspread","uncletopia"],"game_id":440,"stv_port":27036,"stv_name":"Uncletopia | Seattle | 3 | Stopwatch Beta | STV","players":null},{"server_id":17,"name":"Uncletopia | San Francisco | 1 | All Maps","name_short":"sfo-1","host":"sfo-1.us.uncletopia.com","port":27015,"enabled":true,"region":"us-west","cc":"us","latitude":37.77397,"longitude":-122.4313,"reserved":0,"last_update":"0001-01-01T00:00:00Z","name_a2s":"Uncletopia | San Francisco | 1 | All Maps","protocol":17,"map":"koth_lakeside_final","folder":"tf","game":"Team Fortress","app_id":440,"player_count":24,"max_players":24,"Bots":0,"server_type":"Dedicated","server_os":"Linux","password":true,"vac":true,"version":"7882260","steam_id":85568392924469999,"keywords":["cp","nocrits","nodmgspread","uncletopia"],"game_id":440,"stv_port":27016,"stv_name":"Uncletopia | San Francisco | 1 | All Maps | STV","players":[{"user_id":18,"name":"bob from vegetable","steam_id":76561199089515791,"connected_time":1241000000000,"state":"active","ping":55},{"user_id":19,"name":"aisu","steam_id":76561198043768507,"connected_time":1183000000000,"state":"active","ping":104},{"user_id":20,"name":"Punkitt","steam_id":76561198051433443,"connected_time":1062000000000,"state":"active","ping":55},{"user_id":23,"name":"BoX_hEaD101","steam_id":76561198200875467,"connected_time":833000000000,"state":"active","ping":70},{"user_id":22,"name":"asm_ghost","steam_id":76561199205363547,"connected_time":940000000000,"state":"active","ping":70},{"user_id":24,"name":"Spectre1578","steam_id":76561198953243633,"connected_time":825000000000,"state":"active","ping":69},{"user_id":25,"name":"kush cowboy","steam_id":76561198087422193,"connected_time":761000000000,"state":"active","ping":53},{"user_id":26,"name":"G6 Mud","steam_id":76561198356426602,"connected_time":750000000000,"state":"active","ping":46},{"user_id":27,"name":"hunterzar","steam_id":76561198347666725,"connected_time":676000000000,"state":"active","ping":91},{"user_id":28,"name":"VELOURIA","steam_id":76561198116550170,"connected_time":669000000000,"state":"active","ping":47},{"user_id":29,"name":"tweet","steam_id":76561198166515735,"connected_time":657000000000,"state":"active","ping":46},{"user_id":30,"name":"Sea raider","steam_id":76561198123982355,"connected_time":600000000000,"state":"active","ping":90},{"user_id":31,"name":"Droozlex","steam_id":76561198157221366,"connected_time":577000000000,"state":"active","ping":76},{"user_id":32,"name":"Cynicalrage #TF2center","steam_id":76561198085805532,"connected_time":569000000000,"state":"active","ping":80},{"user_id":33,"name":"Bloodgoat","steam_id":76561198047407295,"connected_time":562000000000,"state":"active","ping":79},{"user_id":34,"name":"Tuti","steam_id":76561198129012797,"connected_time":553000000000,"state":"active","ping":101},{"user_id":46,"name":"Blubber","steam_id":76561198338332921,"connected_time":227000000000,"state":"active","ping":74},{"user_id":36,"name":"Purple potato","steam_id":76561198932276149,"connected_time":522000000000,"state":"active","ping":69},{"user_id":37,"name":"big fish","steam_id":76561198186479818,"connected_time":505000000000,"state":"active","ping":66},{"user_id":38,"name":"Feral Femboy","steam_id":76561198130714378,"connected_time":477000000000,"state":"active","ping":82},{"user_id":47,"name":"Frank Accardi","steam_id":76561198017275707,"connected_time":172000000000,"state":"active","ping":76},{"user_id":41,"name":"sauce sauce sauce","steam_id":76561198206922028,"connected_time":449000000000,"state":"active","ping":55},{"user_id":42,"name":"The Undone Sage","steam_id":76561198261998561,"connected_time":432000000000,"state":"active","ping":59},{"user_id":43,"name":"the killer","steam_id":76561198300167622,"connected_time":431000000000,"state":"active","ping":53}]},{"server_id":18,"name":"Uncletopia | San Francisco | 2 | All Maps","name_short":"sfo-2","host":"sfo-1.us.uncletopia.com","port":27025,"enabled":true,"region":"us-west","cc":"us","latitude":37.77397,"longitude":-122.4313,"reserved":0,"last_update":"0001-01-01T00:00:00Z","name_a2s":"Uncletopia | San Francisco | 2 | All Maps","protocol":17,"map":"koth_viaduct","folder":"tf","game":"Team Fortress","app_id":440,"player_count":23,"max_players":24,"Bots":0,"server_type":"Dedicated","server_os":"Linux","password":true,"vac":true,"version":"7882260","steam_id":85568392924470000,"keywords":["cp","nocrits","nodmgspread","uncletopia"],"game_id":440,"stv_port":27026,"stv_name":"Uncletopia | San Francisco | 2 | All Maps | STV","players":[{"user_id":138,"name":"maidman","steam_id":76561199006187909,"connected_time":360000000000,"state":"active","ping":79},{"user_id":150,"name":"king dedede","steam_id":76561198965562679,"connected_time":125000000000,"state":"active","ping":126},{"user_id":131,"name":"green bean","steam_id":76561198113099204,"connected_time":1174000000000,"state":"active","ping":31},{"user_id":135,"name":"thunderous prophet","steam_id":76561198131166135,"connected_time":1010000000000,"state":"active","ping":59},{"user_id":133,"name":"ForAPessimistImPrettyOptimistic","steam_id":76561198170128009,"connected_time":1086000000000,"state":"active","ping":55},{"user_id":107,"name":"Tele Co","steam_id":76561198041909269,"connected_time":2166000000000,"state":"active","ping":69},{"user_id":139,"name":"Childchewer","steam_id":76561198833070457,"connected_time":355000000000,"state":"active","ping":72},{"user_id":119,"name":"SnazzyCelestial","steam_id":76561198328763813,"connected_time":1503000000000,"state":"active","ping":117},{"user_id":152,"name":"Power Jake","steam_id":76561198051510260,"connected_time":22000000000,"state":"active","ping":64},{"user_id":140,"name":"Sponge","steam_id":76561198099024378,"connected_time":348000000000,"state":"active","ping":96},{"user_id":141,"name":"p9 jorts","steam_id":76561199041179985,"connected_time":336000000000,"state":"active","ping":72},{"user_id":122,"name":"omarawsome1","steam_id":76561198098790593,"connected_time":1474000000000,"state":"active","ping":108},{"user_id":134,"name":"ChickenShred","steam_id":76561198867897841,"connected_time":1083000000000,"state":"active","ping":99},{"user_id":149,"name":"SpaceDonut9","steam_id":76561199013502859,"connected_time":132000000000,"state":"active","ping":93},{"user_id":148,"name":"UnusualTofu","steam_id":76561198060103750,"connected_time":181000000000,"state":"active","ping":66},{"user_id":104,"name":"TheGrassMan (He/Him)","steam_id":76561198118984048,"connected_time":2257000000000,"state":"active","ping":126},{"user_id":125,"name":"a4„ÉÑ","steam_id":76561199152294799,"connected_time":1459000000000,"state":"active","ping":90},{"user_id":151,"name":"HideOnTate","steam_id":76561198209880837,"connected_time":35000000000,"state":"active","ping":51},{"user_id":145,"name":"Mr8bittripper","steam_id":76561198133894229,"connected_time":271000000000,"state":"active","ping":64},{"user_id":85,"name":"neo :)","steam_id":76561199092954930,"connected_time":2916000000000,"state":"active","ping":114},{"user_id":146,"name":"dyyd7706","steam_id":76561199230461523,"connected_time":266000000000,"state":"active","ping":125},{"user_id":101,"name":"ruby","steam_id":76561198436177465,"connected_time":2408000000000,"state":"active","ping":101},{"user_id":147,"name":"Shazzy","steam_id":76561198145460523,"connected_time":262000000000,"state":"active","ping":62}]},{"server_id":19,"name":"Uncletopia | San Francisco | 3 | Stopwatch Beta","name_short":"sfo-3","host":"sfo-1.us.uncletopia.com","port":27035,"enabled":true,"region":"us-west","cc":"us","latitude":37.77397,"longitude":-122.4313,"reserved":0,"last_update":"0001-01-01T00:00:00Z","name_a2s":"Uncletopia | San Francisco | 3 | Stopwatch Beta","protocol":17,"map":"workshop/pl_barnblitz_pro7.ugc582280235","folder":"tf","game":"Team Fortress","app_id":440,"player_count":0,"max_players":24,"Bots":0,"server_type":"Dedicated","server_os":"Linux","password":true,"vac":true,"version":"7882260","steam_id":85568392924742824,"keywords":["nocrits","nodmgspread","payload","uncletopia"],"game_id":440,"stv_port":27036,"stv_name":"Uncletopia | San Francisco | 3 | Stopwatch Beta | STV","players":null},{"server_id":20,"name":"Uncletopia | San Francisco | 4 | Community","name_short":"sfo-4","host":"sfo-1.us.uncletopia.com","port":27045,"enabled":true,"region":"us-west","cc":"us","latitude":37.77397,"longitude":-122.4313,"reserved":0,"last_update":"0001-01-01T00:00:00Z","name_a2s":"Uncletopia | San Francisco | 4 | Community","protocol":17,"map":"pl_swiftwater_final1","folder":"tf","game":"Team Fortress","app_id":440,"player_count":2,"max_players":24,"Bots":0,"server_type":"Dedicated","server_os":"Linux","password":true,"vac":true,"version":"7882260","steam_id":85568392924742826,"keywords":["nocrits","nodmgspread","payload","uncletopia"],"game_id":440,"stv_port":27046,"stv_name":"Uncletopia | San Francisco | 4 | Community | STV","players":[{"user_id":5,"name":"Furrtren","steam_id":76561198375864986,"connected_time":153000000000,"state":"active","ping":62},{"user_id":6,"name":"Kama","steam_id":76561198292190430,"connected_time":3000000000,"state":"spawning","ping":114}]},{"server_id":141,"name":"Uncletopia | Sydney | 1 | All Maps","name_short":"syd-1","host":"syd-1.au.uncletopia.com","port":27015,"enabled":true,"region":"au","cc":"au","latitude":-33.865143,"longitude":151.2099,"reserved":0,"last_update":"0001-01-01T00:00:00Z","name_a2s":"Uncletopia | Sydney | 1 | All Maps","protocol":17,"map":"pl_upward","folder":"tf","game":"Team Fortress","app_id":440,"player_count":0,"max_players":24,"Bots":0,"server_type":"Dedicated","server_os":"Linux","password":true,"vac":true,"version":"7882260","steam_id":85568392924470001,"keywords":["nocrits","nodmgspread","payload","uncletopia"],"game_id":440,"stv_port":27016,"stv_name":"Uncletopia | Sydney | 1 | All Maps | STV","players":null},{"server_id":123,"name":"Uncletopia | Sydney | 2 | All Maps","name_short":"syd-2","host":"syd-1.au.uncletopia.com","port":27025,"enabled":true,"region":"au","cc":"au","latitude":-33.865143,"longitude":151.2099,"reserved":0,"last_update":"0001-01-01T00:00:00Z","name_a2s":"Uncletopia | Sydney | 2 | All Maps","protocol":17,"map":"koth_highpass","folder":"tf","game":"Team Fortress","app_id":440,"player_count":0,"max_players":24,"Bots":0,"server_type":"Dedicated","server_os":"Linux","password":true,"vac":true,"version":"7882260","steam_id":85568392924470002,"keywords":["cp","nocrits","nodmgspread","uncletopia"],"game_id":440,"stv_port":27026,"stv_name":"Uncletopia | Sydney | 2 | All Maps | STV","players":null},{"server_id":395,"name":"Uncletopia | Sydney | 3 | All Maps","name_short":"syd-3","host":"syd-1.au.uncletopia.com","port":27035,"enabled":true,"region":"au","cc":"au","latitude":-33.865143,"longitude":151.2099,"reserved":0,"last_update":"0001-01-01T00:00:00Z","name_a2s":"Uncletopia | Sydney | 3 | All Maps","protocol":17,"map":"pl_badwater","folder":"tf","game":"Team Fortress","app_id":440,"player_count":0,"max_players":24,"Bots":0,"server_type":"Dedicated","server_os":"Linux","password":true,"vac":true,"version":"7882260","steam_id":85568392925194467,"keywords":["nocrits","nodmgspread","payload","uncletopia"],"game_id":440,"stv_port":27036,"stv_name":"Uncletopia | Sydney | 3 | All Maps | STV","players":null},{"server_id":396,"name":"Uncletopia | Sydney | 4 | All Maps","name_short":"syd-4","host":"syd-1.au.uncletopia.com","port":27045,"enabled":true,"region":"au","cc":"au","latitude":-33.865143,"longitude":151.2099,"reserved":0,"last_update":"0001-01-01T00:00:00Z","name_a2s":"Uncletopia | Sydney | 4 | All Maps","protocol":17,"map":"cp_altitude","folder":"tf","game":"Team Fortress","app_id":440,"player_count":0,"max_players":24,"Bots":0,"server_type":"Dedicated","server_os":"Linux","password":true,"vac":true,"version":"7882260","steam_id":85568392925397958,"keywords":["cp","nocrits","nodmgspread","uncletopia"],"game_id":440,"stv_port":27046,"stv_name":"Uncletopia | Sydney | 4 | All Maps | STV","players":null},{"server_id":58,"name":"Uncletopia | Sydney | 5 | Stopwatch Beta","name_short":"syd-5","host":"syd-1.au.uncletopia.com","port":27055,"enabled":true,"region":"au","cc":"au","latitude":-33.865143,"longitude":151.2099,"reserved":0,"last_update":"0001-01-01T00:00:00Z","name_a2s":"Uncletopia | Sydney | 5 | Stopwatch Beta","protocol":17,"map":"koth_viaduct","folder":"tf","game":"Team Fortress","app_id":440,"player_count":0,"max_players":24,"Bots":0,"server_type":"Dedicated","server_os":"Linux","password":true,"vac":true,"version":"7882260","steam_id":85568392925397959,"keywords":["cp","nocrits","nodmgspread","uncletopia"],"game_id":440,"stv_port":27056,"stv_name":"Uncletopia | Sydney | 5 | Stopwatch Beta | STV","players":null},{"server_id":59,"name":"Uncletopia | Sydney | 6 | Community","name_short":"syd-6","host":"syd-1.au.uncletopia.com","port":27065,"enabled":true,"region":"au","cc":"au","latitude":-33.865143,"longitude":151.2099,"reserved":0,"last_update":"0001-01-01T00:00:00Z","name_a2s":"Uncletopia | Sydney | 6 | Community","protocol":17,"map":"workshop/koth_ashville_final.ugc2130459942","folder":"tf","game":"Team Fortress","app_id":440,"player_count":0,"max_players":24,"Bots":0,"server_type":"Dedicated","server_os":"Linux","password":true,"vac":true,"version":"7882260","steam_id":85568392925397960,"keywords":["cp","nocrits","nodmgspread","uncletopia"],"game_id":440,"stv_port":27066,"stv_name":"Uncletopia | Sydney | 6 | Community | STV","players":null},{"server_id":49,"name":"Uncletopia | Warsaw | 1 | All Maps","name_short":"waw-1","host":"waw-1.pl.uncletopia.com","port":27015,"enabled":true,"region":"eu","cc":"pl","latitude":52.2297,"longitude":21.017532,"reserved":0,"last_update":"0001-01-01T00:00:00Z","name_a2s":"","protocol":0,"map":"","folder":"","game":"","app_id":0,"player_count":0,"max_players":0,"Bots":0,"server_type":"","server_os":"","password":false,"vac":false,"version":"","steam_id":0,"keywords":null,"game_id":0,"stv_port":0,"stv_name":"","players":null},{"server_id":50,"name":"Uncletopia | Warsaw | 2 | All Maps","name_short":"waw-2","host":"waw-1.pl.uncletopia.com","port":27025,"enabled":true,"region":"eu","cc":"pl","latitude":52.2297,"longitude":21.017532,"reserved":0,"last_update":"0001-01-01T00:00:00Z","name_a2s":"Uncletopia | Warsaw | 2 | All Maps","protocol":17,"map":"koth_lakeside_final","folder":"tf","game":"Team Fortress","app_id":440,"player_count":0,"max_players":24,"Bots":0,"server_type":"Dedicated","server_os":"Linux","password":true,"vac":true,"version":"7882260","steam_id":85568392925397851,"keywords":["cp","nocrits","nodmgspread","uncletopia"],"game_id":440,"stv_port":27026,"stv_name":"Uncletopia | Warsaw | 2 | All Maps | STV","players":null},{"server_id":51,"name":"Uncletopia | Warsaw | 3 | All Maps","name_short":"waw-3","host":"waw-1.pl.uncletopia.com","port":27035,"enabled":true,"region":"eu","cc":"pl","latitude":52.2297,"longitude":21.017532,"reserved":0,"last_update":"0001-01-01T00:00:00Z","name_a2s":"Uncletopia | Warsaw | 3 | All Maps","protocol":17,"map":"koth_lakeside_final","folder":"tf","game":"Team Fortress","app_id":440,"player_count":0,"max_players":24,"Bots":0,"server_type":"Dedicated","server_os":"Linux","password":true,"vac":true,"version":"7882260","steam_id":85568392925397852,"keywords":["cp","nocrits","nodmgspread","uncletopia"],"game_id":440,"stv_port":27036,"stv_name":"Uncletopia | Warsaw | 3 | All Maps | STV","players":null},{"server_id":52,"name":"Uncletopia | Warsaw | 4 | All Maps","name_short":"waw-4","host":"waw-1.pl.uncletopia.com","port":27045,"enabled":true,"region":"eu","cc":"pl","latitude":52.2297,"longitude":21.017532,"reserved":0,"last_update":"0001-01-01T00:00:00Z","name_a2s":"Uncletopia | Warsaw | 4 | All Maps","protocol":17,"map":"koth_cascade","folder":"tf","game":"Team Fortress","app_id":440,"player_count":0,"max_players":24,"Bots":0,"server_type":"Dedicated","server_os":"Linux","password":true,"vac":true,"version":"7882260","steam_id":85568392925397853,"keywords":["cp","nocrits","nodmgspread","uncletopia"],"game_id":440,"stv_port":27046,"stv_name":"Uncletopia | Warsaw | 4 | All Maps | STV","players":null},{"server_id":53,"name":"Uncletopia | Warsaw | 5 | Stopwatch Beta","name_short":"waw-5","host":"waw-1.pl.uncletopia.com","port":27055,"enabled":true,"region":"eu","cc":"pl","latitude":52.2297,"longitude":21.017532,"reserved":0,"last_update":"0001-01-01T00:00:00Z","name_a2s":"Uncletopia | Warsaw | 5 | Stopwatch Beta","protocol":17,"map":"koth_lakeside_final","folder":"tf","game":"Team Fortress","app_id":440,"player_count":0,"max_players":24,"Bots":0,"server_type":"Dedicated","server_os":"Linux","password":true,"vac":true,"version":"7882260","steam_id":85568392925397854,"keywords":["cp","nocrits","nodmgspread","uncletopia"],"game_id":440,"stv_port":27056,"stv_name":"Uncletopia | Warsaw | 5 | Stopwatch Beta | STV","players":null},{"server_id":54,"name":"Uncletopia | Warsaw | 6 | Community","name_short":"waw-6","host":"waw-1.pl.uncletopia.com","port":27065,"enabled":true,"region":"eu","cc":"pl","latitude":52.2297,"longitude":21.017532,"reserved":0,"last_update":"0001-01-01T00:00:00Z","name_a2s":"Uncletopia | Warsaw | 6 | Community","protocol":17,"map":"workshop/koth_ashville_final.ugc2130459942","folder":"tf","game":"Team Fortress","app_id":440,"player_count":0,"max_players":24,"Bots":0,"server_type":"Dedicated","server_os":"Linux","password":true,"vac":true,"version":"7882260","steam_id":85568392925397856,"keywords":["cp","nocrits","nodmgspread","uncletopia"],"game_id":440,"stv_port":27066,"stv_name":"Uncletopia | Warsaw | 6 | Community | STV","players":null}]}