{"status":true,"message":"","result":[{"server_id":9,"name":"Uncletopia | Atlanta | 1 | All Maps","name_short":"atl-1","host":"atl-1.us.uncletopia.com","port":27015,"enabled":true,"region":"us-east","cc":"us","latitude":33.753746,"longitude":-84.38633,"reserved":0,"last_update":"0001-01-01T00:00:00Z","name_a2s":"Uncletopia | Atlanta | 1 | All Maps","protocol":17,"map":"pl_upward","folder":"tf","game":"Team Fortress","app_id":440,"player_count":3,"max_players":24,"Bots":0,"server_type":"Dedicated","server_os":"Linux","password":true,"vac":true,"version":"7757534","steam_id":85568392924469982,"keywords":["nocrits","nodmgspread","payload","uncletopia"],"game_id":440,"stv_port":27016,"stv_name":"Uncletopia | Atlanta | 1 | All Maps | STV","players":[{"user_id":397,"name":"Daksuki","steam_id":76561198084127751,"connected_time":467000000000,"state":"active","ping":84},{"user_id":376,"name":"Zokie0","steam_id":76561198056035567,"connected_time":2243000000000,"state":"active","ping":64},{"user_id":369,"name":"TheWarrior987","steam_id":76561198276440630,"connected_time":2923000000000,"state":"active","ping":65}]},{"server_id":400,"name":"Uncletopia | Atlanta | 3 | Community","name_short":"atl-3","host":"atl-1.us.uncletopia.com","port":27035,"enabled":true,"region":"us-east","cc":"us","latitude":33.753746,"longitude":-84.38633,"reserved":0,"last_update":"0001-01-01T00:00:00Z","name_a2s":"Uncletopia | Atlanta | 3 | Community","protocol":17,"map":"workshop/pl_highwood_b13.ugc1769496557","folder":"tf","game":"Team Fortress","app_id":440,"player_count":0,"max_players":24,"Bots":0,"server_type":"Dedicated","server_os":"Linux","password":true,"vac":true,"version":"7757534","steam_id":85568392924515187,"keywords":["nocrits","nodmgspread","payload","uncletopia"],"game_id":440,"stv_port":27036,"stv_name":"Uncletopia | Atlanta | 3 | Community | STV","players":null},{"server_id":401,"name":"Uncletopia | Atlanta | 4 | No Payload","name_short":"atl-4","host":"atl-1.us.uncletopia.com","port":27045,"enabled":true,"region":"us-east","cc":"us","latitude":33.753746,"longitude":-84.38633,"reserved":0,"last_update":"0001-01-01T00:00:00Z","name_a2s":"Uncletopia | Atlanta | 4 | No Payload","protocol":17,"map":"pl_pier","folder":"tf","game":"Team Fortress","app_id":440,"player_count":0,"max_players":24,"Bots":0,"server_type":"Dedicated","server_os":"Linux","password":true,"vac":true,"version":"7723704","steam_id":85568392924515188,"keywords":["nocrits","nodmgspread","payload","uncletopia"],"game_id":440,"stv_port":27046,"stv_name":"Uncletopia | Atlanta | 4 | No Payload | STV","players":null},{"server_id":2,"name":"Uncletopia | Chicago | 1 | All Maps","name_short":"chi-1","host":"chi-1.us.uncletopia.com","port":27015,"enabled":true,"region":"us-central","cc":"us","latitude":41.881832,"longitude":-87.62318,"reserved":0,"last_update":"0001-01-01T00:00:00Z","name_a2s":"Uncletopia | Chicago | 1 | All Maps","protocol":17,"map":"pl_pier","folder":"tf","game":"Team Fortress","app_id":440,"player_count":24,"max_players":24,"Bots":0,"server_type":"Dedicated","server_os":"Linux","password":true,"vac":true,"version":"7757534","steam_id":85568392924469984,"keywords":["nocrits","nodmgspread","payload","uncletopia"],"game_id":440,"stv_port":27016,"stv_name":"Uncletopia | Chicago | 1 | All Maps | STV","players":[{"user_id":413,"name":"loco503","steam_id":76561198827495121,"connected_time":206000000000,"state":"active","ping":108},{"user_id":334,"name":"M249 | Spectre","steam_id":76561198118334485,"connected_time":5675000000000,"state":"active","ping":71},{"user_id":317,"name":"Piyono","steam_id":76561197962188504,"connected_time":6822000000000,"state":"active","ping":69},{"user_id":406,"name":"classic wow andy","steam_id":76561198144426316,"connected_time":880000000000,"state":"active","ping":70},{"user_id":379,"name":"Top Score","steam_id":76561197998396236,"connected_time":2294000000000,"state":"active","ping":78},{"user_id":409,"name":"Omni-S","steam_id":76561198082396372,"connected_time":343000000000,"state":"active","ping":73},{"user_id":378,"name":"Dr.Long","steam_id":76561198930316713,"connected_time":2383000000000,"state":"active","ping":68},{"user_id":405,"name":"stnuua","steam_id":76561199177896432,"connected_time":960000000000,"state":"active","ping":99},{"user_id":380,"name":"Lemur","steam_id":76561198065300466,"connected_time":2278000000000,"state":"active","ping":57},{"user_id":386,"name":"bad spy player","steam_id":76561198873699671,"connected_time":2133000000000,"state":"active","ping":103},{"user_id":383,"name":"High Plains Drifter","steam_id":76561198047398433,"connected_time":2178000000000,"state":"active","ping":63},{"user_id":414,"name":"Congcrab","steam_id":76561198078687685,"connected_time":203000000000,"state":"active","ping":107},{"user_id":411,"name":"LJ PRODUCTIONS","steam_id":76561198061697475,"connected_time":281000000000,"state":"active","ping":72},{"user_id":382,"name":"max.motors","steam_id":76561197968363752,"connected_time":2233000000000,"state":"active","ping":71},{"user_id":404,"name":"Mercutio","steam_id":76561198041254816,"connected_time":1058000000000,"state":"active","ping":78},{"user_id":408,"name":"catrinaisahuman","steam_id":76561198281355729,"connected_time":347000000000,"state":"active","ping":67},{"user_id":412,"name":"Preston","steam_id":76561198059794321,"connected_time":271000000000,"state":"active","ping":85},{"user_id":407,"name":"Bingus Gaming","steam_id":76561198035619419,"connected_time":587000000000,"state":"active","ping":77},{"user_id":388,"name":"Randy \"the Man\" Johnson","steam_id":76561198039124445,"connected_time":2112000000000,"state":"active","ping":90},{"user_id":390,"name":"white ray","steam_id":76561198026664629,"connected_time":2084000000000,"state":"active","ping":60},{"user_id":410,"name":"VioletSpecs","steam_id":76561198089366466,"connected_time":343000000000,"state":"active","ping":85},{"user_id":393,"name":"miner","steam_id":76561198073035221,"connected_time":2049000000000,"state":"active","ping":63},{"user_id":415,"name":"poey","steam_id":76561198865346767,"connected_time":193000000000,"state":"active","ping":92},{"user_id":219,"name":"uberheights","steam_id":76561198236008378,"connected_time":9963000000000,"state":"active","ping":61}]},{"server_id":106,"name":"Uncletopia | Chicago | 2 | All Maps","name_short":"chi-2","host":"chi-1.us.uncletopia.com","port":27025,"enabled":true,"region":"us-central","cc":"us","latitude":41.881832,"longitude":-87.62318,"reserved":0,"last_update":"0001-01-01T00:00:00Z","name_a2s":"Uncletopia | Chicago | 2 | All Maps","protocol":17,"map":"pl_frontier_final","folder":"tf","game":"Team Fortress","app_id":440,"player_count":24,"max_players":24,"Bots":0,"server_type":"Dedicated","server_os":"Linux","password":true,"vac":true,"version":"7757534","steam_id":85568392924469985,"keywords":["nocrits","nodmgspread","payload","uncletopia"],"game_id":440,"stv_port":27026,"stv_name":"Uncletopia | Chicago | 2 | All Maps | STV","players":[{"user_id":435,"name":"KiltTickled","steam_id":76561198859288002,"connected_time":1292000000000,"state":"active","ping":92},{"user_id":451,"name":"Divine Kitty","steam_id":76561198293490689,"connected_time":129000000000,"state":"active","ping":116},{"user_id":422,"name":"RowdyCJ11","steam_id":76561198088929792,"connected_time":2167000000000,"state":"active","ping":60},{"user_id":409,"name":"HollowMan","steam_id":76561198967266827,"connected_time":3210000000000,"state":"active","ping":90},{"user_id":383,"name":"McNamJam","steam_id":76561198028128686,"connected_time":4399000000000,"state":"active","ping":102},{"user_id":338,"name":"Tannenbaum Trotsky","steam_id":76561199101638460,"connected_time":7261000000000,"state":"active","ping":65},{"user_id":394,"name":"Hotsaucebauce","steam_id":76561199070938363,"connected_time":3622000000000,"state":"active","ping":119},{"user_id":408,"name":"HTA","steam_id":76561198043879140,"connected_time":3237000000000,"state":"active","ping":49},{"user_id":441,"name":"Bluebird","steam_id":76561199143106401,"connected_time":1087000000000,"state":"active","ping":70},{"user_id":392,"name":"captain red","steam_id":76561198191587983,"connected_time":3719000000000,"state":"active","ping":75},{"user_id":442,"name":"Dr_Evil_1738","steam_id":76561199133770186,"connected_time":1055000000000,"state":"active","ping":71},{"user_id":432,"name":"Very Small Giant","steam_id":76561199187337967,"connected_time":1390000000000,"state":"active","ping":60},{"user_id":427,"name":"lost in the sauce","steam_id":76561199043827112,"connected_time":1740000000000,"state":"active","ping":67},{"user_id":446,"name":"Riske","steam_id":76561198115840568,"connected_time":475000000000,"state":"active","ping":74},{"user_id":320,"name":"eloressa","steam_id":76561198120330867,"connected_time":9041000000000,"state":"active","ping":54},{"user_id":420,"name":"Medic GF","steam_id":76561198400531556,"connected_time":2456000000000,"state":"active","ping":62},{"user_id":450,"name":"Dengar","steam_id":76561198144992228,"connected_time":364000000000,"state":"active","ping":67},{"user_id":440,"name":"Madcows","steam_id":76561198021695614,"connected_time":1140000000000,"state":"active","ping":103},{"user_id":404,"name":"Sirius","steam_id":76561198031295225,"connected_time":3505000000000,"state":"active","ping":52},{"user_id":437,"name":"faxxy","steam_id":76561198079621240,"connected_time":1261000000000,"state":"active","ping":79},{"user_id":448,"name":"AER0.exe","steam_id":76561198062940197,"connected_time":430000000000,"state":"active","ping":77},{"user_id":444,"name":"poopmigoel","steam_id":76561199293283319,"connected_time":809000000000,"state":"active","ping":190},{"user_id":388,"name":"The Engie","steam_id":76561198049418537,"connected_time":3927000000000,"state":"active","ping":79}]},{"server_id":402,"name":"Uncletopia | Chicago | 3 | All Maps","name_short":"chi-3","host":"chi-1.us.uncletopia.com","port":27035,"enabled":true,"region":"us-central","cc":"us","latitude":41.881832,"longitude":-87.62318,"reserved":0,"last_update":"0001-01-01T00:00:00Z","name_a2s":"Uncletopia | Chicago | 3 | All Maps","protocol":17,"map":"koth_highpass","folder":"tf","game":"Team Fortress","app_id":440,"player_count":24,"max_players":24,"Bots":0,"server_type":"Dedicated","server_os":"Linux","password":true,"vac":true,"version":"7757534","steam_id":85568392924515191,"keywords":["cp","nocrits","nodmgspread","uncletopia"],"game_id":440,"stv_port":27036,"stv_name":"Uncletopia | Chicago | 3 | All Maps | STV","players":[{"user_id":357,"name":"Pixeled","steam_id":76561198088917077,"connected_time":2155000000000,"state":"active","ping":87},{"user_id":388,"name":"joyeuxnoelle","steam_id":76561198062423120,"connected_time":495000000000,"state":"active","ping":73},{"user_id":362,"name":"McGangBang","steam_id":76561198862379865,"connected_time":1957000000000,"state":"active","ping":59},{"user_id":389,"name":"daemon","steam_id":76561198001541433,"connected_time":473000000000,"state":"active","ping":59},{"user_id":390,"name":"trappy","steam_id":76561198402801140,"connected_time":472000000000,"state":"active","ping":61},{"user_id":337,"name":"King Kinyon","steam_id":76561198080525234,"connected_time":3208000000000,"state":"active","ping":83},{"user_id":380,"name":"totally not a pile of beans","steam_id":76561198119851931,"connected_time":927000000000,"state":"active","ping":82},{"user_id":391,"name":"C papi","steam_id":76561198027779564,"connected_time":469000000000,"state":"active","ping":53},{"user_id":354,"name":"Quaker Oats","steam_id":76561197992800293,"connected_time":2393000000000,"state":"active","ping":88},{"user_id":392,"name":"Skuntle Bingoid","steam_id":76561198046942778,"connected_time":423000000000,"state":"active","ping":79},{"user_id":366,"name":"low skill advanced player","steam_id":76561197990744614,"connected_time":1860000000000,"state":"active","ping":43},{"user_id":393,"name":"Vladikr1","steam_id":76561198401495362,"connected_time":401000000000,"state":"active","ping":69},{"user_id":394,"name":"fish","steam_id":76561198054070811,"connected_time":375000000000,"state":"active","ping":107},{"user_id":395,"name":"Anji's onlyfans","steam_id":76561198353160282,"connected_time":335000000000,"state":"active","ping":89},{"user_id":356,"name":"BROMBRE","steam_id":76561198011062026,"connected_time":2260000000000,"state":"active","ping":76},{"user_id":340,"name":"shephard","steam_id":76561198043367011,"connected_time":3143000000000,"state":"active","ping":57},{"user_id":334,"name":"Pan Leadership","steam_id":76561198310951440,"connected_time":3262000000000,"state":"active","ping":91},{"user_id":396,"name":"Mifee","steam_id":76561198069991093,"connected_time":332000000000,"state":"active","ping":74},{"user_id":319,"name":"cyber hooligan","steam_id":76561198051747238,"connected_time":4491000000000,"state":"active","ping":73},{"user_id":400,"name":"Borfie","steam_id":76561198118600664,"connected_time":110000000000,"state":"active","ping":91},{"user_id":398,"name":"a crazy hobo","steam_id":76561198289650060,"connected_time":316000000000,"state":"active","ping":89},{"user_id":399,"name":"nabroleon","steam_id":76561198038080028,"connected_time":312000000000,"state":"active","ping":90},{"user_id":360,"name":"The Jackal","steam_id":76561198013726155,"connected_time":2127000000000,"state":"active","ping":82},{"user_id":379,"name":"athletesfoot","steam_id":76561197997331867,"connected_time":1011000000000,"state":"active","ping":59}]},{"server_id":403,"name":"Uncletopia | Chicago | 4 | All Maps","name_short":"chi-4","host":"chi-1.us.uncletopia.com","port":27045,"enabled":true,"region":"us-central","cc":"us","latitude":41.881832,"longitude":-87.62318,"reserved":0,"last_update":"0001-01-01T00:00:00Z","name_a2s":"Uncletopia | Chicago | 4 | All Maps","protocol":17,"map":"pl_pier","folder":"tf","game":"Team Fortress","app_id":440,"player_count":18,"max_players":24,"Bots":0,"server_type":"Dedicated","server_os":"Linux","password":true,"vac":true,"version":"7757534","steam_id":85568392924515193,"keywords":["nocrits","nodmgspread","payload","uncletopia"],"game_id":440,"stv_port":27046,"stv_name":"Uncletopia | Chicago | 4 | All Maps | STV","players":[{"user_id":367,"name":"WinterCat","steam_id":76561199071923869,"connected_time":1296000000000,"state":"active","ping":77},{"user_id":363,"name":"BOB","steam_id":76561198354496665,"connected_time":1358000000000,"state":"active","ping":55},{"user_id":327,"name":"Zicky Nee","steam_id":76561198042601111,"connected_time":4913000000000,"state":"active","ping":74},{"user_id":384,"name":"Presto","steam_id":76561198069293923,"connected_time":605000000000,"state":"active","ping":64},{"user_id":377,"name":"Super D Duper","steam_id":76561198078203677,"connected_time":863000000000,"state":"active","ping":68},{"user_id":387,"name":"shadowjango","steam_id":76561198001475833,"connected_time":547000000000,"state":"active","ping":60},{"user_id":390,"name":"Kaptain_Kirby","steam_id":76561198337275050,"connected_time":114000000000,"state":"active","ping":52},{"user_id":385,"name":"f_stop","steam_id":76561198065281390,"connected_time":594000000000,"state":"active","ping":70},{"user_id":388,"name":"Salmon Destroyer 9000","steam_id":76561198065826749,"connected_time":270000000000,"state":"active","ping":81},{"user_id":372,"name":"iCarly Lore Expert","steam_id":76561198111902910,"connected_time":1016000000000,"state":"active","ping":65},{"user_id":389,"name":"Dingongus","steam_id":76561198249960240,"connected_time":231000000000,"state":"active","ping":85},{"user_id":373,"name":"Mr poop","steam_id":76561198040631206,"connected_time":1006000000000,"state":"active","ping":76},{"user_id":391,"name":"REVil","steam_id":76561198324637267,"connected_time":85000000000,"state":"active","ping":125},{"user_id":374,"name":"granola","steam_id":76561198392844061,"connected_time":997000000000,"state":"active","ping":68},{"user_id":392,"name":"PenutButterPirate","steam_id":76561198252962312,"connected_time":83000000000,"state":"active","ping":68},{"user_id":379,"name":"Hook, Line, and Sphincter","steam_id":76561198078207743,"connected_time":849000000000,"state":"active","ping":62},{"user_id":393,"name":"The Pagician","steam_id":76561198171059451,"connected_time":73000000000,"state":"active","ping":50},{"user_id":394,"name":"chimp sauce","steam_id":76561198121757512,"connected_time":16000000000,"state":"active","ping":247}]},{"server_id":36,"name":"Uncletopia | Chicago | 5 | All Maps","name_short":"chi-5","host":"chi-2.us.uncletopia.com","port":27015,"enabled":true,"region":"us-central","cc":"us","latitude":41.881832,"longitude":-87.62318,"reserved":0,"last_update":"0001-01-01T00:00:00Z","name_a2s":"Uncletopia | Chicago | 5 | All Maps","protocol":17,"map":"cp_dustbowl","folder":"tf","game":"Team Fortress","app_id":440,"player_count":24,"max_players":24,"Bots":0,"server_type":"Dedicated","server_os":"Linux","password":true,"vac":true,"version":"7757534","steam_id":85568392924866362,"keywords":["cp","nocrits","nodmgspread","uncletopia"],"game_id":440,"stv_port":27016,"stv_name":"Uncletopia | Chicago | 5 | All Maps | STV","players":[{"user_id":351,"name":"graggle","steam_id":76561198840210218,"connected_time":357000000000,"state":"active","ping":100},{"user_id":323,"name":"Alset","steam_id":76561197993820174,"connected_time":3058000000000,"state":"active","ping":85},{"user_id":326,"name":"stworldcitizen follower","steam_id":76561198201204337,"connected_time":2884000000000,"state":"active","ping":135},{"user_id":352,"name":"Nefarious","steam_id":76561198127243490,"connected_time":348000000000,"state":"active","ping":81},{"user_id":341,"name":"Fire Truck and Moster Truck","steam_id":76561198192095074,"connected_time":1294000000000,"state":"active","ping":105},{"user_id":342,"name":"PCR","steam_id":76561198048748102,"connected_time":918000000000,"state":"active","ping":53},{"user_id":348,"name":"aimee","steam_id":76561198834309212,"connected_time":559000000000,"state":"active","ping":72},{"user_id":333,"name":"Yulice","steam_id":76561198050095156,"connected_time":2304000000000,"state":"active","ping":63},{"user_id":331,"name":"Rhials","steam_id":76561198180917375,"connected_time":2575000000000,"state":"active","ping":65},{"user_id":349,"name":"gup","steam_id":76561198311004039,"connected_time":554000000000,"state":"active","ping":94},{"user_id":312,"name":"nickup9","steam_id":76561198040904160,"connected_time":3713000000000,"state":"active","ping":77},{"user_id":350,"name":"Lylsburg","steam_id":76561198001137022,"connected_time":542000000000,"state":"active","ping":134},{"user_id":318,"name":"HasNoMicrophone","steam_id":76561198027404857,"connected_time":3654000000000,"state":"active","ping":70},{"user_id":328,"name":"Xtar","steam_id":76561198301774048,"connected_time":2855000000000,"state":"active","ping":117},{"user_id":343,"name":"KevCraft","steam_id":76561199000622939,"connected_time":906000000000,"state":"active","ping":71},{"user_id":353,"name":"rlty","steam_id":76561198009395055,"connected_time":304000000000,"state":"active","ping":60},{"user_id":316,"name":"Professor Cuthbert Calculus","steam_id":76561198003257461,"connected_time":3672000000000,"state":"active","ping":111},{"user_id":339,"name":"Confused Rock","steam_id":76561198051763034,"connected_time":2207000000000,"state":"active","ping":74},{"user_id":354,"name":"ToughGuy311","steam_id":76561198131458027,"connected_time":302000000000,"state":"active","ping":67},{"user_id":359,"name":"Tideflat","steam_id":76561198179850851,"connected_time":41000000000,"state":"active","ping":102},{"user_id":320,"name":"upsetpanini1337","steam_id":76561198957248260,"connected_time":3633000000000,"state":"active","ping":58},{"user_id":321,"name":"Anderswo","steam_id":76561198253224241,"connected_time":3583000000000,"state":"active","ping":106},{"user_id":356,"name":"Toast","steam_id":76561198234616616,"connected_time":276000000000,"state":"active","ping":55},{"user_id":357,"name":"invb","steam_id":76561197998263914,"connected_time":269000000000,"state":"active","ping":54}]},{"server_id":37,"name":"Uncletopia | Chicago | 6 | All Maps","name_short":"chi-6","host":"chi-2.us.uncletopia.com","port":27025,"enabled":true,"region":"us-central","cc":"us","latitude":41.881832,"longitude":-87.62318,"reserved":0,"last_update":"0001-01-01T00:00:00Z","name_a2s":"Uncletopia | Chicago | 6 | All Maps","protocol":17,"map":"pl_badwater","folder":"tf","game":"Team Fortress","app_id":440,"player_count":13,"max_players":24,"Bots":0,"server_type":"Dedicated","server_os":"Linux","password":true,"vac":true,"version":"7757534","steam_id":85568392924866363,"keywords":["nocrits","nodmgspread","payload","uncletopia"],"game_id":440,"stv_port":27026,"stv_name":"Uncletopia | Chicago | 6 | All Maps | STV","players":[{"user_id":364,"name":"Simon","steam_id":76561198332763962,"connected_time":735000000000,"state":"active","ping":60},{"user_id":373,"name":"The fish of doom","steam_id":76561198049069677,"connected_time":274000000000,"state":"active","ping":58},{"user_id":356,"name":"crprbrfst army soldier #1","steam_id":76561198041183975,"connected_time":1061000000000,"state":"active","ping":49},{"user_id":374,"name":"Giantbob","steam_id":76561199043760220,"connected_time":95000000000,"state":"active","ping":120},{"user_id":332,"name":"Hobbes","steam_id":76561198059652226,"connected_time":2410000000000,"state":"active","ping":88},{"user_id":355,"name":"Sahsukey Ahchiha","steam_id":76561198396818419,"connected_time":1100000000000,"state":"active","ping":45},{"user_id":368,"name":"gettysburg","steam_id":76561198016157051,"connected_time":497000000000,"state":"active","ping":74},{"user_id":357,"name":"crpbrfst2k2 soldier of god","steam_id":76561198070136627,"connected_time":1046000000000,"state":"active","ping":95},{"user_id":365,"name":"voidpuppy","steam_id":76561198799922000,"connected_time":567000000000,"state":"active","ping":97},{"user_id":334,"name":"Nilantive","steam_id":76561198177565082,"connected_time":2361000000000,"state":"active","ping":71},{"user_id":359,"name":"approx. 72 bees","steam_id":76561198078782043,"connected_time":900000000000,"state":"active","ping":87},{"user_id":360,"name":"Crow","steam_id":76561197996223144,"connected_time":881000000000,"state":"active","ping":86},{"user_id":362,"name":"Vitzenhauzer","steam_id":76561198116449787,"connected_time":757000000000,"state":"active","ping":65}]},{"server_id":38,"name":"Uncletopia | Chicago | 7 | Stopwatch Beta","name_short":"chi-7","host":"chi-2.us.uncletopia.com","port":27035,"enabled":true,"region":"us-central","cc":"us","latitude":41.881832,"longitude":-87.62318,"reserved":0,"last_update":"0001-01-01T00:00:00Z","name_a2s":"Uncletopia | Chicago | 7 | Stopwatch Beta","protocol":17,"map":"workshop/pl_summercoast_rc8e.ugc1761528829","folder":"tf","game":"Team Fortress","app_id":440,"player_count":0,"max_players":24,"Bots":0,"server_type":"Dedicated","server_os":"Linux","password":true,"vac":true,"version":"7757534","steam_id":85568392924866364,"keywords":["nocrits","nodmgspread","payload","uncletopia"],"game_id":440,"stv_port":27036,"stv_name":"Uncletopia | Chicago | 7 | Stopwatch Beta | STV","players":null},{"server_id":39,"name":"Uncletopia | Chicago | 8 | Community","name_short":"chi-8","host":"chi-2.us.uncletopia.com","port":27045,"enabled":true,"region":"us-central","cc":"us","latitude":41.881832,"longitude":-87.62318,"reserved":0,"last_update":"0001-01-01T00:00:00Z","name_a2s":"Uncletopia | Chicago | 8 | Community","protocol":17,"map":"workshop/pl_vigil_rc9.ugc1266210012","folder":"tf","game":"Team Fortress","app_id":440,"player_count":0,"max_players":24,"Bots":0,"server_type":"Dedicated","server_os":"Linux","password":true,"vac":true,"version":"7757534","steam_id":85568392924866365,"keywords":["nocrits","nodmgspread","payload","uncletopia"],"game_id":440,"stv_port":27046,"stv_name":"Uncletopia | Chicago | 8 | Community | STV","players":null},{"server_id":8,"name":"Uncletopia | Dallas | 1 | All Maps","name_short":"dal-1","host":"dal-1.us.uncletopia.com","port":27015,"enabled":true,"region":"us-central","cc":"us","latitude":32.779167,"longitude":-96.80889,"reserved":0,"last_update":"0001-01-01T00:00:00Z","name_a2s":"Uncletopia | Dallas | 1 | All Maps","protocol":17,"map":"pl_upward","folder":"tf","game":"Team Fortress","app_id":440,"player_count":22,"max_players":24,"Bots":0,"server_type":"Dedicated","server_os":"Linux","password":true,"vac":true,"version":"7757534","steam_id":85568392924469986,"keywords":["nocrits","nodmgspread","payload","uncletopia"],"game_id":440,"stv_port":27016,"stv_name":"Uncletopia | Dallas | 1 | All Maps | STV","players":[{"user_id":364,"name":"HeroOfTime","steam_id":76561199096218001,"connected_time":620000000000,"state":"active","ping":82},{"user_id":299,"name":"gamers aren't real","steam_id":76561198113748347,"connected_time":4289000000000,"state":"active","ping":66},{"user_id":313,"name":"teatimesukka","steam_id":76561198978749594,"connected_time":3124000000000,"state":"active","ping":32},{"user_id":363,"name":"Yukon Cornelius","steam_id":76561198261512781,"connected_time":629000000000,"state":"active","ping":66},{"user_id":352,"name":"Pile of Spinach","steam_id":76561198043068841,"connected_time":1303000000000,"state":"active","ping":60},{"user_id":351,"name":"T H E G A Z E","steam_id":76561198342386808,"connected_time":1317000000000,"state":"active","ping":78},{"user_id":355,"name":"tyjle","steam_id":76561198118420122,"connected_time":1261000000000,"state":"active","ping":69},{"user_id":365,"name":"Willy","steam_id":76561198046508940,"connected_time":608000000000,"state":"active","ping":85},{"user_id":359,"name":"3-13","steam_id":76561198063929021,"connected_time":1115000000000,"state":"active","ping":52},{"user_id":377,"name":"ant","steam_id":76561198133738975,"connected_time":7000000000,"state":"spawning","ping":57},{"user_id":341,"name":"dookie 4hunnid","steam_id":76561198097034115,"connected_time":1802000000000,"state":"active","ping":97},{"user_id":360,"name":"avant","steam_id":76561198104921055,"connected_time":1013000000000,"state":"active","ping":86},{"user_id":376,"name":"WoW Girlfriend","steam_id":76561198441739585,"connected_time":125000000000,"state":"active","ping":115},{"user_id":374,"name":"warrior","steam_id":76561198074500319,"connected_time":183000000000,"state":"active","ping":122},{"user_id":339,"name":"BamBam","steam_id":76561198063110026,"connected_time":2280000000000,"state":"active","ping":74},{"user_id":357,"name":"nnobi","steam_id":76561198878729277,"connected_time":1163000000000,"state":"active","ping":72},{"user_id":349,"name":"tum","steam_id":76561198084712019,"connected_time":1581000000000,"state":"active","ping":83},{"user_id":375,"name":"Degree","steam_id":76561198059812393,"connected_time":180000000000,"state":"active","ping":91},{"user_id":367,"name":"MetalFaceKaiba","steam_id":76561199126780381,"connected_time":576000000000,"state":"active","ping":87},{"user_id":370,"name":"jon pickle water","steam_id":76561199036212135,"connected_time":322000000000,"state":"active","ping":112},{"user_id":315,"name":"Fluff","steam_id":76561198255399052,"connected_time":3096000000000,"state":"active","ping":74},{"user_id":350,"name":"FearTheJynx","steam_id":76561198136487957,"connected_time":1319000000000,"state":"active","ping":60}]},{"server_id":108,"name":"Uncletopia | Dallas | 2 | All Maps","name_short":"dal-2","host":"dal-1.us.uncletopia.com","port":27025,"enabled":true,"region":"us-central","cc":"us","latitude":32.779167,"longitude":-96.80889,"reserved":0,"last_update":"0001-01-01T00:00:00Z","name_a2s":"Uncletopia | Dallas | 2 | All Maps","protocol":17,"map":"koth_viaduct","folder":"tf","game":"Team Fortress","app_id":440,"player_count":23,"max_players":24,"Bots":0,"server_type":"Dedicated","server_os":"Linux","password":true,"vac":true,"version":"7757534","steam_id":85568392924469988,"keywords":["cp","nocrits","nodmgspread","uncletopia"],"game_id":440,"stv_port":27026,"stv_name":"Uncletopia | Dallas | 2 | All Maps | STV","players":[{"user_id":344,"name":"Ask me about my bowel movements","steam_id":76561197993151595,"connected_time":1685000000000,"state":"active","ping":95},{"user_id":361,"name":"Rudy","steam_id":76561198013456828,"connected_time":1299000000000,"state":"active","ping":82},{"user_id":279,"name":"xZackAttack27x","steam_id":76561198035446639,"connected_time":7748000000000,"state":"active","ping":37},{"user_id":360,"name":"eryn üó∫","steam_id":76561198004433070,"connected_time":1322000000000,"state":"active","ping":48},{"user_id":347,"name":"PirateJet","steam_id":76561198050858744,"connected_time":1601000000000,"state":"active","ping":84},{"user_id":369,"name":"HoaroBatty","steam_id":76561198120361221,"connected_time":250000000000,"state":"active","ping":45},{"user_id":366,"name":"Red","steam_id":76561198031865869,"connected_time":483000000000,"state":"active","ping":60},{"user_id":367,"name":"Matches_                       ","steam_id":76561198048925904,"connected_time":482000000000,"state":"active","ping":84},{"user_id":350,"name":"hamo456","steam_id":76561198111939938,"connected_time":1555000000000,"state":"active","ping":70},{"user_id":305,"name":"TheTruthOfTheCessationOfDukkha","steam_id":76561198214370515,"connected_time":5914000000000,"state":"active","ping":71},{"user_id":296,"name":"Coosnut","steam_id":76561198061106216,"connected_time":6956000000000,"state":"active","ping":54},{"user_id":370,"name":"ShredMaan","steam_id":76561198429982138,"connected_time":86000000000,"state":"active","ping":87},{"user_id":314,"name":"DAS SCHNITZELSTIEN","steam_id":76561198051137159,"connected_time":5237000000000,"state":"active","ping":110},{"user_id":331,"name":"viscodolante","steam_id":76561198013650292,"connected_time":3328000000000,"state":"active","ping":93},{"user_id":352,"name":"Stillkill","steam_id":76561198065069057,"connected_time":1534000000000,"state":"active","ping":38},{"user_id":364,"name":"Aeugh","steam_id":76561198961011244,"connected_time":573000000000,"state":"active","ping":73},{"user_id":304,"name":"GarretGood","steam_id":76561198071881495,"connected_time":5978000000000,"state":"active","ping":92},{"user_id":354,"name":"Spinch","steam_id":76561198296224166,"connected_time":1523000000000,"state":"active","ping":60},{"user_id":357,"name":"Jolo25","steam_id":76561198390795573,"connected_time":1437000000000,"state":"active","ping":71},{"user_id":362,"name":"Capt.Swag","steam_id":76561198088340994,"connected_time":1128000000000,"state":"active","ping":93},{"user_id":365,"name":"HE‚ÄôS IN THE GODDAMN WALLS","steam_id":76561198363267009,"connected_time":537000000000,"state":"active","ping":47},{"user_id":359,"name":"Gelliterate","steam_id":76561198107233070,"connected_time":1371000000000,"state":"active","ping":56},{"user_id":313,"name":"Harold","steam_id":76561198057317770,"connected_time":5245000000000,"state":"active","ping":75}]},{"server_id":5,"name":"Uncletopia | Frankfurt | 1 | All Maps","name_short":"frk-1","host":"frk-1.de.uncletopia.com","port":27015,"enabled":true,"region":"eu","cc":"de","latitude":50.110924,"longitude":8.682127,"reserved":0,"last_update":"0001-01-01T00:00:00Z","name_a2s":"Uncletopia | Frankfurt | 1 | All Maps","protocol":17,"map":"pl_snowycoast","folder":"tf","game":"Team Fortress","app_id":440,"player_count":0,"max_players":24,"Bots":0,"server_type":"Dedicated","server_os":"Linux","password":true,"vac":true,"version":"7757534","steam_id":85568392924469989,"keywords":["nocrits","nodmgspread","payload","uncletopia"],"game_id":440,"stv_port":27016,"stv_name":"Uncletopia | Frankfurt | 1 | All Maps | STV","players":null},{"server_id":110,"name":"Uncletopia | Frankfurt | 2 | All Maps","name_short":"frk-2","host":"frk-1.de.uncletopia.com","port":27025,"enabled":true,"region":"eu","cc":"de","latitude":50.110924,"longitude":8.682127,"reserved":0,"last_update":"0001-01-01T00:00:00Z","name_a2s":"Uncletopia | Frankfurt | 2 | All Maps","protocol":17,"map":"pl_snowycoast","folder":"tf","game":"Team Fortress","app_id":440,"player_count":0,"max_players":24,"Bots":0,"server_type":"Dedicated","server_os":"Linux","password":true,"vac":true,"version":"7757534","steam_id":85568392924469990,"keywords":["nocrits","nodmgspread","payload","uncletopia"],"game_id":440,"stv_port":27026,"stv_name":"Uncletopia | Frankfurt | 2 | All Maps | STV","players":null},{"server_id":308,"name":"Uncletopia | Frankfurt | 3 | All Maps","name_short":"frk-3","host":"frk-1.de.uncletopia.com","port":27035,"enabled":true,"region":"eu","cc":"de","latitude":50.110924,"longitude":8.682127,"reserved":0,"last_update":"0001-01-01T00:00:00Z","name_a2s":"Uncletopia | Frankfurt | 3 | All Maps","protocol":17,"map":"cp_altitude","folder":"tf","game":"Team Fortress","app_id":440,"player_count":0,"max_players":24,"Bots":0,"server_type":"Dedicated","server_os":"Linux","password":true,"vac":true,"version":"7757534","steam_id":85568392924504274,"keywords":["cp","nocrits","nodmgspread","uncletopia"],"game_id":440,"stv_port":27036,"stv_name":"Uncletopia | Frankfurt | 3 | All Maps | STV","players":null},{"server_id":309,"name":"Uncletopia | Frankfurt | 4 | All Maps","name_short":"frk-4","host":"frk-1.de.uncletopia.com","port":27045,"enabled":true,"region":"eu","cc":"de","latitude":50.110924,"longitude":8.682127,"reserved":0,"last_update":"0001-01-01T00:00:00Z","name_a2s":"Uncletopia | Frankfurt | 4 | All Maps","protocol":17,"map":"cp_altitude","folder":"tf","game":"Team Fortress","app_id":440,"player_count":0,"max_players":24,"Bots":0,"server_type":"Dedicated","server_os":"Linux","password":true,"vac":true,"version":"7757534","steam_id":85568392924504275,"keywords":["cp","nocrits","nodmgspread","uncletopia"],"game_id":440,"stv_port":27046,"stv_name":"Uncletopia | Frankfurt | 4 | All Maps | STV","players":null},{"server_id":310,"name":"Uncletopia | Frankfurt | 5 | All Maps","name_short":"frk-5","host":"frk-1.de.uncletopia.com","port":27055,"enabled":true,"region":"eu","cc":"de","latitude":50.110924,"longitude":8.682127,"reserved":0,"last_update":"0001-01-01T00:00:00Z","name_a2s":"Uncletopia | Frankfurt | 5 | All Maps","protocol":17,"map":"cp_altitude","folder":"tf","game":"Team Fortress","app_id":440,"player_count":0,"max_players":24,"Bots":0,"server_type":"Dedicated","server_os":"Linux","password":true,"vac":true,"version":"7757534","steam_id":85568392924504277,"keywords":["cp","nocrits","nodmgspread","uncletopia"],"game_id":440,"stv_port":27056,"stv_name":"Uncletopia | Frankfurt | 5 | All Maps | STV","players":null},{"server_id":311,"name":"Uncletopia | Frankfurt | 6 | All Maps","name_short":"frk-6","host":"frk-1.de.uncletopia.com","port":27065,"enabled":true,"region":"eu","cc":"de","latitude":50.110924,"longitude":8.682127,"reserved":0,"last_update":"0001-01-01T00:00:00Z","name_a2s":"Uncletopia | Frankfurt | 6 | All Maps","protocol":17,"map":"koth_highpass","folder":"tf","game":"Team Fortress","app_id":440,"player_count":0,"max_players":24,"Bots":0,"server_type":"Dedicated","server_os":"Linux","password":true,"vac":true,"version":"7757534","steam_id":85568392924504278,"keywords":["cp","nocrits","nodmgspread","uncletopia"],"game_id":440,"stv_port":27066,"stv_name":"Uncletopia | Frankfurt | 6 | All Maps | STV","players":null},{"server_id":23,"name":"Uncletopia | Frankfurt | 7 | Stopwatch Beta","name_short":"frk-7","host":"frk-1.de.uncletopia.com","port":27075,"enabled":true,"region":"eu","cc":"de","latitude":50.110924,"longitude":8.682127,"reserved":0,"last_update":"0001-01-01T00:00:00Z","name_a2s":"Uncletopia | Frankfurt | 7 | Stopwatch Beta","protocol":17,"map":"pl_frontier_final","folder":"tf","game":"Team Fortress","app_id":440,"player_count":0,"max_players":24,"Bots":0,"server_type":"Dedicated","server_os":"Linux","password":true,"vac":true,"version":"7757534","steam_id":85568392924742827,"keywords":["nocrits","nodmgspread","payload","uncletopia"],"game_id":440,"stv_port":27076,"stv_name":"Uncletopia | Frankfurt | 7 | Stopwatch Beta | STV","players":null},{"server_id":24,"name":"Uncletopia | Frankfurt | 8 | Community","name_short":"frk-8","host":"frk-1.de.uncletopia.com","port":27085,"enabled":true,"region":"eu","cc":"de","latitude":50.110924,"longitude":8.682127,"reserved":0,"last_update":"0001-01-01T00:00:00Z","name_a2s":"Uncletopia | Frankfurt | 8 | Community","protocol":17,"map":"pl_badwater","folder":"tf","game":"Team Fortress","app_id":440,"player_count":0,"max_players":24,"Bots":0,"server_type":"Dedicated","server_os":"Linux","password":true,"vac":true,"version":"7757534","steam_id":85568392924742828,"keywords":["nocrits","nodmgspread","payload","uncletopia"],"game_id":440,"stv_port":27086,"stv_name":"Uncletopia | Frankfurt | 8 | Community | STV","players":null},{"server_id":202,"name":"Uncletopia | Hong Kong | 1 | All Maps","name_short":"hgk-1","host":"hgk-1.hk.uncletopia.com","port":27015,"enabled":true,"region":"asia","cc":"hk","latitude":22.302711,"longitude":114.177216,"reserved":0,"last_update":"0001-01-01T00:00:00Z","name_a2s":"Uncletopia | Hong Kong | 1 | All Maps","protocol":17,"map":"cp_sunshine","folder":"tf","game":"Team Fortress","app_id":440,"player_count":0,"max_players":24,"Bots":0,"server_type":"Dedicated","server_os":"Linux","password":true,"vac":true,"version":"7757534","steam_id":85568392924494504,"keywords":["cp","nocrits","nodmgspread","uncletopia"],"game_id":440,"stv_port":27016,"stv_name":"Uncletopia | Hong Kong | 1 | All Maps | STV","players":null},{"server_id":1,"name":"Uncletopia | Los Angeles | 1 | All Maps","name_short":"lax-1","host":"lax-1.us.uncletopia.com","port":27015,"enabled":true,"region":"us-west","cc":"us","latitude":33.94279,"longitude":-118.41004,"reserved":0,"last_update":"0001-01-01T00:00:00Z","name_a2s":"Uncletopia | Los Angeles | 1 | All Maps","protocol":17,"map":"cp_dustbowl","folder":"tf","game":"Team Fortress","app_id":440,"player_count":0,"max_players":24,"Bots":0,"server_type":"Dedicated","server_os":"Linux","password":true,"vac":true,"version":"7757534","steam_id":85568392924469991,"keywords":["cp","nocrits","nodmgspread","uncletopia"],"game_id":440,"stv_port":27016,"stv_name":"Uncletopia | Los Angeles | 1 | All Maps | STV","players":null},{"server_id":112,"name":"Uncletopia | Los Angeles | 2 | All Maps","name_short":"lax-2","host":"lax-1.us.uncletopia.com","port":27025,"enabled":true,"region":"us-west","cc":"us","latitude":33.94279,"longitude":-118.41004,"reserved":0,"last_update":"0001-01-01T00:00:00Z","name_a2s":"Uncletopia | Los Angeles | 2 | All Maps","protocol":17,"map":"pl_snowycoast","folder":"tf","game":"Team Fortress","app_id":440,"player_count":23,"max_players":24,"Bots":0,"server_type":"Dedicated","server_os":"Linux","password":true,"vac":true,"version":"7757534","steam_id":85568392924469992,"keywords":["nocrits","nodmgspread","payload","uncletopia"],"game_id":440,"stv_port":27026,"stv_name":"Uncletopia | Los Angeles | 2 | All Maps | STV","players":[{"user_id":219,"name":"Schnitz(Lost my Glasses)","steam_id":76561198265484253,"connected_time":4664000000000,"state":"active","ping":56},{"user_id":237,"name":"Sarbanes-Oxley","steam_id":76561197975898479,"connected_time":2926000000000,"state":"active","ping":85},{"user_id":245,"name":"N√º√æ","steam_id":76561198043956703,"connected_time":1098000000000,"state":"active","ping":53},{"user_id":220,"name":"ThunderGunner","steam_id":76561198097721532,"connected_time":4533000000000,"state":"active","ping":47},{"user_id":212,"name":"when she travis on my touchdown","steam_id":76561198128164970,"connected_time":5514000000000,"state":"active","ping":54},{"user_id":256,"name":"JingleDingo","steam_id":76561198394666640,"connected_time":161000000000,"state":"active","ping":46},{"user_id":257,"name":"kinghater","steam_id":76561198815034365,"connected_time":156000000000,"state":"active","ping":107},{"user_id":197,"name":"Gyr0sphere","steam_id":76561198183900735,"connected_time":6800000000000,"state":"active","ping":59},{"user_id":238,"name":"hakken","steam_id":76561199102391736,"connected_time":2304000000000,"state":"active","ping":47},{"user_id":249,"name":"With respect to x","steam_id":76561198088321636,"connected_time":1000000000000,"state":"active","ping":99},{"user_id":258,"name":"ValidSalad","steam_id":76561198948874685,"connected_time":151000000000,"state":"active","ping":79},{"user_id":259,"name":"Chalupa Jones","steam_id":76561198335855588,"connected_time":73000000000,"state":"active","ping":47},{"user_id":260,"name":"vanillain","steam_id":76561198058617608,"connected_time":50000000000,"state":"active","ping":60},{"user_id":210,"name":"Cute Gatito","steam_id":76561198351147780,"connected_time":5837000000000,"state":"active","ping":65},{"user_id":261,"name":"Zaiah","steam_id":76561198377588247,"connected_time":40000000000,"state":"active","ping":91},{"user_id":236,"name":"who is doug","steam_id":76561198858328080,"connected_time":2943000000000,"state":"active","ping":44},{"user_id":262,"name":"Drowse","steam_id":76561198029794548,"connected_time":35000000000,"state":"active","ping":57},{"user_id":250,"name":"Emperor Lactucam","steam_id":76561198127045046,"connected_time":997000000000,"state":"active","ping":101},{"user_id":216,"name":"Platino","steam_id":76561198410957728,"connected_time":5388000000000,"state":"active","ping":91},{"user_id":263,"name":"Disc0","steam_id":76561198067337267,"connected_time":25000000000,"state":"active","ping":75},{"user_id":264,"name":"reverie","steam_id":76561198168158637,"connected_time":0,"state":"spawning","ping":19},{"user_id":239,"name":"TeCon","steam_id":76561198049127236,"connected_time":2301000000000,"state":"active","ping":52},{"user_id":217,"name":"Engie","steam_id":76561199168186553,"connected_time":5380000000000,"state":"active","ping":113}]},{"server_id":324,"name":"Uncletopia | Los Angeles | 3 | All Maps","name_short":"lax-3","host":"lax-1.us.uncletopia.com","port":27035,"enabled":true,"region":"us-west","cc":"us","latitude":33.94279,"longitude":-118.41004,"reserved":0,"last_update":"0001-01-01T00:00:00Z","name_a2s":"Uncletopia | Los Angeles | 3 | All Maps","protocol":17,"map":"cp_steel","folder":"tf","game":"Team Fortress","app_id":440,"player_count":24,"max_players":24,"Bots":0,"server_type":"Dedicated","server_os":"Linux","password":true,"vac":true,"version":"7757534","steam_id":85568392924510198,"keywords":["cp","nocrits","nodmgspread","uncletopia"],"game_id":440,"stv_port":27036,"stv_name":"Uncletopia | Los Angeles | 3 | All Maps | STV","players":[{"user_id":356,"name":"Moist Towels","steam_id":76561198137635837,"connected_time":1223000000000,"state":"active","ping":49},{"user_id":346,"name":"no one","steam_id":76561198169755734,"connected_time":2392000000000,"state":"active","ping":62},{"user_id":306,"name":"Altruisticailuridae","steam_id":76561198335295596,"connected_time":6527000000000,"state":"active","ping":56},{"user_id":260,"name":"Mitty","steam_id":76561198014177684,"connected_time":9472000000000,"state":"active","ping":59},{"user_id":339,"name":"thunderous prophet","steam_id":76561198131166135,"connected_time":3605000000000,"state":"active","ping":60},{"user_id":262,"name":"The Robot Menace","steam_id":76561198043390413,"connected_time":9441000000000,"state":"active","ping":82},{"user_id":263,"name":"„ÄåJimbo Reference„Äç","steam_id":76561198016078541,"connected_time":9433000000000,"state":"active","ping":58},{"user_id":340,"name":"p9 Doctor‚Ñ¢","steam_id":76561198134309750,"connected_time":3259000000000,"state":"active","ping":122},{"user_id":226,"name":"Hero Smasher","steam_id":76561198150681669,"connected_time":12210000000000,"state":"active","ping":60},{"user_id":357,"name":"ChibiFerrari","steam_id":76561198825330201,"connected_time":840000000000,"state":"active","ping":69},{"user_id":332,"name":"Jax O'Gaytor","steam_id":76561198288922168,"connected_time":5101000000000,"state":"active","ping":73},{"user_id":242,"name":"moe5x","steam_id":76561198316877833,"connected_time":10835000000000,"state":"active","ping":114},{"user_id":318,"name":"Mothership","steam_id":76561198044029501,"connected_time":5727000000000,"state":"active","ping":98},{"user_id":352,"name":"wubber","steam_id":76561198286627157,"connected_time":1416000000000,"state":"active","ping":47},{"user_id":334,"name":"pickled peener paste","steam_id":76561198073269122,"connected_time":4753000000000,"state":"active","ping":106},{"user_id":358,"name":"car gas is yummy","steam_id":76561199045901994,"connected_time":466000000000,"state":"active","ping":58},{"user_id":347,"name":"5392vin","steam_id":76561198880493511,"connected_time":2364000000000,"state":"active","ping":51},{"user_id":354,"name":"awesome","steam_id":76561198248656836,"connected_time":1367000000000,"state":"active","ping":112},{"user_id":348,"name":"WACKY JIM","steam_id":76561198961641122,"connected_time":1827000000000,"state":"active","ping":48},{"user_id":355,"name":"JJP","steam_id":76561198032914094,"connected_time":1287000000000,"state":"active","ping":59},{"user_id":311,"name":"brobtlcehc","steam_id":76561198043558709,"connected_time":5965000000000,"state":"active","ping":75},{"user_id":250,"name":"Hindmost","steam_id":76561199081837220,"connected_time":10469000000000,"state":"active","ping":99},{"user_id":317,"name":"Florist","steam_id":76561198009121060,"connected_time":5759000000000,"state":"active","ping":68},{"user_id":338,"name":"p9 jorts","steam_id":76561199041179985,"connected_time":3930000000000,"state":"active","ping":91}]},{"server_id":25,"name":"Uncletopia | Los Angeles | 4 | Stopwatch Beta","name_short":"lax-4","host":"lax-1.us.uncletopia.com","port":27045,"enabled":true,"region":"us-west","cc":"us","latitude":33.94279,"longitude":-118.41004,"reserved":0,"last_update":"0001-01-01T00:00:00Z","name_a2s":"Uncletopia | Los Angeles | 4 | Stopwatch Beta","protocol":17,"map":"workshop/pl_summercoast_rc8e.ugc1761528829","folder":"tf","game":"Team Fortress","app_id":440,"player_count":0,"max_players":24,"Bots":0,"server_type":"Dedicated","server_os":"Linux","password":true,"vac":true,"version":"7757534","steam_id":85568392924510199,"keywords":["nocrits","nodmgspread","payload","uncletopia"],"game_id":440,"stv_port":27046,"stv_name":"Uncletopia | Los Angeles | 4 | Stopwatch Beta | STV","players":null},{"server_id":11,"name":"Uncletopia | London | 1 | All Maps","name_short":"lon-1","host":"lon-1.uk.uncletopia.com","port":27015,"enabled":true,"region":"eu","cc":"gb","latitude":51.509865,"longitude":-0.118092,"reserved":0,"last_update":"0001-01-01T00:00:00Z","name_a2s":"Uncletopia | London | 1 | All Maps","protocol":17,"map":"pl_swiftwater_final1","folder":"tf","game":"Team Fortress","app_id":440,"player_count":12,"max_players":24,"Bots":0,"server_type":"Dedicated","server_os":"Linux","password":true,"vac":true,"version":"7757534","steam_id":85568392924367362,"keywords":["nocrits","nodmgspread","payload","uncletopia"],"game_id":440,"stv_port":27016,"stv_name":"Uncletopia | London | 1 | All Maps | STV","players":[{"user_id":275,"name":"marsel","steam_id":76561198116168271,"connected_time":273000000000,"state":"active","ping":74},{"user_id":271,"name":"DDUUCCKK","steam_id":76561198141953050,"connected_time":982000000000,"state":"active","ping":45},{"user_id":263,"name":"Teffg","steam_id":76561198274386094,"connected_time":1419000000000,"state":"active","ping":85},{"user_id":274,"name":"–ë–û–ë–†_FM","steam_id":76561199391861793,"connected_time":387000000000,"state":"active","ping":111},{"user_id":220,"name":"Schmodda on YT","steam_id":76561198147273788,"connected_time":5714000000000,"state":"active","ping":51},{"user_id":276,"name":"Gringor Bib-Blon","steam_id":76561198274942325,"connected_time":180000000000,"state":"active","ping":152},{"user_id":254,"name":"DocTwoEight","steam_id":76561198153488940,"connected_time":1997000000000,"state":"active","ping":74},{"user_id":277,"name":"caps.","steam_id":76561198116528817,"connected_time":142000000000,"state":"connecting","ping":59},{"user_id":266,"name":"ùìπùì±ùì™ùì∑ùìΩùì∏ùì∂","steam_id":76561199095923041,"connected_time":1234000000000,"state":"active","ping":158},{"user_id":269,"name":"practicing","steam_id":76561198176202865,"connected_time":1127000000000,"state":"active","ping":90},{"user_id":256,"name":"Crimsie","steam_id":76561198035218694,"connected_time":1940000000000,"state":"active","ping":85},{"user_id":204,"name":"dorak","steam_id":76561198818037965,"connected_time":7885000000000,"state":"active","ping":105}]},{"server_id":114,"name":"Uncletopia | London | 2 | All Maps","name_short":"lon-2","host":"lon-1.uk.uncletopia.com","port":27025,"enabled":true,"region":"eu","cc":"gb","latitude":51.509865,"longitude":-0.118092,"reserved":0,"last_update":"0001-01-01T00:00:00Z","name_a2s":"Uncletopia | London | 2 | All Maps","protocol":17,"map":"koth_cascade","folder":"tf","game":"Team Fortress","app_id":440,"player_count":0,"max_players":24,"Bots":0,"server_type":"Dedicated","server_os":"Linux","password":true,"vac":true,"version":"7757534","steam_id":85568392924470941,"keywords":["cp","nocrits","nodmgspread","uncletopia"],"game_id":440,"stv_port":27026,"stv_name":"Uncletopia | London | 2 | All Maps | STV","players":null},{"server_id":320,"name":"Uncletopia | London | 3 | All Maps","name_short":"lon-3","host":"lon-1.uk.uncletopia.com","port":27035,"enabled":true,"region":"eu","cc":"gb","latitude":51.509865,"longitude":-0.118092,"reserved":0,"last_update":"0001-01-01T00:00:00Z","name_a2s":"Uncletopia | London | 3 | All Maps","protocol":17,"map":"koth_viaduct","folder":"tf","game":"Team Fortress","app_id":440,"player_count":0,"max_players":24,"Bots":0,"server_type":"Dedicated","server_os":"Linux","password":true,"vac":true,"version":"7757534","steam_id":85568392924510192,"keywords":["cp","nocrits","nodmgspread","uncletopia"],"game_id":440,"stv_port":27036,"stv_name":"Uncletopia | London | 3 | All Maps | STV","players":null},{"server_id":321,"name":"Uncletopia | London | 4 | All Maps","name_short":"lon-4","host":"lon-1.uk.uncletopia.com","port":27045,"enabled":true,"region":"eu","cc":"gb","latitude":51.509865,"longitude":-0.118092,"reserved":0,"last_update":"0001-01-01T00:00:00Z","name_a2s":"Uncletopia | London | 4 | All Maps","protocol":17,"map":"koth_viaduct","folder":"tf","game":"Team Fortress","app_id":440,"player_count":0,"max_players":24,"Bots":0,"server_type":"Dedicated","server_os":"Linux","password":true,"vac":true,"version":"7757534","steam_id":85568392924510193,"keywords":["cp","nocrits","nodmgspread","uncletopia"],"game_id":440,"stv_port":27046,"stv_name":"Uncletopia | London | 4 | All Maps | STV","players":null},{"server_id":21,"name":"Uncletopia | London | 5 | All Maps","name_short":"lon-5","host":"lon-1.uk.uncletopia.com","port":27055,"enabled":true,"region":"eu","cc":"gb","latitude":51.509865,"longitude":-0.118092,"reserved":0,"last_update":"0001-01-01T00:00:00Z","name_a2s":"Uncletopia | London | 5 | All Maps","protocol":17,"map":"koth_viaduct","folder":"tf","game":"Team Fortress","app_id":440,"player_count":0,"max_players":24,"Bots":0,"server_type":"Dedicated","server_os":"Linux","password":true,"vac":true,"version":"7757534","steam_id":85568392924742829,"keywords":["cp","nocrits","nodmgspread","uncletopia"],"game_id":440,"stv_port":27056,"stv_name":"Uncletopia | London | 5 | All Maps | STV","players":null},{"server_id":22,"name":"Uncletopia | London | 6 | All Maps","name_short":"lon-6","host":"lon-1.uk.uncletopia.com","port":27065,"enabled":true,"region":"eu","cc":"gb","latitude":51.509865,"longitude":-0.118092,"reserved":0,"last_update":"0001-01-01T00:00:00Z","name_a2s":"Uncletopia | London | 6 | All Maps","protocol":17,"map":"koth_cascade","folder":"tf","game":"Team Fortress","app_id":440,"player_count":0,"max_players":24,"Bots":0,"server_type":"Dedicated","server_os":"Linux","password":true,"vac":true,"version":"7757534","steam_id":85568392924742830,"keywords":["cp","nocrits","nodmgspread","uncletopia"],"game_id":440,"stv_port":27066,"stv_name":"Uncletopia | London | 6 | All Maps | STV","players":null},{"server_id":40,"name":"Uncletopia | London | 7 | No Payload","name_short":"lon-7","host":"lon-1.uk.uncletopia.com","port":27075,"enabled":true,"region":"eu","cc":"gb","latitude":51.509865,"longitude":-0.118092,"reserved":0,"last_update":"0001-01-01T00:00:00Z","name_a2s":"Uncletopia | London | 7 | No Payload","protocol":17,"map":"koth_sawmill","folder":"tf","game":"Team Fortress","app_id":440,"player_count":0,"max_players":24,"Bots":0,"server_type":"Dedicated","server_os":"Linux","password":true,"vac":true,"version":"7757534","steam_id":85568392924964314,"keywords":["cp","nocrits","nodmgspread","uncletopia"],"game_id":440,"stv_port":27076,"stv_name":"Uncletopia | London | 7 | No Payload | STV","players":null},{"server_id":41,"name":"Uncletopia | London | 8 | Community","name_short":"lon-8","host":"lon-1.uk.uncletopia.com","port":27085,"enabled":true,"region":"eu","cc":"gb","latitude":51.509865,"longitude":-0.118092,"reserved":0,"last_update":"0001-01-01T00:00:00Z","name_a2s":"Uncletopia | London | 8 | Community","protocol":17,"map":"workshop/koth_trenchfoot_b1a.ugc731436616","folder":"tf","game":"Team Fortress","app_id":440,"player_count":0,"max_players":24,"Bots":0,"server_type":"Dedicated","server_os":"Linux","password":true,"vac":true,"version":"7757534","steam_id":85568392924964315,"keywords":["cp","nocrits","nodmgspread","uncletopia"],"game_id":440,"stv_port":27086,"stv_name":"Uncletopia | London | 8 | Community | STV","players":null},{"server_id":300,"name":"Uncletopia | Montr√©al | 1 | All Maps","name_short":"mtl-1","host":"mtl-1.ca.uncletopia.com","port":27015,"enabled":true,"region":"us-east","cc":"ca","latitude":45.50889,"longitude":-73.56167,"reserved":0,"last_update":"0001-01-01T00:00:00Z","name_a2s":"Uncletopia | Montr√©al | 1 | All Maps","protocol":17,"map":"cp_sunshine","folder":"tf","game":"Team Fortress","app_id":440,"player_count":0,"max_players":24,"Bots":0,"server_type":"Dedicated","server_os":"Linux","password":true,"vac":true,"version":"7757534","steam_id":85568392924500087,"keywords":["cp","nocrits","nodmgspread","uncletopia"],"game_id":440,"stv_port":27016,"stv_name":"Uncletopia | Montr√©al | 1 | All Maps | STV","players":null},{"server_id":301,"name":"Uncletopia | Montr√©al | 2 | All Maps","name_short":"mtl-2","host":"mtl-1.ca.uncletopia.com","port":27025,"enabled":true,"region":"us-east","cc":"ca","latitude":45.50889,"longitude":-73.56167,"reserved":0,"last_update":"0001-01-01T00:00:00Z","name_a2s":"Uncletopia | Montr√©al | 2 | All Maps","protocol":17,"map":"cp_process_final","folder":"tf","game":"Team Fortress","app_id":440,"player_count":0,"max_players":24,"Bots":0,"server_type":"Dedicated","server_os":"Linux","password":true,"vac":true,"version":"7757534","steam_id":85568392924500088,"keywords":["cp","nocrits","nodmgspread","uncletopia"],"game_id":440,"stv_port":27026,"stv_name":"Uncletopia | Montr√©al | 2 | All Maps | STV","players":null},{"server_id":302,"name":"Uncletopia | Montr√©al | 3 | All Maps","name_short":"mtl-3","host":"mtl-1.ca.uncletopia.com","port":27035,"enabled":true,"region":"us-east","cc":"ca","latitude":45.50889,"longitude":-73.56167,"reserved":0,"last_update":"0001-01-01T00:00:00Z","name_a2s":"Uncletopia | Montr√©al | 3 | All Maps","protocol":17,"map":"cp_dustbowl","folder":"tf","game":"Team Fortress","app_id":440,"player_count":10,"max_players":24,"Bots":0,"server_type":"Dedicated","server_os":"Linux","password":true,"vac":true,"version":"7757534","steam_id":85568392924500089,"keywords":["cp","nocrits","nodmgspread","uncletopia"],"game_id":440,"stv_port":27036,"stv_name":"Uncletopia | Montr√©al | 3 | All Maps | STV","players":[{"user_id":39,"name":"BubbyBoy27","steam_id":76561199102009679,"connected_time":1784000000000,"state":"active","ping":102},{"user_id":36,"name":"Cladriel","steam_id":76561198116676770,"connected_time":2765000000000,"state":"active","ping":64},{"user_id":40,"name":"majorbobfunction","steam_id":76561198042464632,"connected_time":1749000000000,"state":"active","ping":61},{"user_id":42,"name":"serynsa","steam_id":76561198066987189,"connected_time":1736000000000,"state":"active","ping":60},{"user_id":43,"name":"Animal Slices","steam_id":76561198137545511,"connected_time":1734000000000,"state":"active","ping":75},{"user_id":44,"name":"Sapphireblitz","steam_id":76561198272635379,"connected_time":1668000000000,"state":"active","ping":66},{"user_id":48,"name":"cedar","steam_id":76561199114675299,"connected_time":689000000000,"state":"active","ping":174},{"user_id":49,"name":"yerm","steam_id":76561198129982911,"connected_time":677000000000,"state":"active","ping":48},{"user_id":31,"name":"wibblesprevails","steam_id":76561198450577427,"connected_time":2920000000000,"state":"active","ping":73},{"user_id":47,"name":"SpagetMan","steam_id":76561198409640547,"connected_time":1067000000000,"state":"active","ping":68}]},{"server_id":303,"name":"Uncletopia | Montr√©al | 4 | No Payload","name_short":"mtl-4","host":"mtl-1.ca.uncletopia.com","port":27045,"enabled":true,"region":"us-east","cc":"ca","latitude":45.50889,"longitude":-73.56167,"reserved":0,"last_update":"0001-01-01T00:00:00Z","name_a2s":"Uncletopia | Montr√©al | 4 | No Payload","protocol":17,"map":"cp_badlands","folder":"tf","game":"Team Fortress","app_id":440,"player_count":0,"max_players":24,"Bots":0,"server_type":"Dedicated","server_os":"Linux","password":true,"vac":true,"version":"7757534","steam_id":85568392924500090,"keywords":["cp","nocrits","nodmgspread","uncletopia"],"game_id":440,"stv_port":27046,"stv_name":"Uncletopia | Montr√©al | 4 | No Payload | STV","players":null},{"server_id":13,"name":"Uncletopia | New York City | 1 | All Maps","name_short":"nyc-1","host":"nyc-1.us.uncletopia.com","port":27015,"enabled":true,"region":"us-east","cc":"us","latitude":40.73061,"longitude":-73.93524,"reserved":0,"last_update":"0001-01-01T00:00:00Z","name_a2s":"Uncletopia | New York City | 1 | All Maps","protocol":17,"map":"pl_borneo","folder":"tf","game":"Team Fortress","app_id":440,"player_count":24,"max_players":24,"Bots":0,"server_type":"Dedicated","server_os":"Linux","password":true,"vac":true,"version":"7757534","steam_id":85568392924469993,"keywords":["nocrits","nodmgspread","payload","uncletopia"],"game_id":440,"stv_port":27016,"stv_name":"Uncletopia | New York City | 1 | All Maps | STV","players":[{"user_id":442,"name":"no.1 dragonvale player","steam_id":76561198124365349,"connected_time":0,"state":"spawning","ping":0},{"user_id":427,"name":"Subway Fan","steam_id":76561198336372790,"connected_time":3122000000000,"state":"active","ping":34},{"user_id":434,"name":"Futa Lover","steam_id":76561198056775795,"connected_time":654000000000,"state":"active","ping":78},{"user_id":411,"name":"ndvr","steam_id":76561199379200102,"connected_time":4311000000000,"state":"active","ping":55},{"user_id":340,"name":"Allie","steam_id":76561198272401589,"connected_time":9698000000000,"state":"active","ping":73},{"user_id":424,"name":"Fizzy","steam_id":76561198046753199,"connected_time":3295000000000,"state":"active","ping":72},{"user_id":435,"name":"Lumura","steam_id":76561197992852414,"connected_time":645000000000,"state":"active","ping":75},{"user_id":436,"name":"rollback prices","steam_id":76561198000564263,"connected_time":570000000000,"state":"active","ping":75},{"user_id":422,"name":"Miffinity","steam_id":76561198140574001,"connected_time":3324000000000,"state":"active","ping":78},{"user_id":407,"name":"SDL","steam_id":76561198859719985,"connected_time":4857000000000,"state":"active","ping":100},{"user_id":432,"name":"joethefool","steam_id":76561199015436319,"connected_time":711000000000,"state":"active","ping":66},{"user_id":379,"name":"Socialism Enjoyer","steam_id":76561197991817974,"connected_time":7202000000000,"state":"active","ping":116},{"user_id":437,"name":"AlecTheNefarious","steam_id":76561198035291230,"connected_time":566000000000,"state":"active","ping":82},{"user_id":426,"name":"Shh","steam_id":76561198075865231,"connected_time":3211000000000,"state":"active","ping":53},{"user_id":423,"name":"sneakysquid (real)","steam_id":76561198800721329,"connected_time":3315000000000,"state":"active","ping":113},{"user_id":438,"name":"lanoc","steam_id":76561198055415367,"connected_time":565000000000,"state":"active","ping":73},{"user_id":408,"name":"YourAverageSpy","steam_id":76561199058612797,"connected_time":4791000000000,"state":"active","ping":76},{"user_id":417,"name":"Super Gloo","steam_id":76561198120854733,"connected_time":3576000000000,"state":"active","ping":48},{"user_id":429,"name":"Vitinhogameplays13","steam_id":76561198085707520,"connected_time":2491000000000,"state":"active","ping":173},{"user_id":439,"name":"Mr. May","steam_id":76561198132112804,"connected_time":556000000000,"state":"active","ping":83},{"user_id":428,"name":"Laelaps","steam_id":76561198100061416,"connected_time":2715000000000,"state":"active","ping":51},{"user_id":404,"name":"MontellWilliams","steam_id":76561198172143015,"connected_time":5149000000000,"state":"active","ping":54},{"user_id":431,"name":"GTO- WEINER","steam_id":76561198083975056,"connected_time":1941000000000,"state":"active","ping":160},{"user_id":440,"name":"Evan","steam_id":76561198081165364,"connected_time":553000000000,"state":"active","ping":55}]},{"server_id":14,"name":"Uncletopia | New York City | 2 | All Maps","name_short":"nyc-2","host":"nyc-1.us.uncletopia.com","port":27025,"enabled":true,"region":"us-east","cc":"us","latitude":40.73061,"longitude":-73.93524,"reserved":0,"last_update":"0001-01-01T00:00:00Z","name_a2s":"Uncletopia | New York City | 2 | All Maps","protocol":17,"map":"koth_lakeside_final","folder":"tf","game":"Team Fortress","app_id":440,"player_count":9,"max_players":24,"Bots":0,"server_type":"Dedicated","server_os":"Linux","password":true,"vac":true,"version":"7757534","steam_id":85568392924469994,"keywords":["cp","nocrits","nodmgspread","uncletopia"],"game_id":440,"stv_port":27026,"stv_name":"Uncletopia | New York City | 2 | All Maps | STV","players":[{"user_id":238,"name":"Tor","steam_id":76561198148621828,"connected_time":704000000000,"state":"active","ping":90},{"user_id":208,"name":"quacked!","steam_id":76561198970819395,"connected_time":2727000000000,"state":"active","ping":90},{"user_id":240,"name":"Bamboo","steam_id":76561198043139553,"connected_time":332000000000,"state":"active","ping":120},{"user_id":209,"name":"Lumi","steam_id":76561198363294393,"connected_time":2720000000000,"state":"active","ping":84},{"user_id":241,"name":"Nobmike","steam_id":76561198046096279,"connected_time":77000000000,"state":"active","ping":78},{"user_id":211,"name":"Jennifer‚ù§","steam_id":76561198068691618,"connected_time":2719000000000,"state":"active","ping":88},{"user_id":216,"name":"CobyNoHoes","steam_id":76561198122236594,"connected_time":2536000000000,"state":"active","ping":69},{"user_id":205,"name":"Hamee333","steam_id":76561199388127663,"connected_time":2999000000000,"state":"active","ping":59},{"user_id":198,"name":"matkaster","steam_id":76561197998546486,"connected_time":3634000000000,"state":"active","ping":84}]},{"server_id":15,"name":"Uncletopia | New York City | 3 | Stopwatch Beta","name_short":"nyc-3","host":"nyc-1.us.uncletopia.com","port":27035,"enabled":true,"region":"us-east","cc":"us","latitude":40.73061,"longitude":-73.93524,"reserved":0,"last_update":"0001-01-01T00:00:00Z","name_a2s":"Uncletopia | New York City | 3 | Stopwatch Beta","protocol":17,"map":"workshop/koth_ashville_final.ugc2130459942","folder":"tf","game":"Team Fortress","app_id":440,"player_count":3,"max_players":24,"Bots":0,"server_type":"Dedicated","server_os":"Linux","password":true,"vac":true,"version":"7757534","steam_id":85568392924742820,"keywords":["cp","nocrits","nodmgspread","uncletopia"],"game_id":440,"stv_port":27036,"stv_name":"Uncletopia | New York City | 3 | Stopwatch Beta | STV","players":[{"user_id":61,"name":"standardrobot","steam_id":76561198063495872,"connected_time":2513000000000,"state":"active","ping":74},{"user_id":56,"name":"ttamttam","steam_id":76561198042215878,"connected_time":2607000000000,"state":"active","ping":55},{"user_id":63,"name":"SnoreLore","steam_id":76561198072217489,"connected_time":2381000000000,"state":"active","ping":53}]},{"server_id":16,"name":"Uncletopia | New York City | 4 | Community","name_short":"nyc-4","host":"nyc-1.us.uncletopia.com","port":27045,"enabled":true,"region":"us-east","cc":"us","latitude":40.73061,"longitude":-73.93524,"reserved":0,"last_update":"0001-01-01T00:00:00Z","name_a2s":"Uncletopia | New York City | 4 | Community","protocol":17,"map":"workshop/pl_badwater_pro_v12.ugc2142942074","folder":"tf","game":"Team Fortress","app_id":440,"player_count":3,"max_players":24,"Bots":0,"server_type":"Dedicated","server_os":"Linux","password":true,"vac":true,"version":"7757534","steam_id":85568392924742821,"keywords":["nocrits","nodmgspread","payload","uncletopia"],"game_id":440,"stv_port":27046,"stv_name":"Uncletopia | New York City | 4 | Community | STV","players":[{"user_id":26,"name":"Sexy Union","steam_id":76561199080914020,"connected_time":3782000000000,"state":"active","ping":67},{"user_id":27,"name":"elfsaige","steam_id":76561199208192702,"connected_time":3663000000000,"state":"active","ping":96},{"user_id":28,"name":"RUSTY","steam_id":76561199444823127,"connected_time":3330000000000,"state":"active","ping":179}]},{"server_id":142,"name":"Uncletopia | S√£o Paulo | 1 | All Maps","name_short":"sao-1","host":"sao-1.br.uncletopia.com","port":27015,"enabled":true,"region":"sa","cc":"br","latitude":-23.533773,"longitude":-46.62529,"reserved":0,"last_update":"0001-01-01T00:00:00Z","name_a2s":"Uncletopia | S√£o Paulo | 1 | All Maps","protocol":17,"map":"pl_snowycoast","folder":"tf","game":"Team Fortress","app_id":440,"player_count":1,"max_players":24,"Bots":0,"server_type":"Dedicated","server_os":"Linux","password":true,"vac":true,"version":"7757534","steam_id":85568392924469996,"keywords":["nocrits","nodmgspread","payload","uncletopia"],"game_id":440,"stv_port":27016,"stv_name":"Uncletopia | S√£o Paulo | 1 | All Maps | STV","players":[{"user_id":11,"name":"ushu3323","steam_id":76561198887428524,"connected_time":780000000000,"state":"active","ping":114}]},{"server_id":143,"name":"Uncletopia | S√£o Paulo | 2 | All Maps","name_short":"sao-2","host":"sao-2.br.uncletopia.com","port":27015,"enabled":true,"region":"sa","cc":"br","latitude":-23.533773,"longitude":-46.62529,"reserved":0,"last_update":"0001-01-01T00:00:00Z","name_a2s":"Uncletopia | S√£o Paulo | 2 | All Maps","protocol":17,"map":"pl_upward","folder":"tf","game":"Team Fortress","app_id":440,"player_count":0,"max_players":24,"Bots":0,"server_type":"Dedicated","server_os":"Linux","password":true,"vac":true,"version":"7757534","steam_id":85568392924485349,"keywords":["nocrits","nodmgspread","payload","uncletopia"],"game_id":440,"stv_port":27016,"stv_name":"Uncletopia | S√£o Paulo | 2 | All Maps | STV","players":null},{"server_id":7,"name":"Uncletopia | Seattle | 1 | All Maps","name_short":"sea-1","host":"sea-1.us.uncletopia.com","port":27015,"enabled":true,"region":"us-west","cc":"us","latitude":47.608013,"longitude":-122.33517,"reserved":0,"last_update":"0001-01-01T00:00:00Z","name_a2s":"Uncletopia | Seattle | 1 | All Maps","protocol":17,"map":"pl_badwater","folder":"tf","game":"Team Fortress","app_id":440,"player_count":25,"max_players":24,"Bots":0,"server_type":"Dedicated","server_os":"Linux","password":true,"vac":true,"version":"7757534","steam_id":85568392924469997,"keywords":["nocrits","nodmgspread","payload","uncletopia"],"game_id":440,"stv_port":27016,"stv_name":"Uncletopia | Seattle | 1 | All Maps | STV","players":[{"user_id":262,"name":"Luca","steam_id":76561198125087140,"connected_time":2416000000000,"state":"active","ping":44},{"user_id":188,"name":"Mignyanne :3","steam_id":76561198048754056,"connected_time":10852000000000,"state":"active","ping":61},{"user_id":228,"name":"HetchHetchy","steam_id":76561198128125728,"connected_time":5857000000000,"state":"active","ping":87},{"user_id":214,"name":"Lord Hater","steam_id":76561199158148782,"connected_time":8365000000000,"state":"active","ping":62},{"user_id":240,"name":"doopsies","steam_id":76561198083000867,"connected_time":4619000000000,"state":"active","ping":55},{"user_id":278,"name":"s3aM0th","steam_id":76561199051077883,"connected_time":6000000000,"state":"spawning","ping":101},{"user_id":277,"name":"SvicidalBug","steam_id":76561198221390504,"connected_time":753000000000,"state":"active","ping":67},{"user_id":230,"name":"Elias","steam_id":76561198031295139,"connected_time":5834000000000,"state":"active","ping":50},{"user_id":247,"name":"The Arm","steam_id":76561197983066285,"connected_time":4252000000000,"state":"active","ping":74},{"user_id":158,"name":"rat gets the cheese","steam_id":76561198031234032,"connected_time":13775000000000,"state":"active","ping":96},{"user_id":261,"name":"Mr.Thirteen","steam_id":76561198047468836,"connected_time":2445000000000,"state":"active","ping":65},{"user_id":256,"name":"TheRatMan","steam_id":76561198035094735,"connected_time":2742000000000,"state":"active","ping":57},{"user_id":279,"name":"shane","steam_id":76561198060491451,"connected_time":6000000000,"state":"spawning","ping":108},{"user_id":227,"name":"Attrition","steam_id":76561197969881916,"connected_time":5866000000000,"state":"active","ping":58},{"user_id":273,"name":"shiadyne","steam_id":76561198271939793,"connected_time":1148000000000,"state":"active","ping":47},{"user_id":269,"name":"Sweets","steam_id":76561198998446307,"connected_time":1383000000000,"state":"active","ping":72},{"user_id":274,"name":"Arg0","steam_id":76561198074858755,"connected_time":1087000000000,"state":"active","ping":83},{"user_id":267,"name":"Arsonist Goose","steam_id":76561198147441830,"connected_time":1392000000000,"state":"active","ping":73},{"user_id":270,"name":"Lily Thorn","steam_id":76561198305488625,"connected_time":1347000000000,"state":"active","ping":68},{"user_id":271,"name":"bbbbb","steam_id":76561198095480838,"connected_time":1330000000000,"state":"active","ping":46},{"user_id":254,"name":"spenca","steam_id":76561198025371154,"connected_time":2782000000000,"state":"active","ping":73},{"user_id":222,"name":"Clemont007","steam_id":76561198030935625,"connected_time":7221000000000,"state":"active","ping":83},{"user_id":260,"name":"Jade","steam_id":76561198151596927,"connected_time":2614000000000,"state":"active","ping":110},{"user_id":265,"name":"soup","steam_id":76561198043209046,"connected_time":1820000000000,"state":"active","ping":83},{"user_id":276,"name":"Yack Skag","steam_id":76561198068251493,"connected_time":901000000000,"state":"active","ping":72}]},{"server_id":119,"name":"Uncletopia | Seattle | 2 | All Maps","name_short":"sea-2","host":"sea-1.us.uncletopia.com","port":27025,"enabled":true,"region":"us-west","cc":"us","latitude":47.608013,"longitude":-122.33517,"reserved":0,"last_update":"0001-01-01T00:00:00Z","name_a2s":"Uncletopia | Seattle | 2 | All Maps","protocol":17,"map":"pl_snowycoast","folder":"tf","game":"Team Fortress","app_id":440,"player_count":24,"max_players":24,"Bots":0,"server_type":"Dedicated","server_os":"Linux","password":true,"vac":true,"version":"7757534","steam_id":85568392924469998,"keywords":["nocrits","nodmgspread","payload","uncletopia"],"game_id":440,"stv_port":27026,"stv_name":"Uncletopia | Seattle | 2 | All Maps | STV","players":[{"user_id":320,"name":"Mike's Pimento Cheese Sandwich","steam_id":76561198978499219,"connected_time":5834000000000,"state":"active","ping":74},{"user_id":404,"name":"JON","steam_id":76561198057971005,"connected_time":407000000000,"state":"active","ping":27},{"user_id":313,"name":"2 Point Tom","steam_id":76561198087617008,"connected_time":6203000000000,"state":"active","ping":47},{"user_id":394,"name":"Plasma_Effect","steam_id":76561199379707969,"connected_time":1185000000000,"state":"active","ping":58},{"user_id":399,"name":"Gabe Itch","steam_id":76561198952655449,"connected_time":999000000000,"state":"active","ping":87},{"user_id":375,"name":"Stranger Danger","steam_id":76561198115242460,"connected_time":2172000000000,"state":"active","ping":45},{"user_id":393,"name":"Smile","steam_id":76561198110008786,"connected_time":1198000000000,"state":"active","ping":55},{"user_id":376,"name":"kaeru","steam_id":76561198043789098,"connected_time":2168000000000,"state":"active","ping":97},{"user_id":292,"name":"dosimeter","steam_id":76561198039608940,"connected_time":7077000000000,"state":"active","ping":61},{"user_id":326,"name":"MCman","steam_id":76561198412110305,"connected_time":5461000000000,"state":"active","ping":84},{"user_id":379,"name":"chumbud","steam_id":76561198062054335,"connected_time":2040000000000,"state":"active","ping":72},{"user_id":397,"name":"deskmedic","steam_id":76561198295640486,"connected_time":1125000000000,"state":"active","ping":75},{"user_id":380,"name":"potassium","steam_id":76561198066396499,"connected_time":2016000000000,"state":"active","ping":94},{"user_id":359,"name":"Aethere","steam_id":76561198085006641,"connected_time":3912000000000,"state":"active","ping":129},{"user_id":384,"name":"Sparrr","steam_id":76561198079630013,"connected_time":1883000000000,"state":"active","ping":75},{"user_id":351,"name":"BlackMagic","steam_id":76561198026080006,"connected_time":4197000000000,"state":"active","ping":76},{"user_id":386,"name":"Algibruh","steam_id":76561199221599415,"connected_time":1816000000000,"state":"active","ping":59},{"user_id":402,"name":"Lmnop","steam_id":76561198038458838,"connected_time":929000000000,"state":"active","ping":98},{"user_id":369,"name":"TheCowledWiz","steam_id":76561198016735868,"connected_time":2968000000000,"state":"active","ping":48},{"user_id":383,"name":"mub","steam_id":76561197961943948,"connected_time":1887000000000,"state":"active","ping":43},{"user_id":347,"name":"Gimrex","steam_id":76561198137232326,"connected_time":4514000000000,"state":"active","ping":87},{"user_id":385,"name":"purple‚Ñ¢","steam_id":76561198057459725,"connected_time":1835000000000,"state":"active","ping":58},{"user_id":403,"name":"A UsedNom","steam_id":76561198402832756,"connected_time":921000000000,"state":"active","ping":69},{"user_id":407,"name":"Pepper","steam_id":76561198846365219,"connected_time":235000000000,"state":"active","ping":101}]},{"server_id":406,"name":"Uncletopia | Seattle | 3 | Stopwatch Beta","name_short":"sea-3","host":"sea-1.us.uncletopia.com","port":27035,"enabled":true,"region":"us-west","cc":"us","latitude":47.608013,"longitude":-122.33517,"reserved":0,"last_update":"0001-01-01T00:00:00Z","name_a2s":"Uncletopia | Seattle | 3 | Stopwatch Beta","protocol":17,"map":"pl_borneo","folder":"tf","game":"Team Fortress","app_id":440,"player_count":0,"max_players":24,"Bots":0,"server_type":"Dedicated","server_os":"Linux","password":true,"vac":true,"version":"7757534","steam_id":85568392924515217,"keywords":["nocrits","nodmgspread","payload","uncletopia"],"game_id":440,"stv_port":27036,"stv_name":"Uncletopia | Seattle | 3 | Stopwatch Beta | STV","players":null},{"server_id":17,"name":"Uncletopia | San Francisco | 1 | All Maps","name_short":"sfo-1","host":"sfo-1.us.uncletopia.com","port":27015,"enabled":true,"region":"us-west","cc":"us","latitude":37.77397,"longitude":-122.4313,"reserved":0,"last_update":"0001-01-01T00:00:00Z","name_a2s":"Uncletopia | San Francisco | 1 | All Maps","protocol":17,"map":"pl_badwater","folder":"tf","game":"Team Fortress","app_id":440,"player_count":24,"max_players":24,"Bots":0,"server_type":"Dedicated","server_os":"Linux","password":true,"vac":true,"version":"7757534","steam_id":85568392924469999,"keywords":["nocrits","nodmgspread","payload","uncletopia"],"game_id":440,"stv_port":27016,"stv_name":"Uncletopia | San Francisco | 1 | All Maps | STV","players":[{"user_id":201,"name":"Sparrow","steam_id":76561199122118959,"connected_time":4143000000000,"state":"active","ping":46},{"user_id":337,"name":"Orange Toaster","steam_id":76561198013397599,"connected_time":529000000000,"state":"active","ping":57},{"user_id":239,"name":"ROGUE-PLANET","steam_id":76561198116023052,"connected_time":3324000000000,"state":"active","ping":79},{"user_id":264,"name":"Shonin","steam_id":76561198966143854,"connected_time":2496000000000,"state":"active","ping":69},{"user_id":280,"name":"El Gato Paranoico","steam_id":76561198116567116,"connected_time":2052000000000,"state":"active","ping":109},{"user_id":329,"name":"slime woman","steam_id":76561198337705174,"connected_time":973000000000,"state":"active","ping":75},{"user_id":348,"name":"brinks truck","steam_id":76561198126489501,"connected_time":186000000000,"state":"active","ping":105},{"user_id":279,"name":"Satori Komeiji","steam_id":76561198158211423,"connected_time":2114000000000,"state":"active","ping":56},{"user_id":332,"name":"The Muffin Man","steam_id":76561199088286427,"connected_time":940000000000,"state":"active","ping":87},{"user_id":345,"name":"GreasyBoyo","steam_id":76561198927509821,"connected_time":247000000000,"state":"active","ping":119},{"user_id":202,"name":"boomawrnamglrhejgoughdrg","steam_id":76561198056324307,"connected_time":4130000000000,"state":"active","ping":101},{"user_id":197,"name":"Stboxnard","steam_id":76561198089888887,"connected_time":4351000000000,"state":"active","ping":74},{"user_id":351,"name":"Oxferd Crow","steam_id":76561198096916018,"connected_time":101000000000,"state":"spawning","ping":6703},{"user_id":152,"name":"Sammy!","steam_id":76561198184171743,"connected_time":6278000000000,"state":"active","ping":59},{"user_id":272,"name":"Zlavus","steam_id":76561198217652861,"connected_time":2243000000000,"state":"active","ping":78},{"user_id":273,"name":"phoenix!","steam_id":76561198221567392,"connected_time":2235000000000,"state":"active","ping":59},{"user_id":313,"name":"How's your morale?","steam_id":76561198035698704,"connected_time":1452000000000,"state":"active","ping":47},{"user_id":191,"name":"SirJameston","steam_id":76561198035674306,"connected_time":4564000000000,"state":"active","ping":100},{"user_id":219,"name":"extra fries","steam_id":76561198080261350,"connected_time":3807000000000,"state":"active","ping":119},{"user_id":326,"name":"Joe Biden","steam_id":76561198238699798,"connected_time":1103000000000,"state":"active","ping":85},{"user_id":324,"name":"Flooder","steam_id":76561198043792818,"connected_time":1142000000000,"state":"active","ping":91},{"user_id":203,"name":"MILF PLANET","steam_id":76561198079026982,"connected_time":4113000000000,"state":"active","ping":57},{"user_id":319,"name":"Strength!!","steam_id":76561198001241984,"connected_time":1317000000000,"state":"active","ping":74},{"user_id":276,"name":"dish soap","steam_id":76561198085982867,"connected_time":2220000000000,"state":"active","ping":81}]},{"server_id":18,"name":"Uncletopia | San Francisco | 2 | All Maps","name_short":"sfo-2","host":"sfo-1.us.uncletopia.com","port":27025,"enabled":true,"region":"us-west","cc":"us","latitude":37.77397,"longitude":-122.4313,"reserved":0,"last_update":"0001-01-01T00:00:00Z","name_a2s":"Uncletopia | San Francisco | 2 | All Maps","protocol":17,"map":"pl_borneo","folder":"tf","game":"Team Fortress","app_id":440,"player_count":13,"max_players":24,"Bots":0,"server_type":"Dedicated","server_os":"Linux","password":true,"vac":true,"version":"7757534","steam_id":85568392924470000,"keywords":["nocrits","nodmgspread","payload","uncletopia"],"game_id":440,"stv_port":27026,"stv_name":"Uncletopia | San Francisco | 2 | All Maps | STV","players":[{"user_id":311,"name":"The Scout Revolution","steam_id":76561198077160210,"connected_time":3121000000000,"state":"active","ping":97},{"user_id":324,"name":"ION Prod.","steam_id":76561198004368317,"connected_time":2171000000000,"state":"active","ping":59},{"user_id":337,"name":"Thorngot","steam_id":76561198398094468,"connected_time":679000000000,"state":"active","ping":57},{"user_id":342,"name":"Yossarian, sir","steam_id":76561198007046191,"connected_time":544000000000,"state":"active","ping":54},{"user_id":325,"name":"AAAAAAAAAAAAAAAAAAAAAAAAAAAAAAA","steam_id":76561198125467937,"connected_time":2035000000000,"state":"active","ping":60},{"user_id":339,"name":"CDMacK","steam_id":76561198043909070,"connected_time":623000000000,"state":"active","ping":69},{"user_id":321,"name":"Cee","steam_id":76561198434027199,"connected_time":2394000000000,"state":"active","ping":46},{"user_id":328,"name":"Delta","steam_id":76561198021957971,"connected_time":1386000000000,"state":"active","ping":42},{"user_id":332,"name":"Gnome Chompski","steam_id":76561198003130703,"connected_time":1319000000000,"state":"active","ping":98},{"user_id":341,"name":"moe","steam_id":76561198929586245,"connected_time":614000000000,"state":"active","ping":46},{"user_id":254,"name":"unnamed56565","steam_id":76561199082953233,"connected_time":7209000000000,"state":"active","ping":60},{"user_id":323,"name":"......","steam_id":76561198067612741,"connected_time":2381000000000,"state":"active","ping":64},{"user_id":310,"name":"Abra","steam_id":76561198086309918,"connected_time":3156000000000,"state":"active","ping":89}]},{"server_id":19,"name":"Uncletopia | San Francisco | 3 | Stopwatch Beta","name_short":"sfo-3","host":"sfo-1.us.uncletopia.com","port":27035,"enabled":true,"region":"us-west","cc":"us","latitude":37.77397,"longitude":-122.4313,"reserved":0,"last_update":"0001-01-01T00:00:00Z","name_a2s":"Uncletopia | San Francisco | 3 | Stopwatch Beta","protocol":17,"map":"pl_borneo","folder":"tf","game":"Team Fortress","app_id":440,"player_count":0,"max_players":24,"Bots":0,"server_type":"Dedicated","server_os":"Linux","password":true,"vac":true,"version":"7757534","steam_id":85568392924742824,"keywords":["nocrits","nodmgspread","payload","uncletopia"],"game_id":440,"stv_port":27036,"stv_name":"Uncletopia | San Francisco | 3 | Stopwatch Beta | STV","players":null},{"server_id":20,"name":"Uncletopia | San Francisco | 4 | Community","name_short":"sfo-4","host":"sfo-1.us.uncletopia.com","port":27045,"enabled":true,"region":"us-west","cc":"us","latitude":37.77397,"longitude":-122.4313,"reserved":0,"last_update":"0001-01-01T00:00:00Z","name_a2s":"Uncletopia | San Francisco | 4 | Community","protocol":17,"map":"workshop/pl_vigil_rc9.ugc1266210012","folder":"tf","game":"Team Fortress","app_id":440,"player_count":22,"max_players":24,"Bots":0,"server_type":"Dedicated","server_os":"Linux","password":true,"vac":true,"version":"7757534","steam_id":85568392924742826,"keywords":["nocrits","nodmgspread","payload","uncletopia"],"game_id":440,"stv_port":27046,"stv_name":"Uncletopia | San Francisco | 4 | Community | STV","players":[{"user_id":174,"name":"Saggle","steam_id":76561198056075147,"connected_time":1236000000000,"state":"active","ping":176},{"user_id":176,"name":"Dukey","steam_id":76561198965761152,"connected_time":930000000000,"state":"active","ping":81},{"user_id":165,"name":"borzier","steam_id":76561198069190432,"connected_time":1960000000000,"state":"active","ping":120},{"user_id":132,"name":"Stickface","steam_id":76561198027754407,"connected_time":3443000000000,"state":"active","ping":45},{"user_id":191,"name":"bannas r us","steam_id":76561198880361612,"connected_time":58000000000,"state":"active","ping":89},{"user_id":136,"name":"Marcato","steam_id":76561198084666165,"connected_time":3381000000000,"state":"active","ping":52},{"user_id":146,"name":"theTheSuzan","steam_id":76561198044181453,"connected_time":2877000000000,"state":"active","ping":102},{"user_id":133,"name":"Cunkmaster Vel","steam_id":76561198325698117,"connected_time":3430000000000,"state":"active","ping":136},{"user_id":137,"name":"Frerduro","steam_id":76561198072430460,"connected_time":3347000000000,"state":"active","ping":132},{"user_id":183,"name":"Fanout","steam_id":76561198075619480,"connected_time":777000000000,"state":"active","ping":66},{"user_id":181,"name":"pokefire4","steam_id":76561198367840731,"connected_time":868000000000,"state":"active","ping":73},{"user_id":179,"name":"ark","steam_id":76561198041066271,"connected_time":891000000000,"state":"active","ping":85},{"user_id":180,"name":"FAC","steam_id":76561198009818412,"connected_time":887000000000,"state":"active","ping":105},{"user_id":185,"name":"Legion","steam_id":76561198050385247,"connected_time":593000000000,"state":"active","ping":102},{"user_id":186,"name":"Kuyumiester","steam_id":76561198126835302,"connected_time":582000000000,"state":"active","ping":75},{"user_id":192,"name":"cat fucker","steam_id":76561198410272793,"connected_time":34000000000,"state":"active","ping":74},{"user_id":188,"name":"DiscoTraveler","steam_id":76561199240168088,"connected_time":288000000000,"state":"active","ping":104},{"user_id":162,"name":"bruxing and boggling","steam_id":76561198204169516,"connected_time":2010000000000,"state":"active","ping":76},{"user_id":173,"name":"shoe","steam_id":76561198451476220,"connected_time":1339000000000,"state":"active","ping":59},{"user_id":164,"name":"Plums","steam_id":76561198319179133,"connected_time":1983000000000,"state":"active","ping":42},{"user_id":190,"name":"c67f","steam_id":76561198039596258,"connected_time":101000000000,"state":"active","ping":68},{"user_id":170,"name":"Neophyte","steam_id":76561198027183394,"connected_time":1671000000000,"state":"active","ping":90}]},{"server_id":141,"name":"Uncletopia | Sydney | 1 | All Maps","name_short":"syd-1","host":"syd-1.au.uncletopia.com","port":27015,"enabled":true,"region":"au","cc":"au","latitude":-33.865143,"longitude":151.2099,"reserved":0,"last_update":"0001-01-01T00:00:00Z","name_a2s":"Uncletopia | Sydney | 1 | All Maps","protocol":17,"map":"cp_steel","folder":"tf","game":"Team Fortress","app_id":440,"player_count":24,"max_players":24,"Bots":0,"server_type":"Dedicated","server_os":"Linux","password":true,"vac":true,"version":"7757534","steam_id":85568392924470001,"keywords":["cp","nocrits","nodmgspread","uncletopia"],"game_id":440,"stv_port":27016,"stv_name":"Uncletopia | Sydney | 1 | All Maps | STV","players":[{"user_id":265,"name":"Drakeo","steam_id":76561198268859184,"connected_time":883000000000,"state":"active","ping":93},{"user_id":227,"name":"panda particle","steam_id":76561199235854489,"connected_time":4665000000000,"state":"active","ping":76},{"user_id":267,"name":"bert","steam_id":76561198044487625,"connected_time":754000000000,"state":"active","ping":46},{"user_id":236,"name":"Lincoln2603","steam_id":76561198170236666,"connected_time":4125000000000,"state":"active","ping":42},{"user_id":257,"name":"Hally","steam_id":76561198045236233,"connected_time":2029000000000,"state":"active","ping":57},{"user_id":251,"name":"the rot consumes","steam_id":76561199445490119,"connected_time":2236000000000,"state":"active","ping":30},{"user_id":243,"name":"Drago meteor bomb","steam_id":76561198031869152,"connected_time":3648000000000,"state":"active","ping":90},{"user_id":198,"name":"Zilvera","steam_id":76561198065801850,"connected_time":6334000000000,"state":"active","ping":40},{"user_id":219,"name":"Finios","steam_id":76561198209013071,"connected_time":5328000000000,"state":"active","ping":58},{"user_id":253,"name":"JumpinDux","steam_id":76561198173610794,"connected_time":2233000000000,"state":"active","ping":49},{"user_id":206,"name":"the rot doesn't consume","steam_id":76561198866538028,"connected_time":5857000000000,"state":"active","ping":89},{"user_id":252,"name":"zebulon","steam_id":76561198063481761,"connected_time":2235000000000,"state":"active","ping":45},{"user_id":258,"name":"krandlez` (Any/All)","steam_id":76561198044839726,"connected_time":1517000000000,"state":"active","ping":43},{"user_id":263,"name":"TW_light2022","steam_id":76561199393566784,"connected_time":1081000000000,"state":"active","ping":70},{"user_id":240,"name":"AzureFox","steam_id":76561198108179408,"connected_time":4078000000000,"state":"active","ping":87},{"user_id":266,"name":"lofty","steam_id":76561198380588357,"connected_time":820000000000,"state":"active","ping":71},{"user_id":264,"name":"JoeNoodle6","steam_id":76561198858642295,"connected_time":1064000000000,"state":"active","ping":101},{"user_id":255,"name":"Mc Meaty","steam_id":76561198147905573,"connected_time":2233000000000,"state":"active","ping":69},{"user_id":195,"name":"Oysenberry","steam_id":76561198125443335,"connected_time":6441000000000,"state":"active","ping":43},{"user_id":242,"name":"Vaconcovat","steam_id":76561198024284041,"connected_time":3850000000000,"state":"active","ping":65},{"user_id":250,"name":"BIGNATE","steam_id":76561199207791519,"connected_time":2448000000000,"state":"active","ping":110},{"user_id":259,"name":"ziah","steam_id":76561198159375596,"connected_time":1111000000000,"state":"active","ping":55},{"user_id":234,"name":"SoundlessPlum","steam_id":76561198077872547,"connected_time":4295000000000,"state":"active","ping":61},{"user_id":247,"name":"J959","steam_id":76561198855585931,"connected_time":3087000000000,"state":"active","ping":58}]},{"server_id":123,"name":"Uncletopia | Sydney | 2 | All Maps","name_short":"syd-2","host":"syd-1.au.uncletopia.com","port":27025,"enabled":true,"region":"au","cc":"au","latitude":-33.865143,"longitude":151.2099,"reserved":0,"last_update":"0001-01-01T00:00:00Z","name_a2s":"Uncletopia | Sydney | 2 | All Maps","protocol":17,"map":"koth_suijin","folder":"tf","game":"Team Fortress","app_id":440,"player_count":0,"max_players":24,"Bots":0,"server_type":"Dedicated","server_os":"Linux","password":true,"vac":true,"version":"7757534","steam_id":85568392924470002,"keywords":["cp","nocrits","nodmgspread","uncletopia"],"game_id":440,"stv_port":27026,"stv_name":"Uncletopia | Sydney | 2 | All Maps | STV","players":null},{"server_id":395,"name":"Uncletopia | Sydney | 3 | All Maps","name_short":"syd-3","host":"syd-1.au.uncletopia.com","port":27035,"enabled":true,"region":"au","cc":"au","latitude":-33.865143,"longitude":151.2099,"reserved":0,"last_update":"0001-01-01T00:00:00Z","name_a2s":"Uncletopia | Sydney | 3 | All Maps","protocol":17,"map":"pl_barnblitz","folder":"tf","game":"Team Fortress","app_id":440,"player_count":1,"max_players":24,"Bots":0,"server_type":"Dedicated","server_os":"Linux","password":true,"vac":true,"version":"7757534","steam_id":85568392925194467,"keywords":["nocrits","nodmgspread","payload","uncletopia"],"game_id":440,"stv_port":27036,"stv_name":"Uncletopia | Sydney | 3 | All Maps | STV","players":[{"user_id":11,"name":"Cheesy","steam_id":76561199229617447,"connected_time":13000000000,"state":"spawning","ping":243}]},{"server_id":396,"name":"Uncletopia | Sydney | 4 | All Maps","name_short":"syd-4","host":"syd-1.au.uncletopia.com","port":27045,"enabled":true,"region":"au","cc":"au","latitude":-33.865143,"longitude":151.2099,"reserved":0,"last_update":"0001-01-01T00:00:00Z","name_a2s":"Uncletopia | Sydney | 4 | All Maps","protocol":17,"map":"pl_borneo","folder":"tf","game":"Team Fortress","app_id":440,"player_count":22,"max_players":24,"Bots":0,"server_type":"Dedicated","server_os":"Linux","password":true,"vac":true,"version":"7757534","steam_id":85568392925397958,"keywords":["nocrits","nodmgspread","payload","uncletopia"],"game_id":440,"stv_port":27046,"stv_name":"Uncletopia | Sydney | 4 | All Maps | STV","players":[{"user_id":26,"name":"TheNeutrality","steam_id":76561199017954062,"connected_time":1054000000000,"state":"active","ping":181},{"user_id":33,"name":"this is a bucket","steam_id":76561199447372008,"connected_time":950000000000,"state":"active","ping":55},{"user_id":46,"name":"-Ech0-","steam_id":76561199121536801,"connected_time":359000000000,"state":"active","ping":52},{"user_id":11,"name":"Branko","steam_id":76561199262196710,"connected_time":2185000000000,"state":"active","ping":33},{"user_id":53,"name":"Bamooxa","steam_id":76561198067160709,"connected_time":2000000000,"state":"spawning","ping":67},{"user_id":37,"name":"Ass Clappicus","steam_id":76561198102362578,"connected_time":746000000000,"state":"active","ping":82},{"user_id":27,"name":"fart lobber","steam_id":76561198880466874,"connected_time":1021000000000,"state":"active","ping":63},{"user_id":18,"name":"Wild ???","steam_id":76561198133529257,"connected_time":1525000000000,"state":"active","ping":55},{"user_id":19,"name":"KeeperOfBalance","steam_id":76561198028070089,"connected_time":1508000000000,"state":"active","ping":88},{"user_id":20,"name":"Worst Sniper","steam_id":76561198025733081,"connected_time":1501000000000,"state":"active","ping":78},{"user_id":44,"name":"WMCheese1372 YT","steam_id":76561199107211696,"connected_time":460000000000,"state":"active","ping":58},{"user_id":39,"name":"2200","steam_id":76561198048634605,"connected_time":667000000000,"state":"active","ping":45},{"user_id":23,"name":"Noble Chernobyl","steam_id":76561198011803825,"connected_time":1384000000000,"state":"active","ping":56},{"user_id":45,"name":"Iuca","steam_id":76561198207782305,"connected_time":421000000000,"state":"active","ping":72},{"user_id":49,"name":"Combine hl2 real","steam_id":76561199060614128,"connected_time":183000000000,"state":"active","ping":57},{"user_id":40,"name":"Justus","steam_id":76561198148675561,"connected_time":638000000000,"state":"active","ping":67},{"user_id":31,"name":"monkeyman536","steam_id":76561197997717737,"connected_time":998000000000,"state":"active","ping":175},{"user_id":32,"name":"Sinister80s","steam_id":76561198343540472,"connected_time":989000000000,"state":"active","ping":73},{"user_id":42,"name":"Link","steam_id":76561198043171944,"connected_time":576000000000,"state":"active","ping":46},{"user_id":50,"name":"uptriste","steam_id":76561198158666692,"connected_time":101000000000,"state":"active","ping":166},{"user_id":51,"name":"owner","steam_id":76561198310550094,"connected_time":86000000000,"state":"active","ping":54},{"user_id":52,"name":"PigRuler","steam_id":76561198054130501,"connected_time":82000000000,"state":"active","ping":56}]},{"server_id":58,"name":"Uncletopia | Sydney | 5 | Stopwatch Beta","name_short":"syd-5","host":"syd-1.au.uncletopia.com","port":27055,"enabled":true,"region":"au","cc":"au","latitude":-33.865143,"longitude":151.2099,"reserved":0,"last_update":"0001-01-01T00:00:00Z","name_a2s":"Uncletopia | Sydney | 5 | Stopwatch Beta","protocol":17,"map":"pl_swiftwater_final1","folder":"tf","game":"Team Fortress","app_id":440,"player_count":0,"max_players":24,"Bots":0,"server_type":"Dedicated","server_os":"Linux","password":true,"vac":true,"version":"7757534","steam_id":85568392925397959,"keywords":["nocrits","nodmgspread","payload","uncletopia"],"game_id":440,"stv_port":27056,"stv_name":"Uncletopia | Sydney | 5 | Stopwatch Beta | STV","players":null},{"server_id":59,"name":"Uncletopia | Sydney | 6 | Community","name_short":"syd-6","host":"syd-1.au.uncletopia.com","port":27065,"enabled":true,"region":"au","cc":"au","latitude":-33.865143,"longitude":151.2099,"reserved":0,"last_update":"0001-01-01T00:00:00Z","name_a2s":"Uncletopia | Sydney | 6 | Community","protocol":17,"map":"workshop/koth_slaughter_rc1.ugc1712845210","folder":"tf","game":"Team Fortress","app_id":440,"player_count":0,"max_players":24,"Bots":0,"server_type":"Dedicated","server_os":"Linux","password":true,"vac":true,"version":"7757534","steam_id":85568392925397960,"keywords":["cp","nocrits","nodmgspread","uncletopia"],"game_id":440,"stv_port":27066,"stv_name":"Uncletopia | Sydney | 6 | Community | STV","players":null},{"server_id":49,"name":"Uncletopia | Warsaw | 1 | All Maps","name_short":"waw-1","host":"waw-1.pl.uncletopia.com","port":27015,"enabled":true,"region":"eu","cc":"pl","latitude":52.2297,"longitude":21.017532,"reserved":0,"last_update":"0001-01-01T00:00:00Z","name_a2s":"","protocol":0,"map":"","folder":"","game":"","app_id":0,"player_count":0,"max_players":0,"Bots":0,"server_type":"","server_os":"","password":false,"vac":false,"version":"","steam_id":0,"keywords":null,"game_id":0,"stv_port":0,"stv_name":"","players":null},{"server_id":50,"name":"Uncletopia | Warsaw | 2 | All Maps","name_short":"waw-2","host":"waw-1.pl.uncletopia.com","port":27025,"enabled":true,"region":"eu","cc":"pl","latitude":52.2297,"longitude":21.017532,"reserved":0,"last_update":"0001-01-01T00:00:00Z","name_a2s":"Uncletopia | Warsaw | 2 | All Maps","protocol":17,"map":"cp_process_final","folder":"tf","game":"Team Fortress","app_id":440,"player_count":0,"max_players":24,"Bots":0,"server_type":"Dedicated","server_os":"Linux","password":true,"vac":true,"version":"7757534","steam_id":85568392925397851,"keywords":["cp","nocrits","nodmgspread","uncletopia"],"game_id":440,"stv_port":27026,"stv_name":"Uncletopia | Warsaw | 2 | All Maps | STV","players":null},{"server_id":51,"name":"Uncletopia | Warsaw | 3 | All Maps","name_short":"waw-3","host":"waw-1.pl.uncletopia.com","port":27035,"enabled":true,"region":"eu","cc":"pl","latitude":52.2297,"longitude":21.017532,"reserved":0,"last_update":"0001-01-01T00:00:00Z","name_a2s":"Uncletopia | Warsaw | 3 | All Maps","protocol":17,"map":"pl_barnblitz","folder":"tf","game":"Team Fortress","app_id":440,"player_count":0,"max_players":24,"Bots":0,"server_type":"Dedicated","server_os":"Linux","password":true,"vac":true,"version":"7757534","steam_id":85568392925397852,"keywords":["nocrits","nodmgspread","payload","uncletopia"],"game_id":440,"stv_port":27036,"stv_name":"Uncletopia | Warsaw | 3 | All Maps | STV","players":null},{"server_id":52,"name":"Uncletopia | Warsaw | 4 | All Maps","name_short":"waw-4","host":"waw-1.pl.uncletopia.com","port":27045,"enabled":true,"region":"eu","cc":"pl","latitude":52.2297,"longitude":21.017532,"reserved":0,"last_update":"0001-01-01T00:00:00Z","name_a2s":"Uncletopia | Warsaw | 4 | All Maps","protocol":17,"map":"pl_snowycoast","folder":"tf","game":"Team Fortress","app_id":440,"player_count":0,"max_players":24,"Bots":0,"server_type":"Dedicated","server_os":"Linux","password":true,"vac":true,"version":"7757534","steam_id":85568392925397853,"keywords":["nocrits","nodmgspread","payload","uncletopia"],"game_id":440,"stv_port":27046,"stv_name":"Uncletopia | Warsaw | 4 | All Maps | STV","players":null},{"server_id":53,"name":"Uncletopia | Warsaw | 5 | Stopwatch Beta","name_short":"waw-5","host":"waw-1.pl.uncletopia.com","port":27055,"enabled":true,"region":"eu","cc":"pl","latitude":52.2297,"longitude":21.017532,"reserved":0,"last_update":"0001-01-01T00:00:00Z","name_a2s":"Uncletopia | Warsaw | 5 | Stopwatch Beta","protocol":17,"map":"pl_barnblitz","folder":"tf","game":"Team Fortress","app_id":440,"player_count":0,"max_players":24,"Bots":0,"server_type":"Dedicated","server_os":"Linux","password":true,"vac":true,"version":"7757534","steam_id":85568392925397854,"keywords":["nocrits","nodmgspread","payload","uncletopia"],"game_id":440,"stv_port":27056,"stv_name":"Uncletopia | Warsaw | 5 | Stopwatch Beta | STV","players":null},{"server_id":54,"name":"Uncletopia | Warsaw | 6 | Community","name_short":"waw-6","host":"waw-1.pl.uncletopia.com","port":27065,"enabled":true,"region":"eu","cc":"pl","latitude":52.2297,"longitude":21.017532,"reserved":0,"last_update":"0001-01-01T00:00:00Z","name_a2s":"Uncletopia | Warsaw | 6 | Community","protocol":17,"map":"pl_swiftwater_final1","folder":"tf","game":"Team Fortress","app_id":440,"player_count":0,"max_players":24,"Bots":0,"server_type":"Dedicated","server_os":"Linux","password":true,"vac":true,"version":"7757534","steam_id":85568392925397856,"keywords":["nocrits","nodmgspread","payload","uncletopia"],"game_id":440,"stv_port":27066,"stv_name":"Uncletopia | Warsaw | 6 | Community | STV","players":null}]}