{"status":true,"message":"","result":[{"server_id":9,"name":"Uncletopia | Atlanta | 1 | All Maps","name_short":"atl-1","host":"atl-1.us.uncletopia.com","port":27015,"enabled":true,"region":"us-east","cc":"us","latitude":33.753746,"longitude":-84.38633,"reserved":0,"last_update":"0001-01-01T00:00:00Z","name_a2s":"Uncletopia | Atlanta | 1 | All Maps","protocol":17,"map":"cp_mountainlab","folder":"tf","game":"Team Fortress","app_id":440,"player_count":24,"max_players":24,"Bots":0,"server_type":"Dedicated","server_os":"Linux","password":true,"vac":true,"version":"7757534","steam_id":85568392924469982,"keywords":["cp","nocrits","nodmgspread","uncletopia"],"game_id":440,"stv_port":27016,"stv_name":"Uncletopia | Atlanta | 1 | All Maps | STV","players":[{"user_id":158,"name":"Samurai Sam","steam_id":76561198274223636,"connected_time":136000000000,"state":"active","ping":81},{"user_id":149,"name":"mental case #82","steam_id":76561198072515851,"connected_time":835000000000,"state":"active","ping":102},{"user_id":153,"name":"uppercase thing","steam_id":76561199238480644,"connected_time":522000000000,"state":"active","ping":70},{"user_id":83,"name":"SeaBass","steam_id":76561198278914206,"connected_time":5506000000000,"state":"active","ping":58},{"user_id":133,"name":"Viri","steam_id":76561198137870970,"connected_time":1706000000000,"state":"active","ping":68},{"user_id":119,"name":"Watt Dafuq","steam_id":76561198194402925,"connected_time":2600000000000,"state":"active","ping":62},{"user_id":108,"name":"Femcel Fornicator","steam_id":76561198336584447,"connected_time":3313000000000,"state":"active","ping":68},{"user_id":157,"name":"danny","steam_id":76561198296887150,"connected_time":308000000000,"state":"active","ping":78},{"user_id":154,"name":"TheMightyWoz","steam_id":76561198428397322,"connected_time":518000000000,"state":"active","ping":124},{"user_id":146,"name":"Momki","steam_id":76561198072944509,"connected_time":1236000000000,"state":"active","ping":87},{"user_id":135,"name":"Yoru","steam_id":76561198119698950,"connected_time":1639000000000,"state":"active","ping":106},{"user_id":143,"name":"HE’S IN THE GODDAMN WALLS","steam_id":76561198363267009,"connected_time":1367000000000,"state":"active","ping":64},{"user_id":113,"name":"User","steam_id":76561198123471222,"connected_time":3104000000000,"state":"active","ping":62},{"user_id":140,"name":"Fudgely","steam_id":76561198039425862,"connected_time":1414000000000,"state":"active","ping":71},{"user_id":88,"name":"hamal cine","steam_id":76561198079619374,"connected_time":4601000000000,"state":"active","ping":57},{"user_id":151,"name":"Relatable","steam_id":76561198441669772,"connected_time":566000000000,"state":"active","ping":84},{"user_id":115,"name":"Miramar","steam_id":76561198022057653,"connected_time":3096000000000,"state":"active","ping":73},{"user_id":45,"name":"Allegedly Angry Adam","steam_id":76561198449656454,"connected_time":8770000000000,"state":"active","ping":76},{"user_id":94,"name":"Walrus Walter","steam_id":76561198298416058,"connected_time":4299000000000,"state":"active","ping":78},{"user_id":95,"name":"rathotel","steam_id":76561198208126512,"connected_time":4298000000000,"state":"active","ping":78},{"user_id":96,"name":"Travis","steam_id":76561198121819162,"connected_time":4286000000000,"state":"active","ping":84},{"user_id":155,"name":"Ender","steam_id":76561198819439451,"connected_time":491000000000,"state":"active","ping":63},{"user_id":124,"name":"「iam3nigma」","steam_id":76561198081580177,"connected_time":2427000000000,"state":"active","ping":64},{"user_id":137,"name":"Ninty","steam_id":76561199364725776,"connected_time":1595000000000,"state":"active","ping":78}]},{"server_id":400,"name":"Uncletopia | Atlanta | 3 | Stopwatch Beta","name_short":"atl-3","host":"atl-1.us.uncletopia.com","port":27035,"enabled":true,"region":"us-east","cc":"us","latitude":33.753746,"longitude":-84.38633,"reserved":0,"last_update":"0001-01-01T00:00:00Z","name_a2s":"Uncletopia | Atlanta | 3 | Stopwatch Beta","protocol":17,"map":"pl_upward","folder":"tf","game":"Team Fortress","app_id":440,"player_count":0,"max_players":24,"Bots":0,"server_type":"Dedicated","server_os":"Linux","password":true,"vac":true,"version":"7757534","steam_id":85568392924515187,"keywords":["nocrits","nodmgspread","payload","uncletopia"],"game_id":440,"stv_port":27036,"stv_name":"Uncletopia | Atlanta | 3 | Stopwatch Beta | STV","players":null},{"server_id":401,"name":"Uncletopia | Atlanta | 4 | No Payload","name_short":"atl-4","host":"atl-1.us.uncletopia.com","port":27045,"enabled":true,"region":"us-east","cc":"us","latitude":33.753746,"longitude":-84.38633,"reserved":0,"last_update":"0001-01-01T00:00:00Z","name_a2s":"Uncletopia | Atlanta | 4 | No Payload","protocol":17,"map":"pl_pier","folder":"tf","game":"Team Fortress","app_id":440,"player_count":0,"max_players":24,"Bots":0,"server_type":"Dedicated","server_os":"Linux","password":true,"vac":true,"version":"7723704","steam_id":85568392924515188,"keywords":["nocrits","nodmgspread","payload","uncletopia"],"game_id":440,"stv_port":27046,"stv_name":"Uncletopia | Atlanta | 4 | No Payload | STV","players":null},{"server_id":2,"name":"Uncletopia | Chicago | 1 | All Maps","name_short":"chi-1","host":"chi-1.us.uncletopia.com","port":27015,"enabled":true,"region":"us-central","cc":"us","latitude":41.881832,"longitude":-87.62318,"reserved":0,"last_update":"0001-01-01T00:00:00Z","name_a2s":"Uncletopia | Chicago | 1 | All Maps","protocol":17,"map":"pl_barnblitz","folder":"tf","game":"Team Fortress","app_id":440,"player_count":24,"max_players":24,"Bots":0,"server_type":"Dedicated","server_os":"Linux","password":true,"vac":true,"version":"7757534","steam_id":85568392924469984,"keywords":["nocrits","nodmgspread","payload","uncletopia"],"game_id":440,"stv_port":27016,"stv_name":"Uncletopia | Chicago | 1 | All Maps | STV","players":[{"user_id":63,"name":"otto","steam_id":76561198029585065,"connected_time":806000000000,"state":"active","ping":44},{"user_id":64,"name":"Tyrone","steam_id":76561198189429665,"connected_time":612000000000,"state":"active","ping":72},{"user_id":39,"name":"Rornir","steam_id":76561198081829615,"connected_time":3197000000000,"state":"active","ping":40},{"user_id":56,"name":"blob","steam_id":76561198122375328,"connected_time":1066000000000,"state":"active","ping":64},{"user_id":42,"name":"Koishi \u003c3","steam_id":76561198054541054,"connected_time":2735000000000,"state":"active","ping":60},{"user_id":46,"name":"Rein","steam_id":76561198300340427,"connected_time":2257000000000,"state":"active","ping":62},{"user_id":59,"name":"The Land Admiral","steam_id":76561198159356609,"connected_time":1041000000000,"state":"active","ping":73},{"user_id":49,"name":"Stock Medic","steam_id":76561198065479730,"connected_time":1871000000000,"state":"active","ping":45},{"user_id":53,"name":"Swedish Crowbar","steam_id":76561199105488936,"connected_time":1396000000000,"state":"active","ping":162},{"user_id":52,"name":"Korota","steam_id":76561198095891641,"connected_time":1572000000000,"state":"active","ping":49},{"user_id":61,"name":"morbissey","steam_id":76561198072592880,"connected_time":977000000000,"state":"active","ping":45},{"user_id":54,"name":"Coffee with a Stranger","steam_id":76561198307422313,"connected_time":1321000000000,"state":"active","ping":71},{"user_id":50,"name":"♥ Femboy♥Ventily ♥","steam_id":76561198157260335,"connected_time":1684000000000,"state":"active","ping":45},{"user_id":51,"name":"trobin120","steam_id":76561199122420273,"connected_time":1584000000000,"state":"active","ping":68},{"user_id":57,"name":"Scorpie Doodle","steam_id":76561198021845763,"connected_time":1064000000000,"state":"active","ping":58},{"user_id":43,"name":"Mara Roo","steam_id":76561198279341789,"connected_time":2708000000000,"state":"active","ping":96},{"user_id":27,"name":"Six","steam_id":76561198052472822,"connected_time":3523000000000,"state":"active","ping":82},{"user_id":30,"name":"Eminem","steam_id":76561198256677589,"connected_time":3474000000000,"state":"active","ping":45},{"user_id":62,"name":"Naut","steam_id":76561199153498096,"connected_time":841000000000,"state":"active","ping":72},{"user_id":66,"name":"Wallish","steam_id":76561198057175636,"connected_time":142000000000,"state":"active","ping":105},{"user_id":34,"name":"sansa musa","steam_id":76561198163723555,"connected_time":3343000000000,"state":"active","ping":71},{"user_id":36,"name":"wheat","steam_id":76561197971158435,"connected_time":3287000000000,"state":"active","ping":57},{"user_id":48,"name":"JumboJuice25 #FreeJumbo","steam_id":76561199075777687,"connected_time":2183000000000,"state":"active","ping":98},{"user_id":38,"name":"Thr333","steam_id":76561198047759068,"connected_time":3227000000000,"state":"active","ping":71}]},{"server_id":106,"name":"Uncletopia | Chicago | 2 | All Maps","name_short":"chi-2","host":"chi-1.us.uncletopia.com","port":27025,"enabled":true,"region":"us-central","cc":"us","latitude":41.881832,"longitude":-87.62318,"reserved":0,"last_update":"0001-01-01T00:00:00Z","name_a2s":"Uncletopia | Chicago | 2 | All Maps","protocol":17,"map":"cp_gorge","folder":"tf","game":"Team Fortress","app_id":440,"player_count":24,"max_players":24,"Bots":0,"server_type":"Dedicated","server_os":"Linux","password":true,"vac":true,"version":"7757534","steam_id":85568392924469985,"keywords":["cp","nocrits","nodmgspread","uncletopia"],"game_id":440,"stv_port":27026,"stv_name":"Uncletopia | Chicago | 2 | All Maps | STV","players":[{"user_id":241,"name":"Doomz","steam_id":76561198029147860,"connected_time":326000000000,"state":"active","ping":57},{"user_id":242,"name":"Jiggie","steam_id":76561198018134884,"connected_time":320000000000,"state":"active","ping":170},{"user_id":144,"name":"wobba wobba","steam_id":76561198249206656,"connected_time":7578000000000,"state":"active","ping":60},{"user_id":249,"name":"Universe Man","steam_id":76561197997710655,"connected_time":119000000000,"state":"active","ping":87},{"user_id":236,"name":"Massa Gaming","steam_id":76561198881383557,"connected_time":843000000000,"state":"active","ping":73},{"user_id":213,"name":"creeeeeee","steam_id":76561198392539722,"connected_time":2347000000000,"state":"active","ping":77},{"user_id":224,"name":"Duckywinner","steam_id":76561198254828139,"connected_time":1207000000000,"state":"active","ping":88},{"user_id":208,"name":"Chief Balupa","steam_id":76561198045583454,"connected_time":2959000000000,"state":"active","ping":105},{"user_id":247,"name":"Copter_Boy","steam_id":76561198322921312,"connected_time":227000000000,"state":"active","ping":71},{"user_id":161,"name":"HarryjusttHarry","steam_id":76561198982810452,"connected_time":6212000000000,"state":"active","ping":93},{"user_id":207,"name":"Blart","steam_id":76561198101234582,"connected_time":3064000000000,"state":"active","ping":91},{"user_id":240,"name":"Drachma","steam_id":76561198007310514,"connected_time":440000000000,"state":"active","ping":69},{"user_id":221,"name":"teafy","steam_id":76561198406252824,"connected_time":1251000000000,"state":"active","ping":103},{"user_id":226,"name":"MajorZero","steam_id":76561198078731318,"connected_time":1181000000000,"state":"active","ping":55},{"user_id":234,"name":"Donk","steam_id":76561198803472441,"connected_time":935000000000,"state":"active","ping":64},{"user_id":237,"name":"siirtyaoliveira","steam_id":76561199176805537,"connected_time":837000000000,"state":"active","ping":178},{"user_id":246,"name":"Kaedus","steam_id":76561198387362750,"connected_time":255000000000,"state":"active","ping":113},{"user_id":228,"name":"WannaSeeA","steam_id":76561198097701042,"connected_time":1151000000000,"state":"active","ping":71},{"user_id":248,"name":"GamingDC51","steam_id":76561198255089520,"connected_time":200000000000,"state":"active","ping":66},{"user_id":229,"name":"Radium Jaw","steam_id":76561199224760854,"connected_time":1147000000000,"state":"active","ping":91},{"user_id":250,"name":"oph","steam_id":76561198130182991,"connected_time":55000000000,"state":"active","ping":101},{"user_id":184,"name":"Cuttle's Fish","steam_id":76561198280483257,"connected_time":4510000000000,"state":"active","ping":57},{"user_id":203,"name":"mechiimi ★","steam_id":76561198321627268,"connected_time":3127000000000,"state":"active","ping":164},{"user_id":239,"name":"motherfucker 2.0","steam_id":76561198141189209,"connected_time":822000000000,"state":"active","ping":63}]},{"server_id":402,"name":"Uncletopia | Chicago | 3 | All Maps","name_short":"chi-3","host":"chi-1.us.uncletopia.com","port":27035,"enabled":true,"region":"us-central","cc":"us","latitude":41.881832,"longitude":-87.62318,"reserved":0,"last_update":"0001-01-01T00:00:00Z","name_a2s":"Uncletopia | Chicago | 3 | All Maps","protocol":17,"map":"koth_viaduct","folder":"tf","game":"Team Fortress","app_id":440,"player_count":0,"max_players":24,"Bots":0,"server_type":"Dedicated","server_os":"Linux","password":true,"vac":true,"version":"7757534","steam_id":85568392924515191,"keywords":["cp","nocrits","nodmgspread","uncletopia"],"game_id":440,"stv_port":27036,"stv_name":"Uncletopia | Chicago | 3 | All Maps | STV","players":null},{"server_id":403,"name":"Uncletopia | Chicago | 4 | All Maps","name_short":"chi-4","host":"chi-1.us.uncletopia.com","port":27045,"enabled":true,"region":"us-central","cc":"us","latitude":41.881832,"longitude":-87.62318,"reserved":0,"last_update":"0001-01-01T00:00:00Z","name_a2s":"Uncletopia | Chicago | 4 | All Maps","protocol":17,"map":"pl_borneo","folder":"tf","game":"Team Fortress","app_id":440,"player_count":0,"max_players":24,"Bots":0,"server_type":"Dedicated","server_os":"Linux","password":true,"vac":true,"version":"7757534","steam_id":85568392924515193,"keywords":["nocrits","nodmgspread","payload","uncletopia"],"game_id":440,"stv_port":27046,"stv_name":"Uncletopia | Chicago | 4 | All Maps | STV","players":null},{"server_id":36,"name":"Uncletopia | Chicago | 5 | All Maps","name_short":"chi-5","host":"chi-2.us.uncletopia.com","port":27015,"enabled":true,"region":"us-central","cc":"us","latitude":41.881832,"longitude":-87.62318,"reserved":0,"last_update":"0001-01-01T00:00:00Z","name_a2s":"Uncletopia | Chicago | 5 | All Maps","protocol":17,"map":"koth_cascade","folder":"tf","game":"Team Fortress","app_id":440,"player_count":0,"max_players":24,"Bots":0,"server_type":"Dedicated","server_os":"Linux","password":true,"vac":true,"version":"7757534","steam_id":85568392924866362,"keywords":["cp","nocrits","nodmgspread","uncletopia"],"game_id":440,"stv_port":27016,"stv_name":"Uncletopia | Chicago | 5 | All Maps | STV","players":null},{"server_id":37,"name":"Uncletopia | Chicago | 6 | All Maps","name_short":"chi-6","host":"chi-2.us.uncletopia.com","port":27025,"enabled":true,"region":"us-central","cc":"us","latitude":41.881832,"longitude":-87.62318,"reserved":0,"last_update":"0001-01-01T00:00:00Z","name_a2s":"Uncletopia | Chicago | 6 | All Maps","protocol":17,"map":"cp_mountainlab","folder":"tf","game":"Team Fortress","app_id":440,"player_count":0,"max_players":24,"Bots":0,"server_type":"Dedicated","server_os":"Linux","password":true,"vac":true,"version":"7757534","steam_id":85568392924866363,"keywords":["cp","nocrits","nodmgspread","uncletopia"],"game_id":440,"stv_port":27026,"stv_name":"Uncletopia | Chicago | 6 | All Maps | STV","players":null},{"server_id":38,"name":"Uncletopia | Chicago | 7 | Stopwatch Beta","name_short":"chi-7","host":"chi-2.us.uncletopia.com","port":27035,"enabled":true,"region":"us-central","cc":"us","latitude":41.881832,"longitude":-87.62318,"reserved":0,"last_update":"0001-01-01T00:00:00Z","name_a2s":"Uncletopia | Chicago | 7 | Stopwatch Beta","protocol":17,"map":"cp_sunshine","folder":"tf","game":"Team Fortress","app_id":440,"player_count":0,"max_players":24,"Bots":0,"server_type":"Dedicated","server_os":"Linux","password":true,"vac":true,"version":"7757534","steam_id":85568392924866364,"keywords":["cp","nocrits","nodmgspread","uncletopia"],"game_id":440,"stv_port":27036,"stv_name":"Uncletopia | Chicago | 7 | Stopwatch Beta | STV","players":null},{"server_id":39,"name":"Uncletopia | Chicago | 8 | Community","name_short":"chi-8","host":"chi-2.us.uncletopia.com","port":27045,"enabled":true,"region":"us-central","cc":"us","latitude":41.881832,"longitude":-87.62318,"reserved":0,"last_update":"0001-01-01T00:00:00Z","name_a2s":"Uncletopia | Chicago | 8 | Community","protocol":17,"map":"pl_pier","folder":"tf","game":"Team Fortress","app_id":440,"player_count":0,"max_players":24,"Bots":0,"server_type":"Dedicated","server_os":"Linux","password":true,"vac":true,"version":"7757534","steam_id":85568392924866365,"keywords":["nocrits","nodmgspread","payload","uncletopia"],"game_id":440,"stv_port":27046,"stv_name":"Uncletopia | Chicago | 8 | Community | STV","players":null},{"server_id":8,"name":"Uncletopia | Dallas | 1 | All Maps","name_short":"dal-1","host":"dal-1.us.uncletopia.com","port":27015,"enabled":true,"region":"us-central","cc":"us","latitude":32.779167,"longitude":-96.80889,"reserved":0,"last_update":"0001-01-01T00:00:00Z","name_a2s":"Uncletopia | Dallas | 1 | All Maps","protocol":17,"map":"pl_borneo","folder":"tf","game":"Team Fortress","app_id":440,"player_count":22,"max_players":24,"Bots":0,"server_type":"Dedicated","server_os":"Linux","password":true,"vac":true,"version":"7757534","steam_id":85568392924469986,"keywords":["nocrits","nodmgspread","payload","uncletopia"],"game_id":440,"stv_port":27016,"stv_name":"Uncletopia | Dallas | 1 | All Maps | STV","players":[{"user_id":103,"name":"Dentivent","steam_id":76561197971953043,"connected_time":475000000000,"state":"active","ping":88},{"user_id":89,"name":"big boy","steam_id":76561198053832401,"connected_time":1964000000000,"state":"active","ping":114},{"user_id":104,"name":"Quansen","steam_id":76561198151594550,"connected_time":415000000000,"state":"active","ping":75},{"user_id":73,"name":"Gibby","steam_id":76561199336569123,"connected_time":3810000000000,"state":"active","ping":119},{"user_id":110,"name":"Freeza","steam_id":76561198050341005,"connected_time":273000000000,"state":"active","ping":71},{"user_id":106,"name":"Cobaltt","steam_id":76561198096317179,"connected_time":396000000000,"state":"active","ping":93},{"user_id":69,"name":"pepsi fan","steam_id":76561198292814336,"connected_time":3884000000000,"state":"active","ping":74},{"user_id":97,"name":"Batso","steam_id":76561198106589452,"connected_time":1076000000000,"state":"active","ping":77},{"user_id":107,"name":"Vexed","steam_id":76561198157557477,"connected_time":395000000000,"state":"active","ping":101},{"user_id":108,"name":"Atlas Fugged :DD","steam_id":76561198018753989,"connected_time":394000000000,"state":"active","ping":101},{"user_id":63,"name":"Filthy Hobo","steam_id":76561198174373015,"connected_time":4504000000000,"state":"active","ping":113},{"user_id":82,"name":"Massive Conquistador","steam_id":76561197961138002,"connected_time":2580000000000,"state":"active","ping":100},{"user_id":101,"name":"wolf_71","steam_id":76561198963570945,"connected_time":578000000000,"state":"active","ping":49},{"user_id":72,"name":"cad bane","steam_id":76561198375575841,"connected_time":3848000000000,"state":"active","ping":74},{"user_id":109,"name":"yolginmo","steam_id":76561198157985901,"connected_time":394000000000,"state":"active","ping":116},{"user_id":99,"name":"Mister Teardrop","steam_id":76561198067177025,"connected_time":1069000000000,"state":"active","ping":73},{"user_id":41,"name":"That70sDog","steam_id":76561198119396142,"connected_time":5838000000000,"state":"active","ping":68},{"user_id":61,"name":"leopardo123atl","steam_id":76561198872648238,"connected_time":4755000000000,"state":"active","ping":74},{"user_id":100,"name":"JoanitoBananas","steam_id":76561198942953101,"connected_time":977000000000,"state":"active","ping":50},{"user_id":112,"name":"Alexx","steam_id":76561198258332607,"connected_time":150000000000,"state":"active","ping":134},{"user_id":45,"name":"KORF","steam_id":76561197981904410,"connected_time":5719000000000,"state":"active","ping":78},{"user_id":46,"name":"(Edited)","steam_id":76561198201657342,"connected_time":5683000000000,"state":"active","ping":83}]},{"server_id":108,"name":"Uncletopia | Dallas | 2 | All Maps","name_short":"dal-2","host":"dal-1.us.uncletopia.com","port":27025,"enabled":true,"region":"us-central","cc":"us","latitude":32.779167,"longitude":-96.80889,"reserved":0,"last_update":"0001-01-01T00:00:00Z","name_a2s":"Uncletopia | Dallas | 2 | All Maps","protocol":17,"map":"cp_process_final","folder":"tf","game":"Team Fortress","app_id":440,"player_count":9,"max_players":24,"Bots":0,"server_type":"Dedicated","server_os":"Linux","password":true,"vac":true,"version":"7757534","steam_id":85568392924469988,"keywords":["cp","nocrits","nodmgspread","uncletopia"],"game_id":440,"stv_port":27026,"stv_name":"Uncletopia | Dallas | 2 | All Maps | STV","players":[{"user_id":10,"name":"Woogie Woogy Boogie","steam_id":76561198269471732,"connected_time":768000000000,"state":"active","ping":50},{"user_id":6,"name":"X0X2","steam_id":76561198418503762,"connected_time":1769000000000,"state":"active","ping":117},{"user_id":7,"name":"Jesus Loves You57","steam_id":76561199058833769,"connected_time":1620000000000,"state":"active","ping":80},{"user_id":8,"name":"Fish","steam_id":76561199016308078,"connected_time":1265000000000,"state":"connecting","ping":68},{"user_id":18,"name":"Markz","steam_id":76561197996278159,"connected_time":83000000000,"state":"active","ping":84},{"user_id":12,"name":"John Halo","steam_id":76561198093904581,"connected_time":537000000000,"state":"active","ping":49},{"user_id":14,"name":"Pink","steam_id":76561198042140694,"connected_time":457000000000,"state":"active","ping":53},{"user_id":15,"name":"name420","steam_id":76561198129374525,"connected_time":210000000000,"state":"active","ping":82},{"user_id":16,"name":"All Tomorrow's Parties","steam_id":76561197995936212,"connected_time":198000000000,"state":"active","ping":55}]},{"server_id":5,"name":"Uncletopia | Frankfurt | 1 | All Maps","name_short":"frk-1","host":"frk-1.de.uncletopia.com","port":27015,"enabled":true,"region":"eu","cc":"de","latitude":50.110924,"longitude":8.682127,"reserved":0,"last_update":"0001-01-01T00:00:00Z","name_a2s":"Uncletopia | Frankfurt | 1 | All Maps","protocol":17,"map":"koth_lakeside_final","folder":"tf","game":"Team Fortress","app_id":440,"player_count":0,"max_players":24,"Bots":0,"server_type":"Dedicated","server_os":"Linux","password":true,"vac":true,"version":"7757534","steam_id":85568392924469989,"keywords":["cp","nocrits","nodmgspread","uncletopia"],"game_id":440,"stv_port":27016,"stv_name":"Uncletopia | Frankfurt | 1 | All Maps | STV","players":null},{"server_id":110,"name":"Uncletopia | Frankfurt | 2 | All Maps","name_short":"frk-2","host":"frk-1.de.uncletopia.com","port":27025,"enabled":true,"region":"eu","cc":"de","latitude":50.110924,"longitude":8.682127,"reserved":0,"last_update":"0001-01-01T00:00:00Z","name_a2s":"Uncletopia | Frankfurt | 2 | All Maps","protocol":17,"map":"pl_upward","folder":"tf","game":"Team Fortress","app_id":440,"player_count":20,"max_players":24,"Bots":0,"server_type":"Dedicated","server_os":"Linux","password":true,"vac":true,"version":"7757534","steam_id":85568392924469990,"keywords":["nocrits","nodmgspread","payload","uncletopia"],"game_id":440,"stv_port":27026,"stv_name":"Uncletopia | Frankfurt | 2 | All Maps | STV","players":[{"user_id":257,"name":"that turkish mf#savetf2","steam_id":76561199352819594,"connected_time":35000000000,"state":"connecting","ping":155},{"user_id":258,"name":"Florua","steam_id":76561198182297846,"connected_time":30000000000,"state":"active","ping":129},{"user_id":227,"name":"Lempii","steam_id":76561198433507634,"connected_time":3331000000000,"state":"active","ping":93},{"user_id":214,"name":"estrogen deliver","steam_id":76561198190259726,"connected_time":4350000000000,"state":"spawning","ping":85},{"user_id":259,"name":"walking plane","steam_id":76561198146779559,"connected_time":4000000000,"state":"spawning","ping":78},{"user_id":260,"name":"Jesse Fatcoc","steam_id":76561199004942770,"connected_time":2000000000,"state":"spawning","ping":80},{"user_id":254,"name":"Bullets","steam_id":76561198058876482,"connected_time":638000000000,"state":"active","ping":57},{"user_id":247,"name":"*^.^*","steam_id":76561198343506483,"connected_time":1160000000000,"state":"spawning","ping":88},{"user_id":241,"name":"man juice","steam_id":76561198126524735,"connected_time":2177000000000,"state":"active","ping":107},{"user_id":238,"name":"xenia","steam_id":76561198062107879,"connected_time":2418000000000,"state":"active","ping":84},{"user_id":253,"name":"Alin","steam_id":76561198059679991,"connected_time":663000000000,"state":"spawning","ping":78},{"user_id":228,"name":"Crimea a bridge","steam_id":76561198030898371,"connected_time":3219000000000,"state":"active","ping":87},{"user_id":249,"name":"Hedgehog_TV","steam_id":76561199142334511,"connected_time":825000000000,"state":"active","ping":81},{"user_id":236,"name":"catboy trickster","steam_id":76561198075665211,"connected_time":2740000000000,"state":"spawning","ping":26},{"user_id":246,"name":"remove poland","steam_id":76561199433578516,"connected_time":1548000000000,"state":"active","ping":119},{"user_id":90,"name":"Banana","steam_id":76561198155118706,"connected_time":13362000000000,"state":"active","ping":114},{"user_id":208,"name":"Gordon Birdman","steam_id":76561198013382324,"connected_time":4389000000000,"state":"active","ping":76},{"user_id":76,"name":"Melon","steam_id":76561198150893860,"connected_time":14258000000000,"state":"active","ping":108},{"user_id":252,"name":"Shezza","steam_id":76561198903969123,"connected_time":753000000000,"state":"spawning","ping":66},{"user_id":242,"name":"XeniasPimp","steam_id":76561198126398022,"connected_time":2177000000000,"state":"spawning","ping":68}]},{"server_id":308,"name":"Uncletopia | Frankfurt | 3 | All Maps","name_short":"frk-3","host":"frk-1.de.uncletopia.com","port":27035,"enabled":true,"region":"eu","cc":"de","latitude":50.110924,"longitude":8.682127,"reserved":0,"last_update":"0001-01-01T00:00:00Z","name_a2s":"Uncletopia | Frankfurt | 3 | All Maps","protocol":17,"map":"koth_lakeside_final","folder":"tf","game":"Team Fortress","app_id":440,"player_count":0,"max_players":24,"Bots":0,"server_type":"Dedicated","server_os":"Linux","password":true,"vac":true,"version":"7757534","steam_id":85568392924504274,"keywords":["cp","nocrits","nodmgspread","uncletopia"],"game_id":440,"stv_port":27036,"stv_name":"Uncletopia | Frankfurt | 3 | All Maps | STV","players":null},{"server_id":309,"name":"Uncletopia | Frankfurt | 4 | All Maps","name_short":"frk-4","host":"frk-1.de.uncletopia.com","port":27045,"enabled":true,"region":"eu","cc":"de","latitude":50.110924,"longitude":8.682127,"reserved":0,"last_update":"0001-01-01T00:00:00Z","name_a2s":"Uncletopia | Frankfurt | 4 | All Maps","protocol":17,"map":"pl_barnblitz","folder":"tf","game":"Team Fortress","app_id":440,"player_count":24,"max_players":24,"Bots":0,"server_type":"Dedicated","server_os":"Linux","password":true,"vac":true,"version":"7757534","steam_id":85568392924504275,"keywords":["nocrits","nodmgspread","payload","uncletopia"],"game_id":440,"stv_port":27046,"stv_name":"Uncletopia | Frankfurt | 4 | All Maps | STV","players":[{"user_id":354,"name":"General Antifascista","steam_id":76561198194714570,"connected_time":1455000000000,"state":"active","ping":45},{"user_id":367,"name":"papaja","steam_id":76561199216208960,"connected_time":1053000000000,"state":"active","ping":78},{"user_id":342,"name":"nachtraaf","steam_id":76561197960473205,"connected_time":2196000000000,"state":"active","ping":60},{"user_id":371,"name":"•stepbro•","steam_id":76561198119607160,"connected_time":806000000000,"state":"active","ping":66},{"user_id":372,"name":"Malsi","steam_id":76561199061284165,"connected_time":643000000000,"state":"active","ping":90},{"user_id":373,"name":"Syll","steam_id":76561198040736202,"connected_time":590000000000,"state":"active","ping":105},{"user_id":374,"name":"GGn1k","steam_id":76561198016033001,"connected_time":582000000000,"state":"active","ping":93},{"user_id":375,"name":"ankaramessi","steam_id":76561198890409949,"connected_time":570000000000,"state":"active","ping":113},{"user_id":320,"name":"After8","steam_id":76561198090750865,"connected_time":4490000000000,"state":"active","ping":69},{"user_id":378,"name":"dirty","steam_id":76561197995572935,"connected_time":159000000000,"state":"active","ping":79},{"user_id":376,"name":"angel","steam_id":76561198121408313,"connected_time":538000000000,"state":"active","ping":76},{"user_id":312,"name":"lvl. 50 honkler","steam_id":76561198061688660,"connected_time":5233000000000,"state":"active","ping":112},{"user_id":349,"name":"Line","steam_id":76561198031156866,"connected_time":2024000000000,"state":"active","ping":96},{"user_id":355,"name":"XavierSweet","steam_id":76561198091781913,"connected_time":1454000000000,"state":"active","ping":66},{"user_id":379,"name":"Zero (Orbital Gear Mastermind)","steam_id":76561198017416816,"connected_time":97000000000,"state":"active","ping":61},{"user_id":358,"name":"Yoio","steam_id":76561198326661498,"connected_time":1314000000000,"state":"active","ping":80},{"user_id":319,"name":"Silverstorm","steam_id":76561198118175267,"connected_time":4786000000000,"state":"active","ping":83},{"user_id":380,"name":"󠀡󠀡","steam_id":76561198015585266,"connected_time":48000000000,"state":"active","ping":77},{"user_id":377,"name":"Äärik ♣","steam_id":76561198131871737,"connected_time":510000000000,"state":"active","ping":59},{"user_id":381,"name":"Owl","steam_id":76561198248266580,"connected_time":30000000000,"state":"active","ping":71},{"user_id":347,"name":"Зубенко","steam_id":76561198043395491,"connected_time":2056000000000,"state":"active","ping":86},{"user_id":356,"name":"ɘƚɒ⅃ɘƚɒ⅃ /./ =)(= \\.\\","steam_id":76561198053339372,"connected_time":1441000000000,"state":"active","ping":60},{"user_id":357,"name":"-TA- skai :3","steam_id":76561198184881255,"connected_time":1335000000000,"state":"active","ping":72},{"user_id":336,"name":"alex47ka","steam_id":76561198117847251,"connected_time":3261000000000,"state":"active","ping":73}]},{"server_id":310,"name":"Uncletopia | Frankfurt | 5 | All Maps","name_short":"frk-5","host":"frk-1.de.uncletopia.com","port":27055,"enabled":true,"region":"eu","cc":"de","latitude":50.110924,"longitude":8.682127,"reserved":0,"last_update":"0001-01-01T00:00:00Z","name_a2s":"Uncletopia | Frankfurt | 5 | All Maps","protocol":17,"map":"pl_upward","folder":"tf","game":"Team Fortress","app_id":440,"player_count":24,"max_players":24,"Bots":0,"server_type":"Dedicated","server_os":"Linux","password":true,"vac":true,"version":"7757534","steam_id":85568392924504277,"keywords":["nocrits","nodmgspread","payload","uncletopia"],"game_id":440,"stv_port":27056,"stv_name":"Uncletopia | Frankfurt | 5 | All Maps | STV","players":[{"user_id":189,"name":"HeroGuy","steam_id":76561199078628119,"connected_time":2486000000000,"state":"active","ping":44},{"user_id":201,"name":"Rodia","steam_id":76561197968293161,"connected_time":2076000000000,"state":"active","ping":68},{"user_id":213,"name":"Fezlex","steam_id":76561198042511188,"connected_time":714000000000,"state":"active","ping":99},{"user_id":175,"name":"1couver","steam_id":76561198168553215,"connected_time":3192000000000,"state":"active","ping":92},{"user_id":214,"name":"Caz","steam_id":76561198033412140,"connected_time":624000000000,"state":"active","ping":75},{"user_id":215,"name":"kelsey","steam_id":76561198426604784,"connected_time":520000000000,"state":"active","ping":51},{"user_id":187,"name":"MEDiUM","steam_id":76561198112328561,"connected_time":2603000000000,"state":"active","ping":84},{"user_id":216,"name":"The Yes Man","steam_id":76561198112558416,"connected_time":509000000000,"state":"active","ping":41},{"user_id":217,"name":"Daemon","steam_id":76561198007015109,"connected_time":491000000000,"state":"active","ping":60},{"user_id":223,"name":"Dave The Sloth","steam_id":76561199135831355,"connected_time":349000000000,"state":"active","ping":68},{"user_id":160,"name":"katzdani","steam_id":76561198843351132,"connected_time":4203000000000,"state":"active","ping":62},{"user_id":221,"name":"САНЯ ВОДІЛА","steam_id":76561198343380238,"connected_time":399000000000,"state":"active","ping":75},{"user_id":219,"name":"KingHasamala","steam_id":76561198298147876,"connected_time":448000000000,"state":"active","ping":58},{"user_id":222,"name":"frost","steam_id":76561198167675482,"connected_time":377000000000,"state":"active","ping":77},{"user_id":40,"name":"gay","steam_id":76561198145288109,"connected_time":10360000000000,"state":"active","ping":77},{"user_id":220,"name":"Goon Spoons","steam_id":76561198116391675,"connected_time":439000000000,"state":"active","ping":136},{"user_id":209,"name":"GuSkand","steam_id":76561198043775605,"connected_time":1338000000000,"state":"active","ping":85},{"user_id":212,"name":"breadiest bread","steam_id":76561199079720355,"connected_time":749000000000,"state":"active","ping":71},{"user_id":224,"name":"leibhéalfaidh mé thú","steam_id":76561198078484073,"connected_time":344000000000,"state":"active","ping":77},{"user_id":210,"name":"Antonio Gilipollas Caraculo","steam_id":76561198412197820,"connected_time":1080000000000,"state":"active","ping":85},{"user_id":225,"name":"galaxy","steam_id":76561198164819022,"connected_time":308000000000,"state":"active","ping":70},{"user_id":226,"name":"Finn","steam_id":76561198112456809,"connected_time":286000000000,"state":"active","ping":66},{"user_id":207,"name":"legossi","steam_id":76561199030821525,"connected_time":1749000000000,"state":"active","ping":68},{"user_id":188,"name":"Romastorm","steam_id":76561198313076272,"connected_time":2516000000000,"state":"active","ping":115}]},{"server_id":311,"name":"Uncletopia | Frankfurt | 6 | All Maps","name_short":"frk-6","host":"frk-1.de.uncletopia.com","port":27065,"enabled":true,"region":"eu","cc":"de","latitude":50.110924,"longitude":8.682127,"reserved":0,"last_update":"0001-01-01T00:00:00Z","name_a2s":"Uncletopia | Frankfurt | 6 | All Maps","protocol":17,"map":"pl_badwater","folder":"tf","game":"Team Fortress","app_id":440,"player_count":24,"max_players":24,"Bots":0,"server_type":"Dedicated","server_os":"Linux","password":true,"vac":true,"version":"7757534","steam_id":85568392924504278,"keywords":["nocrits","nodmgspread","payload","uncletopia"],"game_id":440,"stv_port":27066,"stv_name":"Uncletopia | Frankfurt | 6 | All Maps | STV","players":[{"user_id":90,"name":"Zdl","steam_id":76561198066015557,"connected_time":17000000000,"state":"active","ping":63},{"user_id":81,"name":"NIKITA","steam_id":76561197992927989,"connected_time":648000000000,"state":"active","ping":88},{"user_id":72,"name":"Parapluie","steam_id":76561197971640301,"connected_time":942000000000,"state":"active","ping":45},{"user_id":73,"name":"OfficeDuck","steam_id":76561199274055606,"connected_time":940000000000,"state":"active","ping":59},{"user_id":88,"name":"Dinges360","steam_id":76561198042032834,"connected_time":242000000000,"state":"active","ping":58},{"user_id":83,"name":"GRcrafter","steam_id":76561198372186715,"connected_time":511000000000,"state":"active","ping":102},{"user_id":69,"name":"Fran","steam_id":76561199070516960,"connected_time":1007000000000,"state":"active","ping":63},{"user_id":67,"name":"Laxslow","steam_id":76561198065361846,"connected_time":1095000000000,"state":"active","ping":59},{"user_id":37,"name":"TimRam","steam_id":76561199026689004,"connected_time":3028000000000,"state":"active","ping":86},{"user_id":33,"name":"Gjsöekakeurhdkfisgjchjateyvxsr","steam_id":76561198220571256,"connected_time":3488000000000,"state":"active","ping":55},{"user_id":85,"name":"Osiris x Saint-14 9k Page Fanfi","steam_id":76561198133063760,"connected_time":421000000000,"state":"active","ping":75},{"user_id":74,"name":"Big Trader","steam_id":76561197992364667,"connected_time":934000000000,"state":"active","ping":80},{"user_id":75,"name":"Vincere aut mori.","steam_id":76561198170994682,"connected_time":848000000000,"state":"active","ping":88},{"user_id":84,"name":"ViciousVinnyD","steam_id":76561198053822329,"connected_time":497000000000,"state":"active","ping":77},{"user_id":44,"name":"Babun King","steam_id":76561198330829419,"connected_time":2672000000000,"state":"active","ping":101},{"user_id":58,"name":"Musicano","steam_id":76561198114541088,"connected_time":1938000000000,"state":"active","ping":94},{"user_id":76,"name":"ScarredPixel123","steam_id":76561199165112703,"connected_time":822000000000,"state":"active","ping":81},{"user_id":89,"name":"Hazzah","steam_id":76561198197242377,"connected_time":39000000000,"state":"active","ping":65},{"user_id":66,"name":"boblox","steam_id":76561198022563494,"connected_time":1192000000000,"state":"active","ping":113},{"user_id":49,"name":"citronous","steam_id":76561198093290934,"connected_time":2628000000000,"state":"active","ping":58},{"user_id":86,"name":"Senko","steam_id":76561198149361291,"connected_time":260000000000,"state":"active","ping":44},{"user_id":87,"name":"Vanta_BlackLD","steam_id":76561198346271576,"connected_time":249000000000,"state":"active","ping":56},{"user_id":80,"name":"Thomas_Is_Ready","steam_id":76561199072059059,"connected_time":684000000000,"state":"active","ping":56},{"user_id":54,"name":"Mishaswy","steam_id":76561198156848144,"connected_time":2477000000000,"state":"active","ping":105}]},{"server_id":23,"name":"Uncletopia | Frankfurt | 7 | Stopwatch Beta","name_short":"frk-7","host":"frk-1.de.uncletopia.com","port":27075,"enabled":true,"region":"eu","cc":"de","latitude":50.110924,"longitude":8.682127,"reserved":0,"last_update":"0001-01-01T00:00:00Z","name_a2s":"Uncletopia | Frankfurt | 7 | Stopwatch Beta","protocol":17,"map":"pl_borneo","folder":"tf","game":"Team Fortress","app_id":440,"player_count":0,"max_players":24,"Bots":0,"server_type":"Dedicated","server_os":"Linux","password":true,"vac":true,"version":"7757534","steam_id":85568392924742827,"keywords":["nocrits","nodmgspread","payload","uncletopia"],"game_id":440,"stv_port":27076,"stv_name":"Uncletopia | Frankfurt | 7 | Stopwatch Beta | STV","players":null},{"server_id":24,"name":"Uncletopia | Frankfurt | 8 | Community","name_short":"frk-8","host":"frk-1.de.uncletopia.com","port":27085,"enabled":true,"region":"eu","cc":"de","latitude":50.110924,"longitude":8.682127,"reserved":0,"last_update":"0001-01-01T00:00:00Z","name_a2s":"Uncletopia | Frankfurt | 8 | Community","protocol":17,"map":"koth_cascade","folder":"tf","game":"Team Fortress","app_id":440,"player_count":0,"max_players":24,"Bots":0,"server_type":"Dedicated","server_os":"Linux","password":true,"vac":true,"version":"7757534","steam_id":85568392924742828,"keywords":["cp","nocrits","nodmgspread","uncletopia"],"game_id":440,"stv_port":27086,"stv_name":"Uncletopia | Frankfurt | 8 | Community | STV","players":null},{"server_id":202,"name":"Uncletopia | Hong Kong | 1 | All Maps","name_short":"hgk-1","host":"hgk-1.hk.uncletopia.com","port":27015,"enabled":true,"region":"asia","cc":"hk","latitude":22.302711,"longitude":114.177216,"reserved":0,"last_update":"0001-01-01T00:00:00Z","name_a2s":"Uncletopia | Hong Kong | 1 | All Maps","protocol":17,"map":"koth_suijin","folder":"tf","game":"Team Fortress","app_id":440,"player_count":0,"max_players":24,"Bots":0,"server_type":"Dedicated","server_os":"Linux","password":true,"vac":true,"version":"7757534","steam_id":85568392924494504,"keywords":["cp","nocrits","nodmgspread","uncletopia"],"game_id":440,"stv_port":27016,"stv_name":"Uncletopia | Hong Kong | 1 | All Maps | STV","players":null},{"server_id":1,"name":"Uncletopia | Los Angeles | 1 | All Maps","name_short":"lax-1","host":"lax-1.us.uncletopia.com","port":27015,"enabled":true,"region":"us-west","cc":"us","latitude":33.94279,"longitude":-118.41004,"reserved":0,"last_update":"0001-01-01T00:00:00Z","name_a2s":"Uncletopia | Los Angeles | 1 | All Maps","protocol":17,"map":"pl_swiftwater_final1","folder":"tf","game":"Team Fortress","app_id":440,"player_count":0,"max_players":24,"Bots":0,"server_type":"Dedicated","server_os":"Linux","password":true,"vac":true,"version":"7757534","steam_id":85568392924469991,"keywords":["nocrits","nodmgspread","payload","uncletopia"],"game_id":440,"stv_port":27016,"stv_name":"Uncletopia | Los Angeles | 1 | All Maps | STV","players":null},{"server_id":112,"name":"Uncletopia | Los Angeles | 2 | All Maps","name_short":"lax-2","host":"lax-1.us.uncletopia.com","port":27025,"enabled":true,"region":"us-west","cc":"us","latitude":33.94279,"longitude":-118.41004,"reserved":0,"last_update":"0001-01-01T00:00:00Z","name_a2s":"Uncletopia | Los Angeles | 2 | All Maps","protocol":17,"map":"cp_mountainlab","folder":"tf","game":"Team Fortress","app_id":440,"player_count":0,"max_players":24,"Bots":0,"server_type":"Dedicated","server_os":"Linux","password":true,"vac":true,"version":"7757534","steam_id":85568392924469992,"keywords":["cp","nocrits","nodmgspread","uncletopia"],"game_id":440,"stv_port":27026,"stv_name":"Uncletopia | Los Angeles | 2 | All Maps | STV","players":null},{"server_id":324,"name":"Uncletopia | Los Angeles | 3 | All Maps","name_short":"lax-3","host":"lax-1.us.uncletopia.com","port":27035,"enabled":true,"region":"us-west","cc":"us","latitude":33.94279,"longitude":-118.41004,"reserved":0,"last_update":"0001-01-01T00:00:00Z","name_a2s":"Uncletopia | Los Angeles | 3 | All Maps","protocol":17,"map":"cp_mountainlab","folder":"tf","game":"Team Fortress","app_id":440,"player_count":0,"max_players":24,"Bots":0,"server_type":"Dedicated","server_os":"Linux","password":true,"vac":true,"version":"7757534","steam_id":85568392924510198,"keywords":["cp","nocrits","nodmgspread","uncletopia"],"game_id":440,"stv_port":27036,"stv_name":"Uncletopia | Los Angeles | 3 | All Maps | STV","players":null},{"server_id":25,"name":"Uncletopia | Los Angeles | 4 | Stopwatch Beta","name_short":"lax-4","host":"lax-1.us.uncletopia.com","port":27045,"enabled":true,"region":"us-west","cc":"us","latitude":33.94279,"longitude":-118.41004,"reserved":0,"last_update":"0001-01-01T00:00:00Z","name_a2s":"Uncletopia | Los Angeles | 4 | Stopwatch Beta","protocol":17,"map":"koth_viaduct","folder":"tf","game":"Team Fortress","app_id":440,"player_count":0,"max_players":24,"Bots":0,"server_type":"Dedicated","server_os":"Linux","password":true,"vac":true,"version":"7757534","steam_id":85568392924510199,"keywords":["cp","nocrits","nodmgspread","uncletopia"],"game_id":440,"stv_port":27046,"stv_name":"Uncletopia | Los Angeles | 4 | Stopwatch Beta | STV","players":null},{"server_id":11,"name":"Uncletopia | London | 1 | All Maps","name_short":"lon-1","host":"lon-1.uk.uncletopia.com","port":27015,"enabled":true,"region":"eu","cc":"gb","latitude":51.509865,"longitude":-0.118092,"reserved":0,"last_update":"0001-01-01T00:00:00Z","name_a2s":"Uncletopia | London | 1 | All Maps","protocol":17,"map":"koth_viaduct","folder":"tf","game":"Team Fortress","app_id":440,"player_count":24,"max_players":24,"Bots":0,"server_type":"Dedicated","server_os":"Linux","password":true,"vac":true,"version":"7757534","steam_id":85568392924367362,"keywords":["cp","nocrits","nodmgspread","uncletopia"],"game_id":440,"stv_port":27016,"stv_name":"Uncletopia | London | 1 | All Maps | STV","players":[{"user_id":671,"name":"rat performance","steam_id":76561198065854668,"connected_time":399000000000,"state":"active","ping":44},{"user_id":664,"name":"BRIDGEBURNER420","steam_id":76561198183949987,"connected_time":820000000000,"state":"active","ping":45},{"user_id":645,"name":"CutKan","steam_id":76561198809248662,"connected_time":1749000000000,"state":"active","ping":105},{"user_id":628,"name":"Waterorange","steam_id":76561199467995794,"connected_time":3910000000000,"state":"active","ping":84},{"user_id":672,"name":"dubysa","steam_id":76561198079774530,"connected_time":312000000000,"state":"active","ping":75},{"user_id":555,"name":"✪ qua ✪","steam_id":76561198066408333,"connected_time":11629000000000,"state":"active","ping":77},{"user_id":670,"name":"DOS Vs Coughing Baby","steam_id":76561198846784757,"connected_time":610000000000,"state":"active","ping":59},{"user_id":673,"name":"alex","steam_id":76561197995857448,"connected_time":206000000000,"state":"active","ping":48},{"user_id":616,"name":"Pintarolas","steam_id":76561198124839451,"connected_time":5531000000000,"state":"active","ping":112},{"user_id":666,"name":"Shmeat Shareholder","steam_id":76561199057199891,"connected_time":759000000000,"state":"active","ping":125},{"user_id":648,"name":"{dogs}კობა77koba77[ASS]","steam_id":76561198154218182,"connected_time":1554000000000,"state":"active","ping":46},{"user_id":596,"name":"Nifi","steam_id":76561198102682566,"connected_time":7458000000000,"state":"active","ping":75},{"user_id":675,"name":"An Unsane Tf2 Player","steam_id":76561198951671289,"connected_time":65000000000,"state":"active","ping":111},{"user_id":561,"name":"Bostrash641","steam_id":76561199447225685,"connected_time":11261000000000,"state":"active","ping":72},{"user_id":570,"name":"ciliorkun18","steam_id":76561198228942500,"connected_time":10078000000000,"state":"active","ping":91},{"user_id":603,"name":"Whizzo","steam_id":76561198058762428,"connected_time":7227000000000,"state":"active","ping":60},{"user_id":674,"name":"Gryoss","steam_id":76561197999837111,"connected_time":115000000000,"state":"active","ping":116},{"user_id":549,"name":"Sneaky boi","steam_id":76561199195985387,"connected_time":12171000000000,"state":"active","ping":96},{"user_id":669,"name":"ion","steam_id":76561198390406243,"connected_time":741000000000,"state":"active","ping":127},{"user_id":654,"name":"penisfinger","steam_id":76561198103904286,"connected_time":1306000000000,"state":"active","ping":78},{"user_id":608,"name":"ralek","steam_id":76561198337027746,"connected_time":6399000000000,"state":"active","ping":102},{"user_id":639,"name":"Giovine Killjoy","steam_id":76561198059375315,"connected_time":2412000000000,"state":"active","ping":81},{"user_id":604,"name":"joe","steam_id":76561198026484403,"connected_time":7211000000000,"state":"active","ping":56},{"user_id":634,"name":"Bilaterial Newt","steam_id":76561198074655679,"connected_time":3231000000000,"state":"active","ping":90}]},{"server_id":114,"name":"Uncletopia | London | 2 | All Maps","name_short":"lon-2","host":"lon-1.uk.uncletopia.com","port":27025,"enabled":true,"region":"eu","cc":"gb","latitude":51.509865,"longitude":-0.118092,"reserved":0,"last_update":"0001-01-01T00:00:00Z","name_a2s":"Uncletopia | London | 2 | All Maps","protocol":17,"map":"pl_barnblitz","folder":"tf","game":"Team Fortress","app_id":440,"player_count":24,"max_players":24,"Bots":0,"server_type":"Dedicated","server_os":"Linux","password":true,"vac":true,"version":"7757534","steam_id":85568392924470941,"keywords":["nocrits","nodmgspread","payload","uncletopia"],"game_id":440,"stv_port":27026,"stv_name":"Uncletopia | London | 2 | All Maps | STV","players":[{"user_id":539,"name":"Mr. Hunts","steam_id":76561197981910397,"connected_time":776000000000,"state":"active","ping":65},{"user_id":511,"name":"luma","steam_id":76561198081649669,"connected_time":4043000000000,"state":"active","ping":71},{"user_id":514,"name":"тукку ирма","steam_id":76561197998715016,"connected_time":3827000000000,"state":"active","ping":61},{"user_id":537,"name":"Mondy","steam_id":76561198081196528,"connected_time":982000000000,"state":"active","ping":60},{"user_id":532,"name":"fmdi","steam_id":76561199433879329,"connected_time":1720000000000,"state":"active","ping":75},{"user_id":479,"name":"Thesis","steam_id":76561199308784371,"connected_time":6534000000000,"state":"active","ping":52},{"user_id":541,"name":"Proud Jojo Fan #TF2SP","steam_id":76561198847327216,"connected_time":184000000000,"state":"active","ping":75},{"user_id":496,"name":"Yatsuzume","steam_id":76561198059762108,"connected_time":5009000000000,"state":"active","ping":45},{"user_id":481,"name":"Spetse","steam_id":76561197990649972,"connected_time":6512000000000,"state":"active","ping":91},{"user_id":535,"name":"rummy","steam_id":76561197997573379,"connected_time":1160000000000,"state":"active","ping":36},{"user_id":499,"name":"Záporák","steam_id":76561198207175503,"connected_time":4765000000000,"state":"active","ping":65},{"user_id":520,"name":"Purple Panda","steam_id":76561198092231980,"connected_time":2863000000000,"state":"active","ping":51},{"user_id":526,"name":"KlevukaS™","steam_id":76561198312867604,"connected_time":2306000000000,"state":"active","ping":93},{"user_id":542,"name":"Gnarville","steam_id":76561198006373329,"connected_time":53000000000,"state":"active","ping":50},{"user_id":530,"name":"Zerzark","steam_id":76561198070118903,"connected_time":2124000000000,"state":"active","ping":57},{"user_id":533,"name":"Miczu555PL","steam_id":76561198058500895,"connected_time":1675000000000,"state":"active","ping":71},{"user_id":482,"name":"Owlet","steam_id":76561198065613974,"connected_time":6476000000000,"state":"active","ping":73},{"user_id":536,"name":"ahhhhhhhhhh","steam_id":76561198271867664,"connected_time":1150000000000,"state":"active","ping":57},{"user_id":497,"name":"blue mean-eyes","steam_id":76561198060105180,"connected_time":4772000000000,"state":"active","ping":63},{"user_id":527,"name":"Dellroy","steam_id":76561198161222252,"connected_time":2291000000000,"state":"active","ping":55},{"user_id":523,"name":"Amiriki","steam_id":76561198005050734,"connected_time":2560000000000,"state":"active","ping":59},{"user_id":506,"name":"Rapar","steam_id":76561198140741944,"connected_time":4532000000000,"state":"active","ping":136},{"user_id":529,"name":"Uncle Terry","steam_id":76561198396415736,"connected_time":2278000000000,"state":"active","ping":52},{"user_id":538,"name":"Izzermann","steam_id":76561199100131945,"connected_time":972000000000,"state":"active","ping":49}]},{"server_id":320,"name":"Uncletopia | London | 3 | All Maps","name_short":"lon-3","host":"lon-1.uk.uncletopia.com","port":27035,"enabled":true,"region":"eu","cc":"gb","latitude":51.509865,"longitude":-0.118092,"reserved":0,"last_update":"0001-01-01T00:00:00Z","name_a2s":"Uncletopia | London | 3 | All Maps","protocol":17,"map":"pl_pier","folder":"tf","game":"Team Fortress","app_id":440,"player_count":24,"max_players":24,"Bots":0,"server_type":"Dedicated","server_os":"Linux","password":true,"vac":true,"version":"7757534","steam_id":85568392924510192,"keywords":["nocrits","nodmgspread","payload","uncletopia"],"game_id":440,"stv_port":27036,"stv_name":"Uncletopia | London | 3 | All Maps | STV","players":[{"user_id":424,"name":"the_Qcumber","steam_id":76561199152515819,"connected_time":1551000000000,"state":"active","ping":76},{"user_id":449,"name":"john fortress","steam_id":76561198013237629,"connected_time":334000000000,"state":"active","ping":96},{"user_id":419,"name":"Eck","steam_id":76561198170101474,"connected_time":1809000000000,"state":"active","ping":51},{"user_id":438,"name":"2-D (secretly undercover)","steam_id":76561198287344223,"connected_time":927000000000,"state":"active","ping":108},{"user_id":434,"name":"Fat Pigeon","steam_id":76561198817940142,"connected_time":1303000000000,"state":"active","ping":45},{"user_id":450,"name":"Herot151","steam_id":76561199230605705,"connected_time":277000000000,"state":"active","ping":95},{"user_id":407,"name":"Marcos","steam_id":76561198798925721,"connected_time":2320000000000,"state":"active","ping":87},{"user_id":427,"name":"The Stig","steam_id":76561198103908668,"connected_time":1450000000000,"state":"active","ping":82},{"user_id":451,"name":"Dr.Sees [F2P]","steam_id":76561199219233587,"connected_time":259000000000,"state":"active","ping":79},{"user_id":411,"name":"Slav-matros","steam_id":76561198251977912,"connected_time":2173000000000,"state":"active","ping":70},{"user_id":445,"name":"Xydran","steam_id":76561198042397402,"connected_time":483000000000,"state":"active","ping":68},{"user_id":399,"name":"Ach Wheesht","steam_id":76561197996993222,"connected_time":2546000000000,"state":"active","ping":72},{"user_id":452,"name":"MatesThePlayer","steam_id":76561198066156449,"connected_time":247000000000,"state":"active","ping":77},{"user_id":430,"name":"Medyk","steam_id":76561198072321620,"connected_time":1419000000000,"state":"active","ping":82},{"user_id":453,"name":"Arturias","steam_id":76561198188720263,"connected_time":211000000000,"state":"active","ping":49},{"user_id":437,"name":"Lokinn","steam_id":76561198127117580,"connected_time":1029000000000,"state":"active","ping":84},{"user_id":440,"name":"Littleyoshifan","steam_id":76561198445491045,"connected_time":722000000000,"state":"active","ping":45},{"user_id":441,"name":"gang weed studios","steam_id":76561199025084891,"connected_time":610000000000,"state":"active","ping":60},{"user_id":442,"name":"Muffin The Femboy","steam_id":76561198296240951,"connected_time":604000000000,"state":"active","ping":143},{"user_id":454,"name":"Qwerty","steam_id":76561198023525894,"connected_time":180000000000,"state":"active","ping":88},{"user_id":456,"name":"whatever","steam_id":76561198095943461,"connected_time":104000000000,"state":"active","ping":71},{"user_id":358,"name":"Faxter","steam_id":76561198011771605,"connected_time":5199000000000,"state":"active","ping":78},{"user_id":447,"name":"outin","steam_id":76561198137734730,"connected_time":415000000000,"state":"active","ping":68},{"user_id":455,"name":"murderwow","steam_id":76561198024566944,"connected_time":168000000000,"state":"active","ping":119}]},{"server_id":321,"name":"Uncletopia | London | 4 | All Maps","name_short":"lon-4","host":"lon-1.uk.uncletopia.com","port":27045,"enabled":true,"region":"eu","cc":"gb","latitude":51.509865,"longitude":-0.118092,"reserved":0,"last_update":"0001-01-01T00:00:00Z","name_a2s":"Uncletopia | London | 4 | All Maps","protocol":17,"map":"pl_frontier_final","folder":"tf","game":"Team Fortress","app_id":440,"player_count":2,"max_players":24,"Bots":0,"server_type":"Dedicated","server_os":"Linux","password":true,"vac":true,"version":"7757534","steam_id":85568392924510193,"keywords":["nocrits","nodmgspread","payload","uncletopia"],"game_id":440,"stv_port":27046,"stv_name":"Uncletopia | London | 4 | All Maps | STV","players":[{"user_id":26,"name":"not drunk","steam_id":76561199184873889,"connected_time":1139000000000,"state":"active","ping":62},{"user_id":28,"name":"borokpop","steam_id":76561199163530777,"connected_time":2000000000,"state":"spawning","ping":183}]},{"server_id":21,"name":"Uncletopia | London | 5 | All Maps","name_short":"lon-5","host":"lon-1.uk.uncletopia.com","port":27055,"enabled":true,"region":"eu","cc":"gb","latitude":51.509865,"longitude":-0.118092,"reserved":0,"last_update":"0001-01-01T00:00:00Z","name_a2s":"Uncletopia | London | 5 | All Maps","protocol":17,"map":"pl_upward","folder":"tf","game":"Team Fortress","app_id":440,"player_count":24,"max_players":24,"Bots":0,"server_type":"Dedicated","server_os":"Linux","password":true,"vac":true,"version":"7757534","steam_id":85568392924742829,"keywords":["nocrits","nodmgspread","payload","uncletopia"],"game_id":440,"stv_port":27056,"stv_name":"Uncletopia | London | 5 | All Maps | STV","players":[{"user_id":148,"name":"r4ngerr","steam_id":76561198111721072,"connected_time":961000000000,"state":"active","ping":95},{"user_id":132,"name":"Bell","steam_id":76561199454586928,"connected_time":2023000000000,"state":"active","ping":135},{"user_id":171,"name":"Jimortal","steam_id":76561198342426856,"connected_time":29000000000,"state":"active","ping":106},{"user_id":124,"name":"Артём Качевник🤟","steam_id":76561198966494067,"connected_time":2577000000000,"state":"active","ping":90},{"user_id":138,"name":"emkoç","steam_id":76561198846782346,"connected_time":1764000000000,"state":"active","ping":107},{"user_id":169,"name":"ricky pee pee","steam_id":76561198152620745,"connected_time":152000000000,"state":"active","ping":60},{"user_id":156,"name":"Symbols","steam_id":76561198057259825,"connected_time":683000000000,"state":"active","ping":45},{"user_id":110,"name":"Rezkey","steam_id":76561198206079048,"connected_time":3708000000000,"state":"active","ping":50},{"user_id":164,"name":"bugiman#RustWin#vacRust","steam_id":76561199217504184,"connected_time":297000000000,"state":"active","ping":109},{"user_id":99,"name":"ZOMBINΣ","steam_id":76561198151057964,"connected_time":3955000000000,"state":"active","ping":92},{"user_id":161,"name":"Johnny Cockroach","steam_id":76561198049648277,"connected_time":447000000000,"state":"active","ping":105},{"user_id":170,"name":"harryhux","steam_id":76561198228052940,"connected_time":49000000000,"state":"active","ping":43},{"user_id":165,"name":"Cosmetic brain","steam_id":76561198055936410,"connected_time":277000000000,"state":"active","ping":79},{"user_id":145,"name":"A Pigeon","steam_id":76561198114090555,"connected_time":1566000000000,"state":"active","ping":79},{"user_id":159,"name":"Edla","steam_id":76561198062815315,"connected_time":626000000000,"state":"active","ping":124},{"user_id":140,"name":"SirNeeco \u003c3","steam_id":76561198103014203,"connected_time":1723000000000,"state":"active","ping":78},{"user_id":147,"name":"Saul Goodman","steam_id":76561199436999523,"connected_time":1241000000000,"state":"active","ping":67},{"user_id":142,"name":"sunbather","steam_id":76561198182194869,"connected_time":1669000000000,"state":"active","ping":109},{"user_id":162,"name":"Uriri","steam_id":76561198085588686,"connected_time":432000000000,"state":"active","ping":85},{"user_id":129,"name":"suna militisto","steam_id":76561198352926998,"connected_time":2373000000000,"state":"active","ping":111},{"user_id":168,"name":"legonde","steam_id":76561199149805429,"connected_time":238000000000,"state":"active","ping":74},{"user_id":167,"name":"Rami","steam_id":76561198301867313,"connected_time":268000000000,"state":"active","ping":56},{"user_id":144,"name":"poliakov.noam","steam_id":76561199259322961,"connected_time":1621000000000,"state":"active","ping":101},{"user_id":131,"name":"NoahSherlock(wln.tf)","steam_id":76561199015641953,"connected_time":2322000000000,"state":"active","ping":183}]},{"server_id":22,"name":"Uncletopia | London | 6 | All Maps","name_short":"lon-6","host":"lon-1.uk.uncletopia.com","port":27065,"enabled":true,"region":"eu","cc":"gb","latitude":51.509865,"longitude":-0.118092,"reserved":0,"last_update":"0001-01-01T00:00:00Z","name_a2s":"Uncletopia | London | 6 | All Maps","protocol":17,"map":"koth_cascade","folder":"tf","game":"Team Fortress","app_id":440,"player_count":11,"max_players":24,"Bots":0,"server_type":"Dedicated","server_os":"Linux","password":true,"vac":true,"version":"7757534","steam_id":85568392924742830,"keywords":["cp","nocrits","nodmgspread","uncletopia"],"game_id":440,"stv_port":27066,"stv_name":"Uncletopia | London | 6 | All Maps | STV","players":[{"user_id":27,"name":"Knoxxen","steam_id":76561198071114510,"connected_time":1145000000000,"state":"active","ping":67},{"user_id":18,"name":"fried","steam_id":76561198307522022,"connected_time":2216000000000,"state":"active","ping":46},{"user_id":25,"name":"jcera","steam_id":76561198882985900,"connected_time":1670000000000,"state":"active","ping":140},{"user_id":34,"name":"Lordware","steam_id":76561198022011299,"connected_time":252000000000,"state":"active","ping":80},{"user_id":35,"name":"Fiddlah","steam_id":76561198077916925,"connected_time":187000000000,"state":"active","ping":31},{"user_id":30,"name":"PH4NTOMtry","steam_id":76561198979390263,"connected_time":811000000000,"state":"active","ping":86},{"user_id":31,"name":"serbianknight","steam_id":76561199137992595,"connected_time":797000000000,"state":"active","ping":91},{"user_id":36,"name":"Smokey_Bandit650","steam_id":76561197974829591,"connected_time":134000000000,"state":"active","ping":58},{"user_id":37,"name":"Chaz","steam_id":76561198077292814,"connected_time":117000000000,"state":"active","ping":55},{"user_id":39,"name":"Datenegassie","steam_id":76561198089417032,"connected_time":67000000000,"state":"active","ping":68}]},{"server_id":40,"name":"Uncletopia | London | 7 | No Payload","name_short":"lon-7","host":"lon-1.uk.uncletopia.com","port":27075,"enabled":true,"region":"eu","cc":"gb","latitude":51.509865,"longitude":-0.118092,"reserved":0,"last_update":"0001-01-01T00:00:00Z","name_a2s":"Uncletopia | London | 7 | No Payload","protocol":17,"map":"plr_bananabay","folder":"tf","game":"Team Fortress","app_id":440,"player_count":24,"max_players":24,"Bots":0,"server_type":"Dedicated","server_os":"Linux","password":true,"vac":true,"version":"7757534","steam_id":85568392924964314,"keywords":["nocrits","nodmgspread","payload","uncletopia"],"game_id":440,"stv_port":27076,"stv_name":"Uncletopia | London | 7 | No Payload | STV","players":[{"user_id":286,"name":"bliss","steam_id":76561198067459427,"connected_time":73000000000,"state":"active","ping":58},{"user_id":263,"name":"Dr. Lifchik","steam_id":76561198206613841,"connected_time":2078000000000,"state":"active","ping":78},{"user_id":267,"name":"melko","steam_id":76561198806496924,"connected_time":1996000000000,"state":"active","ping":46},{"user_id":241,"name":"Nobaddy","steam_id":76561198037871007,"connected_time":3267000000000,"state":"active","ping":77},{"user_id":288,"name":"gemm","steam_id":76561198054949885,"connected_time":13000000000,"state":"active","ping":171},{"user_id":282,"name":"NiceBird","steam_id":76561198072118644,"connected_time":619000000000,"state":"active","ping":40},{"user_id":259,"name":"timmyhennessy87","steam_id":76561199468142263,"connected_time":2201000000000,"state":"active","ping":96},{"user_id":274,"name":"Monke Gaming","steam_id":76561199122133427,"connected_time":1659000000000,"state":"active","ping":137},{"user_id":261,"name":"Garden Freeman","steam_id":76561199073314677,"connected_time":2108000000000,"state":"active","ping":74},{"user_id":283,"name":"Grimm","steam_id":76561199101761943,"connected_time":461000000000,"state":"active","ping":115},{"user_id":250,"name":"Poodle","steam_id":76561198015483504,"connected_time":3012000000000,"state":"active","ping":88},{"user_id":247,"name":"m3m3d_","steam_id":76561198304014206,"connected_time":3117000000000,"state":"active","ping":61},{"user_id":141,"name":"fume.","steam_id":76561197960476801,"connected_time":11193000000000,"state":"active","ping":64},{"user_id":249,"name":"Pinkchup","steam_id":76561198106802803,"connected_time":3031000000000,"state":"active","ping":78},{"user_id":265,"name":"DOM DOM YES YES","steam_id":76561199004896738,"connected_time":2043000000000,"state":"active","ping":59},{"user_id":278,"name":"blizz gamming","steam_id":76561198253692868,"connected_time":1199000000000,"state":"active","ping":68},{"user_id":268,"name":"PicklesTRT","steam_id":76561198053440288,"connected_time":1898000000000,"state":"active","ping":193},{"user_id":285,"name":"one too many drinks","steam_id":76561199042470246,"connected_time":176000000000,"state":"active","ping":65},{"user_id":244,"name":"MeBandae","steam_id":76561198910770432,"connected_time":3192000000000,"state":"active","ping":90},{"user_id":287,"name":"Macro","steam_id":76561199442846226,"connected_time":67000000000,"state":"active","ping":167},{"user_id":281,"name":"ilgazemre78","steam_id":76561199221451383,"connected_time":937000000000,"state":"active","ping":106},{"user_id":273,"name":"3xample","steam_id":76561198805049375,"connected_time":1736000000000,"state":"active","ping":68},{"user_id":255,"name":"Welder","steam_id":76561198355300561,"connected_time":2546000000000,"state":"active","ping":69},{"user_id":121,"name":"Memesus","steam_id":76561199362236174,"connected_time":12246000000000,"state":"active","ping":78}]},{"server_id":41,"name":"Uncletopia | London | 8 | Community","name_short":"lon-8","host":"lon-1.uk.uncletopia.com","port":27085,"enabled":true,"region":"eu","cc":"gb","latitude":51.509865,"longitude":-0.118092,"reserved":0,"last_update":"0001-01-01T00:00:00Z","name_a2s":"Uncletopia | London | 8 | Community","protocol":17,"map":"workshop/koth_ashville_final.ugc2130459942","folder":"tf","game":"Team Fortress","app_id":440,"player_count":0,"max_players":24,"Bots":0,"server_type":"Dedicated","server_os":"Linux","password":true,"vac":true,"version":"7757534","steam_id":85568392924964315,"keywords":["cp","nocrits","nodmgspread","uncletopia"],"game_id":440,"stv_port":27086,"stv_name":"Uncletopia | London | 8 | Community | STV","players":null},{"server_id":300,"name":"Uncletopia | Montréal | 1 | All Maps","name_short":"mtl-1","host":"mtl-1.ca.uncletopia.com","port":27015,"enabled":true,"region":"us-east","cc":"ca","latitude":45.50889,"longitude":-73.56167,"reserved":0,"last_update":"0001-01-01T00:00:00Z","name_a2s":"Uncletopia | Montréal | 1 | All Maps","protocol":17,"map":"koth_cascade","folder":"tf","game":"Team Fortress","app_id":440,"player_count":0,"max_players":24,"Bots":0,"server_type":"Dedicated","server_os":"Linux","password":true,"vac":true,"version":"7757534","steam_id":85568392924500087,"keywords":["cp","nocrits","nodmgspread","uncletopia"],"game_id":440,"stv_port":27016,"stv_name":"Uncletopia | Montréal | 1 | All Maps | STV","players":null},{"server_id":301,"name":"Uncletopia | Montréal | 2 | All Maps","name_short":"mtl-2","host":"mtl-1.ca.uncletopia.com","port":27025,"enabled":true,"region":"us-east","cc":"ca","latitude":45.50889,"longitude":-73.56167,"reserved":0,"last_update":"0001-01-01T00:00:00Z","name_a2s":"Uncletopia | Montréal | 2 | All Maps","protocol":17,"map":"pl_borneo","folder":"tf","game":"Team Fortress","app_id":440,"player_count":0,"max_players":24,"Bots":0,"server_type":"Dedicated","server_os":"Linux","password":true,"vac":true,"version":"7757534","steam_id":85568392924500088,"keywords":["nocrits","nodmgspread","payload","uncletopia"],"game_id":440,"stv_port":27026,"stv_name":"Uncletopia | Montréal | 2 | All Maps | STV","players":null},{"server_id":302,"name":"Uncletopia | Montréal | 3 | All Maps","name_short":"mtl-3","host":"mtl-1.ca.uncletopia.com","port":27035,"enabled":true,"region":"us-east","cc":"ca","latitude":45.50889,"longitude":-73.56167,"reserved":0,"last_update":"0001-01-01T00:00:00Z","name_a2s":"Uncletopia | Montréal | 3 | All Maps","protocol":17,"map":"cp_sunshine","folder":"tf","game":"Team Fortress","app_id":440,"player_count":0,"max_players":24,"Bots":0,"server_type":"Dedicated","server_os":"Linux","password":true,"vac":true,"version":"7757534","steam_id":85568392924500089,"keywords":["cp","nocrits","nodmgspread","uncletopia"],"game_id":440,"stv_port":27036,"stv_name":"Uncletopia | Montréal | 3 | All Maps | STV","players":null},{"server_id":303,"name":"Uncletopia | Montréal | 4 | No Payload","name_short":"mtl-4","host":"mtl-1.ca.uncletopia.com","port":27045,"enabled":true,"region":"us-east","cc":"ca","latitude":45.50889,"longitude":-73.56167,"reserved":0,"last_update":"0001-01-01T00:00:00Z","name_a2s":"Uncletopia | Montréal | 4 | No Payload","protocol":17,"map":"koth_lakeside_final","folder":"tf","game":"Team Fortress","app_id":440,"player_count":0,"max_players":24,"Bots":0,"server_type":"Dedicated","server_os":"Linux","password":true,"vac":true,"version":"7757534","steam_id":85568392924500090,"keywords":["cp","nocrits","nodmgspread","uncletopia"],"game_id":440,"stv_port":27046,"stv_name":"Uncletopia | Montréal | 4 | No Payload | STV","players":null},{"server_id":13,"name":"Uncletopia | New York City | 1 | All Maps","name_short":"nyc-1","host":"nyc-1.us.uncletopia.com","port":27015,"enabled":true,"region":"us-east","cc":"us","latitude":40.73061,"longitude":-73.93524,"reserved":0,"last_update":"0001-01-01T00:00:00Z","name_a2s":"Uncletopia | New York City | 1 | All Maps","protocol":17,"map":"pl_borneo","folder":"tf","game":"Team Fortress","app_id":440,"player_count":16,"max_players":24,"Bots":0,"server_type":"Dedicated","server_os":"Linux","password":true,"vac":true,"version":"7757534","steam_id":85568392924469993,"keywords":["nocrits","nodmgspread","payload","uncletopia"],"game_id":440,"stv_port":27016,"stv_name":"Uncletopia | New York City | 1 | All Maps | STV","players":[{"user_id":5,"name":"Inquisitor Larry","steam_id":76561198129829921,"connected_time":1885000000000,"state":"active","ping":46},{"user_id":6,"name":"Doggo","steam_id":76561198313355373,"connected_time":1725000000000,"state":"active","ping":117},{"user_id":16,"name":"Jimjohn","steam_id":76561198018654088,"connected_time":1172000000000,"state":"active","ping":90},{"user_id":17,"name":"MrVegasAguitar","steam_id":76561198084466946,"connected_time":950000000000,"state":"active","ping":69},{"user_id":18,"name":"Ripheart","steam_id":76561198089661561,"connected_time":812000000000,"state":"active","ping":61},{"user_id":15,"name":"THRILLHO","steam_id":76561198371663047,"connected_time":1276000000000,"state":"active","ping":44},{"user_id":19,"name":"Fraggerman222.02","steam_id":76561198091855057,"connected_time":733000000000,"state":"active","ping":54},{"user_id":20,"name":"towering flesh","steam_id":76561198082753631,"connected_time":718000000000,"state":"active","ping":43},{"user_id":21,"name":"Tyler\u0026Fingers","steam_id":76561198085154485,"connected_time":678000000000,"state":"active","ping":83},{"user_id":25,"name":"Somebody's muppet","steam_id":76561198435307688,"connected_time":141000000000,"state":"active","ping":131},{"user_id":23,"name":"Shaunhan","steam_id":76561198386596938,"connected_time":535000000000,"state":"active","ping":44},{"user_id":24,"name":"DeviserDude","steam_id":76561198298631671,"connected_time":524000000000,"state":"active","ping":61},{"user_id":26,"name":"Spraxinator","steam_id":76561199083563607,"connected_time":114000000000,"state":"spawning","ping":141},{"user_id":27,"name":"scrapheap","steam_id":76561198202407087,"connected_time":113000000000,"state":"active","ping":88},{"user_id":28,"name":"Henk_de_Patatman","steam_id":76561198070103191,"connected_time":56000000000,"state":"spawning","ping":136},{"user_id":29,"name":"Mablinlok","steam_id":76561197992718242,"connected_time":11000000000,"state":"spawning","ping":68}]},{"server_id":14,"name":"Uncletopia | New York City | 2 | All Maps","name_short":"nyc-2","host":"nyc-1.us.uncletopia.com","port":27025,"enabled":true,"region":"us-east","cc":"us","latitude":40.73061,"longitude":-73.93524,"reserved":0,"last_update":"0001-01-01T00:00:00Z","name_a2s":"Uncletopia | New York City | 2 | All Maps","protocol":17,"map":"pl_badwater","folder":"tf","game":"Team Fortress","app_id":440,"player_count":0,"max_players":24,"Bots":0,"server_type":"Dedicated","server_os":"Linux","password":true,"vac":true,"version":"7757534","steam_id":85568392924469994,"keywords":["nocrits","nodmgspread","payload","uncletopia"],"game_id":440,"stv_port":27026,"stv_name":"Uncletopia | New York City | 2 | All Maps | STV","players":null},{"server_id":15,"name":"Uncletopia | New York City | 3 | Stopwatch Beta","name_short":"nyc-3","host":"nyc-1.us.uncletopia.com","port":27035,"enabled":true,"region":"us-east","cc":"us","latitude":40.73061,"longitude":-73.93524,"reserved":0,"last_update":"0001-01-01T00:00:00Z","name_a2s":"Uncletopia | New York City | 3 | Stopwatch Beta","protocol":17,"map":"koth_lakeside_final","folder":"tf","game":"Team Fortress","app_id":440,"player_count":0,"max_players":24,"Bots":0,"server_type":"Dedicated","server_os":"Linux","password":true,"vac":true,"version":"7757534","steam_id":85568392924742820,"keywords":["cp","nocrits","nodmgspread","uncletopia"],"game_id":440,"stv_port":27036,"stv_name":"Uncletopia | New York City | 3 | Stopwatch Beta | STV","players":null},{"server_id":16,"name":"Uncletopia | New York City | 4 | Community","name_short":"nyc-4","host":"nyc-1.us.uncletopia.com","port":27045,"enabled":true,"region":"us-east","cc":"us","latitude":40.73061,"longitude":-73.93524,"reserved":0,"last_update":"0001-01-01T00:00:00Z","name_a2s":"Uncletopia | New York City | 4 | Community","protocol":17,"map":"workshop/pl_cactuscanyon_redux_rc4b.ugc2579644293","folder":"tf","game":"Team Fortress","app_id":440,"player_count":0,"max_players":24,"Bots":0,"server_type":"Dedicated","server_os":"Linux","password":true,"vac":true,"version":"7757534","steam_id":85568392924742821,"keywords":["nocrits","nodmgspread","payload","uncletopia"],"game_id":440,"stv_port":27046,"stv_name":"Uncletopia | New York City | 4 | Community | STV","players":null},{"server_id":142,"name":"Uncletopia | São Paulo | 1 | All Maps","name_short":"sao-1","host":"sao-1.br.uncletopia.com","port":27015,"enabled":true,"region":"sa","cc":"br","latitude":-23.533773,"longitude":-46.62529,"reserved":0,"last_update":"0001-01-01T00:00:00Z","name_a2s":"Uncletopia | São Paulo | 1 | All Maps","protocol":17,"map":"pl_frontier_final","folder":"tf","game":"Team Fortress","app_id":440,"player_count":0,"max_players":24,"Bots":0,"server_type":"Dedicated","server_os":"Linux","password":true,"vac":true,"version":"7757534","steam_id":85568392924469996,"keywords":["nocrits","nodmgspread","payload","uncletopia"],"game_id":440,"stv_port":27016,"stv_name":"Uncletopia | São Paulo | 1 | All Maps | STV","players":null},{"server_id":143,"name":"Uncletopia | São Paulo | 2 | All Maps","name_short":"sao-2","host":"sao-2.br.uncletopia.com","port":27015,"enabled":true,"region":"sa","cc":"br","latitude":-23.533773,"longitude":-46.62529,"reserved":0,"last_update":"0001-01-01T00:00:00Z","name_a2s":"Uncletopia | São Paulo | 2 | All Maps","protocol":17,"map":"koth_cascade","folder":"tf","game":"Team Fortress","app_id":440,"player_count":0,"max_players":24,"Bots":0,"server_type":"Dedicated","server_os":"Linux","password":true,"vac":true,"version":"7757534","steam_id":85568392924485349,"keywords":["cp","nocrits","nodmgspread","uncletopia"],"game_id":440,"stv_port":27016,"stv_name":"Uncletopia | São Paulo | 2 | All Maps | STV","players":null},{"server_id":7,"name":"Uncletopia | Seattle | 1 | All Maps","name_short":"sea-1","host":"sea-1.us.uncletopia.com","port":27015,"enabled":true,"region":"us-west","cc":"us","latitude":47.608013,"longitude":-122.33517,"reserved":0,"last_update":"0001-01-01T00:00:00Z","name_a2s":"Uncletopia | Seattle | 1 | All Maps","protocol":17,"map":"pl_snowycoast","folder":"tf","game":"Team Fortress","app_id":440,"player_count":23,"max_players":24,"Bots":0,"server_type":"Dedicated","server_os":"Linux","password":true,"vac":true,"version":"7757534","steam_id":85568392924469997,"keywords":["nocrits","nodmgspread","payload","uncletopia"],"game_id":440,"stv_port":27016,"stv_name":"Uncletopia | Seattle | 1 | All Maps | STV","players":[{"user_id":181,"name":"twitch.tv/abaddon_amog","steam_id":76561198268581959,"connected_time":115000000000,"state":"active","ping":60},{"user_id":183,"name":"Void","steam_id":76561198308290211,"connected_time":110000000000,"state":"active","ping":91},{"user_id":171,"name":"ORANGE","steam_id":76561198000401769,"connected_time":1354000000000,"state":"active","ping":46},{"user_id":180,"name":"aon135","steam_id":76561197966931637,"connected_time":118000000000,"state":"active","ping":57},{"user_id":186,"name":"Sloppy John (Extra Sauce)","steam_id":76561198359703432,"connected_time":89000000000,"state":"active","ping":75},{"user_id":9,"name":"ＳＬＶＴＣＨＡＭＰ","steam_id":76561198883157736,"connected_time":13844000000000,"state":"active","ping":62},{"user_id":172,"name":"Mignyanne :3","steam_id":76561198048754056,"connected_time":1305000000000,"state":"active","ping":74},{"user_id":190,"name":"gk.onesoul","steam_id":76561198114603745,"connected_time":24000000000,"state":"active","ping":70},{"user_id":154,"name":"Ahi","steam_id":76561199174579733,"connected_time":2864000000000,"state":"active","ping":123},{"user_id":129,"name":"Lucky Buns","steam_id":76561198359780371,"connected_time":5688000000000,"state":"active","ping":57},{"user_id":177,"name":"yup","steam_id":76561199190800520,"connected_time":899000000000,"state":"active","ping":41},{"user_id":182,"name":"nappyzappy","steam_id":76561198095118953,"connected_time":113000000000,"state":"active","ping":67},{"user_id":188,"name":"Herr Müller","steam_id":76561198064876829,"connected_time":55000000000,"state":"active","ping":133},{"user_id":158,"name":"bhop","steam_id":76561198064885639,"connected_time":2636000000000,"state":"active","ping":143},{"user_id":184,"name":"Naeole1","steam_id":76561198240378926,"connected_time":110000000000,"state":"active","ping":119},{"user_id":161,"name":"Kuma","steam_id":76561199100813140,"connected_time":2377000000000,"state":"active","ping":83},{"user_id":185,"name":"What are you doing?!","steam_id":76561198405248691,"connected_time":106000000000,"state":"active","ping":82},{"user_id":173,"name":"Stranger Danger","steam_id":76561198115242460,"connected_time":1166000000000,"state":"active","ping":51},{"user_id":166,"name":"mepng","steam_id":76561199018758598,"connected_time":2147000000000,"state":"active","ping":134},{"user_id":176,"name":"pumba","steam_id":76561198207881077,"connected_time":1128000000000,"state":"active","ping":105},{"user_id":189,"name":"Vortiger","steam_id":76561198275813176,"connected_time":28000000000,"state":"active","ping":71},{"user_id":141,"name":"dumbeeon","steam_id":76561198059351874,"connected_time":4562000000000,"state":"active","ping":84},{"user_id":191,"name":"JesterJasper","steam_id":76561198025338925,"connected_time":22000000000,"state":"spawning","ping":44}]},{"server_id":119,"name":"Uncletopia | Seattle | 2 | All Maps","name_short":"sea-2","host":"sea-1.us.uncletopia.com","port":27025,"enabled":true,"region":"us-west","cc":"us","latitude":47.608013,"longitude":-122.33517,"reserved":0,"last_update":"0001-01-01T00:00:00Z","name_a2s":"Uncletopia | Seattle | 2 | All Maps","protocol":17,"map":"pl_borneo","folder":"tf","game":"Team Fortress","app_id":440,"player_count":3,"max_players":24,"Bots":0,"server_type":"Dedicated","server_os":"Linux","password":true,"vac":true,"version":"7757534","steam_id":85568392924469998,"keywords":["nocrits","nodmgspread","payload","uncletopia"],"game_id":440,"stv_port":27026,"stv_name":"Uncletopia | Seattle | 2 | All Maps | STV","players":[{"user_id":6,"name":"mokkos","steam_id":76561198352462269,"connected_time":1484000000000,"state":"active","ping":286},{"user_id":7,"name":"Radiátormeta","steam_id":76561198271525305,"connected_time":1369000000000,"state":"active","ping":233},{"user_id":8,"name":"laggy mcstab","steam_id":76561198106379962,"connected_time":790000000000,"state":"active","ping":72}]},{"server_id":406,"name":"Uncletopia | Seattle | 3 | Stopwatch Beta","name_short":"sea-3","host":"sea-1.us.uncletopia.com","port":27035,"enabled":true,"region":"us-west","cc":"us","latitude":47.608013,"longitude":-122.33517,"reserved":0,"last_update":"0001-01-01T00:00:00Z","name_a2s":"Uncletopia | Seattle | 3 | Stopwatch Beta","protocol":17,"map":"cp_sunshine","folder":"tf","game":"Team Fortress","app_id":440,"player_count":0,"max_players":24,"Bots":0,"server_type":"Dedicated","server_os":"Linux","password":true,"vac":true,"version":"7757534","steam_id":85568392924515217,"keywords":["cp","nocrits","nodmgspread","uncletopia"],"game_id":440,"stv_port":27036,"stv_name":"Uncletopia | Seattle | 3 | Stopwatch Beta | STV","players":null},{"server_id":17,"name":"Uncletopia | San Francisco | 1 | All Maps","name_short":"sfo-1","host":"sfo-1.us.uncletopia.com","port":27015,"enabled":true,"region":"us-west","cc":"us","latitude":37.77397,"longitude":-122.4313,"reserved":0,"last_update":"0001-01-01T00:00:00Z","name_a2s":"Uncletopia | San Francisco | 1 | All Maps","protocol":17,"map":"pl_pier","folder":"tf","game":"Team Fortress","app_id":440,"player_count":0,"max_players":24,"Bots":0,"server_type":"Dedicated","server_os":"Linux","password":true,"vac":true,"version":"7757534","steam_id":85568392924469999,"keywords":["nocrits","nodmgspread","payload","uncletopia"],"game_id":440,"stv_port":27016,"stv_name":"Uncletopia | San Francisco | 1 | All Maps | STV","players":null},{"server_id":18,"name":"Uncletopia | San Francisco | 2 | All Maps","name_short":"sfo-2","host":"sfo-1.us.uncletopia.com","port":27025,"enabled":true,"region":"us-west","cc":"us","latitude":37.77397,"longitude":-122.4313,"reserved":0,"last_update":"0001-01-01T00:00:00Z","name_a2s":"Uncletopia | San Francisco | 2 | All Maps","protocol":17,"map":"cp_mountainlab","folder":"tf","game":"Team Fortress","app_id":440,"player_count":0,"max_players":24,"Bots":0,"server_type":"Dedicated","server_os":"Linux","password":true,"vac":true,"version":"7757534","steam_id":85568392924470000,"keywords":["cp","nocrits","nodmgspread","uncletopia"],"game_id":440,"stv_port":27026,"stv_name":"Uncletopia | San Francisco | 2 | All Maps | STV","players":null},{"server_id":19,"name":"Uncletopia | San Francisco | 3 | Stopwatch Beta","name_short":"sfo-3","host":"sfo-1.us.uncletopia.com","port":27035,"enabled":true,"region":"us-west","cc":"us","latitude":37.77397,"longitude":-122.4313,"reserved":0,"last_update":"0001-01-01T00:00:00Z","name_a2s":"Uncletopia | San Francisco | 3 | Stopwatch Beta","protocol":17,"map":"koth_viaduct","folder":"tf","game":"Team Fortress","app_id":440,"player_count":0,"max_players":24,"Bots":0,"server_type":"Dedicated","server_os":"Linux","password":true,"vac":true,"version":"7757534","steam_id":85568392924742824,"keywords":["cp","nocrits","nodmgspread","uncletopia"],"game_id":440,"stv_port":27036,"stv_name":"Uncletopia | San Francisco | 3 | Stopwatch Beta | STV","players":null},{"server_id":20,"name":"Uncletopia | San Francisco | 4 | Community","name_short":"sfo-4","host":"sfo-1.us.uncletopia.com","port":27045,"enabled":true,"region":"us-west","cc":"us","latitude":37.77397,"longitude":-122.4313,"reserved":0,"last_update":"0001-01-01T00:00:00Z","name_a2s":"Uncletopia | San Francisco | 4 | Community","protocol":17,"map":"pl_borneo","folder":"tf","game":"Team Fortress","app_id":440,"player_count":0,"max_players":24,"Bots":0,"server_type":"Dedicated","server_os":"Linux","password":true,"vac":true,"version":"7757534","steam_id":85568392924742826,"keywords":["nocrits","nodmgspread","payload","uncletopia"],"game_id":440,"stv_port":27046,"stv_name":"Uncletopia | San Francisco | 4 | Community | STV","players":null},{"server_id":141,"name":"Uncletopia | Sydney | 1 | All Maps","name_short":"syd-1","host":"syd-1.au.uncletopia.com","port":27015,"enabled":true,"region":"au","cc":"au","latitude":-33.865143,"longitude":151.2099,"reserved":0,"last_update":"0001-01-01T00:00:00Z","name_a2s":"Uncletopia | Sydney | 1 | All Maps","protocol":17,"map":"cp_mountainlab","folder":"tf","game":"Team Fortress","app_id":440,"player_count":0,"max_players":24,"Bots":0,"server_type":"Dedicated","server_os":"Linux","password":true,"vac":true,"version":"7757534","steam_id":85568392924470001,"keywords":["cp","nocrits","nodmgspread","uncletopia"],"game_id":440,"stv_port":27016,"stv_name":"Uncletopia | Sydney | 1 | All Maps | STV","players":null},{"server_id":123,"name":"Uncletopia | Sydney | 2 | All Maps","name_short":"syd-2","host":"syd-1.au.uncletopia.com","port":27025,"enabled":true,"region":"au","cc":"au","latitude":-33.865143,"longitude":151.2099,"reserved":0,"last_update":"0001-01-01T00:00:00Z","name_a2s":"Uncletopia | Sydney | 2 | All Maps","protocol":17,"map":"pl_frontier_final","folder":"tf","game":"Team Fortress","app_id":440,"player_count":0,"max_players":24,"Bots":0,"server_type":"Dedicated","server_os":"Linux","password":true,"vac":true,"version":"7757534","steam_id":85568392924470002,"keywords":["nocrits","nodmgspread","payload","uncletopia"],"game_id":440,"stv_port":27026,"stv_name":"Uncletopia | Sydney | 2 | All Maps | STV","players":null},{"server_id":395,"name":"Uncletopia | Sydney | 3 | All Maps","name_short":"syd-3","host":"syd-1.au.uncletopia.com","port":27035,"enabled":true,"region":"au","cc":"au","latitude":-33.865143,"longitude":151.2099,"reserved":0,"last_update":"0001-01-01T00:00:00Z","name_a2s":"Uncletopia | Sydney | 3 | All Maps","protocol":17,"map":"koth_cascade","folder":"tf","game":"Team Fortress","app_id":440,"player_count":0,"max_players":24,"Bots":0,"server_type":"Dedicated","server_os":"Linux","password":true,"vac":true,"version":"7757534","steam_id":85568392925194467,"keywords":["cp","nocrits","nodmgspread","uncletopia"],"game_id":440,"stv_port":27036,"stv_name":"Uncletopia | Sydney | 3 | All Maps | STV","players":null},{"server_id":396,"name":"Uncletopia | Sydney | 4 | All Maps","name_short":"syd-4","host":"syd-1.au.uncletopia.com","port":27045,"enabled":true,"region":"au","cc":"au","latitude":-33.865143,"longitude":151.2099,"reserved":0,"last_update":"0001-01-01T00:00:00Z","name_a2s":"Uncletopia | Sydney | 4 | All Maps","protocol":17,"map":"koth_cascade","folder":"tf","game":"Team Fortress","app_id":440,"player_count":0,"max_players":24,"Bots":0,"server_type":"Dedicated","server_os":"Linux","password":true,"vac":true,"version":"7757534","steam_id":85568392925397958,"keywords":["cp","nocrits","nodmgspread","uncletopia"],"game_id":440,"stv_port":27046,"stv_name":"Uncletopia | Sydney | 4 | All Maps | STV","players":null},{"server_id":58,"name":"Uncletopia | Sydney | 5 | Stopwatch Beta","name_short":"syd-5","host":"syd-1.au.uncletopia.com","port":27055,"enabled":true,"region":"au","cc":"au","latitude":-33.865143,"longitude":151.2099,"reserved":0,"last_update":"0001-01-01T00:00:00Z","name_a2s":"Uncletopia | Sydney | 5 | Stopwatch Beta","protocol":17,"map":"pl_upward","folder":"tf","game":"Team Fortress","app_id":440,"player_count":0,"max_players":24,"Bots":0,"server_type":"Dedicated","server_os":"Linux","password":true,"vac":true,"version":"7757534","steam_id":85568392925397959,"keywords":["nocrits","nodmgspread","payload","uncletopia"],"game_id":440,"stv_port":27056,"stv_name":"Uncletopia | Sydney | 5 | Stopwatch Beta | STV","players":null},{"server_id":59,"name":"Uncletopia | Sydney | 6 | Community","name_short":"syd-6","host":"syd-1.au.uncletopia.com","port":27065,"enabled":true,"region":"au","cc":"au","latitude":-33.865143,"longitude":151.2099,"reserved":0,"last_update":"0001-01-01T00:00:00Z","name_a2s":"Uncletopia | Sydney | 6 | Community","protocol":17,"map":"workshop/cp_reckoner_rc6.ugc674719999","folder":"tf","game":"Team Fortress","app_id":440,"player_count":0,"max_players":24,"Bots":0,"server_type":"Dedicated","server_os":"Linux","password":true,"vac":true,"version":"7757534","steam_id":85568392925397960,"keywords":["cp","nocrits","nodmgspread","uncletopia"],"game_id":440,"stv_port":27066,"stv_name":"Uncletopia | Sydney | 6 | Community | STV","players":null},{"server_id":49,"name":"Uncletopia | Warsaw | 1 | All Maps","name_short":"waw-1","host":"waw-1.pl.uncletopia.com","port":27015,"enabled":true,"region":"eu","cc":"pl","latitude":52.2297,"longitude":21.017532,"reserved":0,"last_update":"0001-01-01T00:00:00Z","name_a2s":"","protocol":0,"map":"","folder":"","game":"","app_id":0,"player_count":0,"max_players":0,"Bots":0,"server_type":"","server_os":"","password":false,"vac":false,"version":"","steam_id":0,"keywords":null,"game_id":0,"stv_port":0,"stv_name":"","players":null},{"server_id":50,"name":"Uncletopia | Warsaw | 2 | All Maps","name_short":"waw-2","host":"waw-1.pl.uncletopia.com","port":27025,"enabled":true,"region":"eu","cc":"pl","latitude":52.2297,"longitude":21.017532,"reserved":0,"last_update":"0001-01-01T00:00:00Z","name_a2s":"Uncletopia | Warsaw | 2 | All Maps","protocol":17,"map":"cp_sunshine","folder":"tf","game":"Team Fortress","app_id":440,"player_count":0,"max_players":24,"Bots":0,"server_type":"Dedicated","server_os":"Linux","password":true,"vac":true,"version":"7757534","steam_id":85568392925397851,"keywords":["cp","nocrits","nodmgspread","uncletopia"],"game_id":440,"stv_port":27026,"stv_name":"Uncletopia | Warsaw | 2 | All Maps | STV","players":null},{"server_id":51,"name":"Uncletopia | Warsaw | 3 | All Maps","name_short":"waw-3","host":"waw-1.pl.uncletopia.com","port":27035,"enabled":true,"region":"eu","cc":"pl","latitude":52.2297,"longitude":21.017532,"reserved":0,"last_update":"0001-01-01T00:00:00Z","name_a2s":"Uncletopia | Warsaw | 3 | All Maps","protocol":17,"map":"pl_badwater","folder":"tf","game":"Team Fortress","app_id":440,"player_count":21,"max_players":24,"Bots":0,"server_type":"Dedicated","server_os":"Linux","password":true,"vac":true,"version":"7757534","steam_id":85568392925397852,"keywords":["nocrits","nodmgspread","payload","uncletopia"],"game_id":440,"stv_port":27036,"stv_name":"Uncletopia | Warsaw | 3 | All Maps | STV","players":[{"user_id":3,"name":"Prinz Eugen","steam_id":76561198129154766,"connected_time":5899000000000,"state":"active","ping":80},{"user_id":97,"name":"ducks","steam_id":76561198166148685,"connected_time":500000000000,"state":"active","ping":52},{"user_id":5,"name":"Luke SpyWalker","steam_id":76561198008643276,"connected_time":5887000000000,"state":"active","ping":64},{"user_id":46,"name":"Mr. Mundy","steam_id":76561198132008918,"connected_time":4274000000000,"state":"active","ping":90},{"user_id":85,"name":"Unvid","steam_id":76561198031588080,"connected_time":1159000000000,"state":"active","ping":55},{"user_id":100,"name":"toust","steam_id":76561199103417422,"connected_time":63000000000,"state":"active","ping":61},{"user_id":53,"name":"Fish 'n' Chips","steam_id":76561198033476886,"connected_time":3638000000000,"state":"active","ping":66},{"user_id":80,"name":"Fjellape","steam_id":76561198094819884,"connected_time":1383000000000,"state":"active","ping":116},{"user_id":81,"name":"no bitches nigusman","steam_id":76561199466723428,"connected_time":1331000000000,"state":"active","ping":102},{"user_id":101,"name":"Boyarishnik","steam_id":76561198986324207,"connected_time":10000000000,"state":"spawning","ping":60},{"user_id":89,"name":"Dom.","steam_id":76561199065917088,"connected_time":987000000000,"state":"active","ping":81},{"user_id":14,"name":"Nick","steam_id":76561198036109469,"connected_time":5853000000000,"state":"active","ping":68},{"user_id":90,"name":"xyznebu","steam_id":76561198307037169,"connected_time":961000000000,"state":"active","ping":80},{"user_id":94,"name":"saushanka","steam_id":76561198954324562,"connected_time":851000000000,"state":"active","ping":101},{"user_id":76,"name":"dochris.2","steam_id":76561198026478625,"connected_time":1561000000000,"state":"active","ping":53},{"user_id":67,"name":"Albert Einstein","steam_id":76561198351190006,"connected_time":2202000000000,"state":"active","ping":69},{"user_id":99,"name":"The Kobold","steam_id":76561198406590801,"connected_time":439000000000,"state":"active","ping":204},{"user_id":48,"name":"Wattseyy","steam_id":76561198248567360,"connected_time":3958000000000,"state":"active","ping":56},{"user_id":87,"name":"Femboy Lilli","steam_id":76561198090146457,"connected_time":1126000000000,"state":"active","ping":69},{"user_id":96,"name":"radarski","steam_id":76561198996795676,"connected_time":621000000000,"state":"active","ping":55},{"user_id":77,"name":"sareena","steam_id":76561198810194062,"connected_time":1533000000000,"state":"active","ping":90}]},{"server_id":52,"name":"Uncletopia | Warsaw | 4 | All Maps","name_short":"waw-4","host":"waw-1.pl.uncletopia.com","port":27045,"enabled":true,"region":"eu","cc":"pl","latitude":52.2297,"longitude":21.017532,"reserved":0,"last_update":"0001-01-01T00:00:00Z","name_a2s":"Uncletopia | Warsaw | 4 | All Maps","protocol":17,"map":"koth_highpass","folder":"tf","game":"Team Fortress","app_id":440,"player_count":0,"max_players":24,"Bots":0,"server_type":"Dedicated","server_os":"Linux","password":true,"vac":true,"version":"7757534","steam_id":85568392925397853,"keywords":["cp","nocrits","nodmgspread","uncletopia"],"game_id":440,"stv_port":27046,"stv_name":"Uncletopia | Warsaw | 4 | All Maps | STV","players":null},{"server_id":53,"name":"Uncletopia | Warsaw | 5 | Stopwatch Beta","name_short":"waw-5","host":"waw-1.pl.uncletopia.com","port":27055,"enabled":true,"region":"eu","cc":"pl","latitude":52.2297,"longitude":21.017532,"reserved":0,"last_update":"0001-01-01T00:00:00Z","name_a2s":"Uncletopia | Warsaw | 5 | Stopwatch Beta","protocol":17,"map":"workshop/pl_summercoast_rc8e.ugc1761528829","folder":"tf","game":"Team Fortress","app_id":440,"player_count":0,"max_players":24,"Bots":0,"server_type":"Dedicated","server_os":"Linux","password":true,"vac":true,"version":"7757534","steam_id":85568392925397854,"keywords":["nocrits","nodmgspread","payload","uncletopia"],"game_id":440,"stv_port":27056,"stv_name":"Uncletopia | Warsaw | 5 | Stopwatch Beta | STV","players":null},{"server_id":54,"name":"Uncletopia | Warsaw | 6 | Community","name_short":"waw-6","host":"waw-1.pl.uncletopia.com","port":27065,"enabled":true,"region":"eu","cc":"pl","latitude":52.2297,"longitude":21.017532,"reserved":0,"last_update":"0001-01-01T00:00:00Z","name_a2s":"Uncletopia | Warsaw | 6 | Community","protocol":17,"map":"pl_barnblitz","folder":"tf","game":"Team Fortress","app_id":440,"player_count":0,"max_players":24,"Bots":0,"server_type":"Dedicated","server_os":"Linux","password":true,"vac":true,"version":"7757534","steam_id":85568392925397856,"keywords":["nocrits","nodmgspread","payload","uncletopia"],"game_id":440,"stv_port":27066,"stv_name":"Uncletopia | Warsaw | 6 | Community | STV","players":null}]}