{"status":true,"message":"","result":[{"server_id":9,"name":"Uncletopia | Atlanta | 1 | All Maps","name_short":"atl-1","host":"atl-1.us.uncletopia.com","port":27015,"enabled":true,"region":"us-east","cc":"us","latitude":33.753746,"longitude":-84.38633,"reserved":0,"last_update":"0001-01-01T00:00:00Z","name_a2s":"Uncletopia | Atlanta | 1 | All Maps","protocol":17,"map":"pl_snowycoast","folder":"tf","game":"Team Fortress","app_id":440,"player_count":24,"max_players":24,"Bots":0,"server_type":"Dedicated","server_os":"Linux","password":true,"vac":true,"version":"7961495","steam_id":85568392924469982,"keywords":["nocrits","nodmgspread","payload","uncletopia"],"game_id":440,"stv_port":27016,"stv_name":"Uncletopia | Atlanta | 1 | All Maps | STV","players":[{"user_id":704,"name":"LeTonzy","steam_id":76561198005806699,"connected_time":577000000000,"state":"active","ping":123},{"user_id":697,"name":"Shadoe","steam_id":76561198218577281,"connected_time":1034000000000,"state":"active","ping":66},{"user_id":632,"name":"DuckMann","steam_id":76561198197058638,"connected_time":6330000000000,"state":"active","ping":47},{"user_id":702,"name":"BIG HOG","steam_id":76561198079923652,"connected_time":779000000000,"state":"active","ping":67},{"user_id":689,"name":"Passionate Map Researcher","steam_id":76561199490508357,"connected_time":2562000000000,"state":"active","ping":91},{"user_id":552,"name":"River","steam_id":76561198053962431,"connected_time":12655000000000,"state":"active","ping":64},{"user_id":706,"name":"Cthulhu's Malewife","steam_id":76561198085888959,"connected_time":428000000000,"state":"active","ping":43},{"user_id":640,"name":"Bag","steam_id":76561198012395490,"connected_time":5194000000000,"state":"active","ping":60},{"user_id":708,"name":"iiamiizzyy","steam_id":76561198355030751,"connected_time":357000000000,"state":"active","ping":82},{"user_id":701,"name":"trayer","steam_id":76561198050729672,"connected_time":891000000000,"state":"active","ping":104},{"user_id":684,"name":"Joan The Kisaragi Cat","steam_id":76561199370650064,"connected_time":2598000000000,"state":"active","ping":83},{"user_id":700,"name":"A Turtle","steam_id":76561198060194520,"connected_time":911000000000,"state":"active","ping":134},{"user_id":691,"name":"Shmoopy","steam_id":76561198030459152,"connected_time":1981000000000,"state":"active","ping":61},{"user_id":567,"name":"marguerite","steam_id":76561198170873495,"connected_time":11540000000000,"state":"active","ping":52},{"user_id":703,"name":"SHADOW","steam_id":76561198207768148,"connected_time":763000000000,"state":"active","ping":108},{"user_id":690,"name":"Maestro","steam_id":76561198157325020,"connected_time":2454000000000,"state":"active","ping":65},{"user_id":695,"name":"lu","steam_id":76561198080731872,"connected_time":1086000000000,"state":"active","ping":77},{"user_id":527,"name":"Shame","steam_id":76561198100490994,"connected_time":15623000000000,"state":"active","ping":67},{"user_id":692,"name":"SAGE(‡§∏‡§ó‡•á*)","steam_id":76561198811114074,"connected_time":1864000000000,"state":"active","ping":78},{"user_id":705,"name":"O.G. C.E.O","steam_id":76561198063928325,"connected_time":548000000000,"state":"active","ping":68},{"user_id":676,"name":"bobby","steam_id":76561198082277044,"connected_time":2884000000000,"state":"active","ping":45},{"user_id":698,"name":"‚ô•Boy Pussy‚ô•","steam_id":76561199121980584,"connected_time":1033000000000,"state":"active","ping":53},{"user_id":638,"name":"Lunagriff","steam_id":76561198036889008,"connected_time":5600000000000,"state":"active","ping":56},{"user_id":649,"name":"lil hog","steam_id":76561199230929836,"connected_time":4525000000000,"state":"active","ping":86}]},{"server_id":104,"name":"Uncletopia | Atlanta | 2 | All Maps","name_short":"atl-2","host":"atl-1.us.uncletopia.com","port":27025,"enabled":true,"region":"us-east","cc":"us","latitude":33.753746,"longitude":-84.38633,"reserved":0,"last_update":"0001-01-01T00:00:00Z","name_a2s":"Uncletopia | Atlanta | 2 | All Maps","protocol":17,"map":"pl_frontier_final","folder":"tf","game":"Team Fortress","app_id":440,"player_count":20,"max_players":24,"Bots":0,"server_type":"Dedicated","server_os":"Linux","password":true,"vac":true,"version":"7961495","steam_id":85568392924469983,"keywords":["nocrits","nodmgspread","payload","uncletopia"],"game_id":440,"stv_port":27026,"stv_name":"Uncletopia | Atlanta | 2 | All Maps | STV","players":[{"user_id":689,"name":"‚ú™ TedBear2142 ‚ú™","steam_id":76561198006481210,"connected_time":1108000000000,"state":"connecting","ping":87},{"user_id":707,"name":"Petnamer","steam_id":76561197970566481,"connected_time":225000000000,"state":"connecting","ping":120},{"user_id":706,"name":"astrobob911","steam_id":76561199099110654,"connected_time":346000000000,"state":"connecting","ping":99},{"user_id":684,"name":"fawn","steam_id":76561198043684960,"connected_time":1395000000000,"state":"connecting","ping":68},{"user_id":583,"name":"ArcticTone","steam_id":76561199163932146,"connected_time":9834000000000,"state":"connecting","ping":71},{"user_id":552,"name":"Lee?","steam_id":76561199060892634,"connected_time":12612000000000,"state":"connecting","ping":77},{"user_id":601,"name":"Mana_Kaktus","steam_id":76561198110468307,"connected_time":7908000000000,"state":"connecting","ping":68},{"user_id":657,"name":"guy","steam_id":76561198163306561,"connected_time":2771000000000,"state":"connecting","ping":78},{"user_id":587,"name":"Crescent","steam_id":76561198095124633,"connected_time":9764000000000,"state":"connecting","ping":82},{"user_id":664,"name":"Spyce","steam_id":76561199034270259,"connected_time":2225000000000,"state":"connecting","ping":73},{"user_id":696,"name":"C‚àÖRVUS","steam_id":76561198100640019,"connected_time":967000000000,"state":"connecting","ping":150},{"user_id":700,"name":"Space Captainface","steam_id":76561197995103493,"connected_time":710000000000,"state":"connecting","ping":121},{"user_id":703,"name":"Gay Cake","steam_id":76561198004388831,"connected_time":583000000000,"state":"connecting","ping":99},{"user_id":709,"name":"Captain Zyrin","steam_id":76561197983121824,"connected_time":34000000000,"state":"connecting","ping":100},{"user_id":694,"name":"J√ºgen","steam_id":76561198067143414,"connected_time":1059000000000,"state":"connecting","ping":88},{"user_id":681,"name":"crunchy obama","steam_id":76561198044485217,"connected_time":1569000000000,"state":"connecting","ping":111},{"user_id":704,"name":"Liminality","steam_id":76561198002601402,"connected_time":559000000000,"state":"connecting","ping":124},{"user_id":695,"name":"Blo'Hole Blast","steam_id":76561199035402139,"connected_time":1049000000000,"state":"connecting","ping":133},{"user_id":701,"name":"Entar","steam_id":76561197968661166,"connected_time":687000000000,"state":"connecting","ping":85},{"user_id":708,"name":"jandajanda","steam_id":76561198235722476,"connected_time":192000000000,"state":"connecting","ping":71}]},{"server_id":400,"name":"Uncletopia | Atlanta | 3 | Stopwatch","name_short":"atl-3","host":"atl-1.us.uncletopia.com","port":27035,"enabled":true,"region":"us-east","cc":"us","latitude":33.753746,"longitude":-84.38633,"reserved":0,"last_update":"0001-01-01T00:00:00Z","name_a2s":"Uncletopia | Atlanta | 3 | Stopwatch","protocol":17,"map":"koth_highpass","folder":"tf","game":"Team Fortress","app_id":440,"player_count":0,"max_players":24,"Bots":0,"server_type":"Dedicated","server_os":"Linux","password":true,"vac":true,"version":"7961495","steam_id":85568392924515187,"keywords":["cp","nocrits","nodmgspread","uncletopia"],"game_id":440,"stv_port":27036,"stv_name":"Uncletopia | Atlanta | 3 | Stopwatch | STV","players":null},{"server_id":401,"name":"Uncletopia | Atlanta | 4 | Community","name_short":"atl-4","host":"atl-1.us.uncletopia.com","port":27045,"enabled":true,"region":"us-east","cc":"us","latitude":33.753746,"longitude":-84.38633,"reserved":0,"last_update":"0001-01-01T00:00:00Z","name_a2s":"Uncletopia | Atlanta | 4 | Community","protocol":17,"map":"workshop/koth_trenchfoot_ab1.ugc731436616","folder":"tf","game":"Team Fortress","app_id":440,"player_count":0,"max_players":24,"Bots":0,"server_type":"Dedicated","server_os":"Linux","password":true,"vac":true,"version":"7961495","steam_id":85568392924515188,"keywords":["cp","nocrits","nodmgspread","uncletopia"],"game_id":440,"stv_port":27046,"stv_name":"Uncletopia | Atlanta | 4 | Community | STV","players":null},{"server_id":2,"name":"Uncletopia | Chicago | 1 | All Maps","name_short":"chi-1","host":"chi-1.us.uncletopia.com","port":27015,"enabled":true,"region":"us-central","cc":"us","latitude":41.881832,"longitude":-87.62318,"reserved":0,"last_update":"0001-01-01T00:00:00Z","name_a2s":"Uncletopia | Chicago | 1 | All Maps","protocol":17,"map":"cp_snakewater_final1","folder":"tf","game":"Team Fortress","app_id":440,"player_count":24,"max_players":24,"Bots":0,"server_type":"Dedicated","server_os":"Linux","password":true,"vac":true,"version":"7961495","steam_id":85568392924469984,"keywords":["cp","nocrits","nodmgspread","uncletopia"],"game_id":440,"stv_port":27016,"stv_name":"Uncletopia | Chicago | 1 | All Maps | STV","players":[{"user_id":863,"name":"DevoutPage14990","steam_id":76561198831347354,"connected_time":652000000000,"state":"active","ping":68},{"user_id":848,"name":"BANDIDO","steam_id":76561199509676031,"connected_time":1273000000000,"state":"active","ping":45},{"user_id":826,"name":"Your Local Queer Librarian","steam_id":76561198013077080,"connected_time":3975000000000,"state":"active","ping":55},{"user_id":735,"name":"HealDaddy (SMOKE)","steam_id":76561198017631728,"connected_time":10562000000000,"state":"active","ping":60},{"user_id":810,"name":"Sunny D+","steam_id":76561197999371052,"connected_time":5733000000000,"state":"active","ping":54},{"user_id":846,"name":"bowswer","steam_id":76561198058309962,"connected_time":1460000000000,"state":"active","ping":82},{"user_id":806,"name":"PickleHater13","steam_id":76561198259380127,"connected_time":6129000000000,"state":"active","ping":55},{"user_id":841,"name":"Bee","steam_id":76561198074681324,"connected_time":1723000000000,"state":"active","ping":59},{"user_id":847,"name":"Aristotle Voulton","steam_id":76561198100174923,"connected_time":1442000000000,"state":"active","ping":82},{"user_id":828,"name":"Big Business","steam_id":76561198353366625,"connected_time":3546000000000,"state":"active","ping":88},{"user_id":849,"name":"LVL","steam_id":76561198334403617,"connected_time":1273000000000,"state":"active","ping":59},{"user_id":795,"name":"SPIRE_FAN","steam_id":76561198001486573,"connected_time":8370000000000,"state":"active","ping":71},{"user_id":859,"name":"tk","steam_id":76561198090506450,"connected_time":1111000000000,"state":"active","ping":77},{"user_id":851,"name":"roachie","steam_id":76561198136642793,"connected_time":1267000000000,"state":"active","ping":74},{"user_id":852,"name":"FELON #COMEGETME","steam_id":76561198144766439,"connected_time":1260000000000,"state":"active","ping":45},{"user_id":755,"name":"Rw","steam_id":76561198124645863,"connected_time":9135000000000,"state":"active","ping":65},{"user_id":853,"name":"GrummBlumm","steam_id":76561198243035656,"connected_time":1253000000000,"state":"active","ping":59},{"user_id":860,"name":"{FITH}‚Ñ¢ Halcyon","steam_id":76561198049132808,"connected_time":921000000000,"state":"active","ping":62},{"user_id":838,"name":"brotalium","steam_id":76561198055439054,"connected_time":2080000000000,"state":"active","ping":70},{"user_id":854,"name":"gyozaking","steam_id":76561197972312696,"connected_time":1244000000000,"state":"active","ping":47},{"user_id":843,"name":"Castroy","steam_id":76561198108160099,"connected_time":1516000000000,"state":"active","ping":59},{"user_id":855,"name":"KimonoBoxFox","steam_id":76561197968892800,"connected_time":1233000000000,"state":"active","ping":105},{"user_id":856,"name":"Ghost \"With the Most\" Toastee","steam_id":76561198085410969,"connected_time":1232000000000,"state":"active","ping":42},{"user_id":857,"name":"chicano.sorcerer.94","steam_id":76561198154449875,"connected_time":1227000000000,"state":"active","ping":110}]},{"server_id":106,"name":"Uncletopia | Chicago | 2 | All Maps","name_short":"chi-2","host":"chi-1.us.uncletopia.com","port":27025,"enabled":true,"region":"us-central","cc":"us","latitude":41.881832,"longitude":-87.62318,"reserved":0,"last_update":"0001-01-01T00:00:00Z","name_a2s":"Uncletopia | Chicago | 2 | All Maps","protocol":17,"map":"pl_frontier_final","folder":"tf","game":"Team Fortress","app_id":440,"player_count":11,"max_players":24,"Bots":0,"server_type":"Dedicated","server_os":"Linux","password":true,"vac":true,"version":"7961495","steam_id":85568392924469985,"keywords":["nocrits","nodmgspread","payload","uncletopia"],"game_id":440,"stv_port":27026,"stv_name":"Uncletopia | Chicago | 2 | All Maps | STV","players":[{"user_id":667,"name":"Whimsy!","steam_id":76561197989578836,"connected_time":1392000000000,"state":"active","ping":93},{"user_id":685,"name":"The Assistant Regional Manager","steam_id":76561199221484936,"connected_time":39000000000,"state":"active","ping":119},{"user_id":678,"name":"system of a down BADDIE :OOOOO","steam_id":76561198138674818,"connected_time":446000000000,"state":"active","ping":54},{"user_id":670,"name":"Roken","steam_id":76561198037836282,"connected_time":972000000000,"state":"active","ping":74},{"user_id":677,"name":"aero","steam_id":76561198297202459,"connected_time":502000000000,"state":"active","ping":62},{"user_id":683,"name":"The Alex","steam_id":76561198044016385,"connected_time":161000000000,"state":"active","ping":73},{"user_id":679,"name":"crushfan","steam_id":76561199030310670,"connected_time":437000000000,"state":"active","ping":88},{"user_id":680,"name":"BasicallySpring","steam_id":76561198953818016,"connected_time":429000000000,"state":"active","ping":76},{"user_id":673,"name":"Bloodborne","steam_id":76561198072541436,"connected_time":927000000000,"state":"active","ping":46},{"user_id":674,"name":"barf drinker","steam_id":76561199144640325,"connected_time":913000000000,"state":"active","ping":60},{"user_id":665,"name":"BoopBerry","steam_id":76561198871571711,"connected_time":1999000000000,"state":"active","ping":58}]},{"server_id":402,"name":"Uncletopia | Chicago | 3 | All Maps","name_short":"chi-3","host":"chi-1.us.uncletopia.com","port":27035,"enabled":true,"region":"us-central","cc":"us","latitude":41.881832,"longitude":-87.62318,"reserved":0,"last_update":"0001-01-01T00:00:00Z","name_a2s":"Uncletopia | Chicago | 3 | All Maps","protocol":17,"map":"pl_pier","folder":"tf","game":"Team Fortress","app_id":440,"player_count":24,"max_players":24,"Bots":0,"server_type":"Dedicated","server_os":"Linux","password":true,"vac":true,"version":"7961495","steam_id":85568392924515191,"keywords":["nocrits","nodmgspread","payload","uncletopia"],"game_id":440,"stv_port":27036,"stv_name":"Uncletopia | Chicago | 3 | All Maps | STV","players":[{"user_id":532,"name":"harambe 101","steam_id":76561198366850003,"connected_time":1347000000000,"state":"active","ping":139},{"user_id":530,"name":"2L84U","steam_id":76561198079176017,"connected_time":1450000000000,"state":"active","ping":88},{"user_id":457,"name":"Wockicity","steam_id":76561198067176829,"connected_time":6408000000000,"state":"active","ping":119},{"user_id":544,"name":"Sam","steam_id":76561198012364798,"connected_time":488000000000,"state":"active","ping":45},{"user_id":495,"name":"wise","steam_id":76561198030066204,"connected_time":4889000000000,"state":"active","ping":49},{"user_id":506,"name":"twix","steam_id":76561198040912048,"connected_time":3376000000000,"state":"active","ping":53},{"user_id":496,"name":"Starfruit66","steam_id":76561198069917277,"connected_time":4864000000000,"state":"active","ping":104},{"user_id":520,"name":"The Ancient Tome Scryer","steam_id":76561198811958825,"connected_time":2680000000000,"state":"active","ping":47},{"user_id":547,"name":"mak","steam_id":76561198071535971,"connected_time":286000000000,"state":"active","ping":101},{"user_id":538,"name":"‚∏∏ gaige ‚õß","steam_id":76561198090576796,"connected_time":1011000000000,"state":"active","ping":53},{"user_id":528,"name":"Sneed ‡∏Ö^‚Ä¢Ôªå‚Ä¢^‡∏Ö","steam_id":76561198161165713,"connected_time":1502000000000,"state":"active","ping":69},{"user_id":545,"name":"mopsyNYAA","steam_id":76561199044347663,"connected_time":300000000000,"state":"active","ping":45},{"user_id":512,"name":"The Great Bearer of Wealth","steam_id":76561198352687317,"connected_time":2803000000000,"state":"active","ping":78},{"user_id":546,"name":"Large Man","steam_id":76561198880396651,"connected_time":294000000000,"state":"active","ping":94},{"user_id":493,"name":"shitass | troutsupply.net","steam_id":76561198210572481,"connected_time":4940000000000,"state":"active","ping":81},{"user_id":533,"name":"wetto","steam_id":76561198224811504,"connected_time":1344000000000,"state":"active","ping":68},{"user_id":539,"name":"M4xW3LL","steam_id":76561198828562719,"connected_time":950000000000,"state":"active","ping":63},{"user_id":534,"name":"tigermouse1939","steam_id":76561199078976251,"connected_time":1340000000000,"state":"active","ping":122},{"user_id":549,"name":"[SLAG]redgunnit","steam_id":76561198058053644,"connected_time":230000000000,"state":"active","ping":60},{"user_id":540,"name":"cow","steam_id":76561198117331762,"connected_time":646000000000,"state":"active","ping":46},{"user_id":548,"name":"Merchant","steam_id":76561198130468663,"connected_time":248000000000,"state":"active","ping":51},{"user_id":526,"name":"The Sultan of Shmeat","steam_id":76561198072500352,"connected_time":1780000000000,"state":"active","ping":73},{"user_id":541,"name":"dabsol","steam_id":76561198272096751,"connected_time":619000000000,"state":"active","ping":58},{"user_id":550,"name":"Skyline","steam_id":76561198018382060,"connected_time":230000000000,"state":"active","ping":60}]},{"server_id":403,"name":"Uncletopia | Chicago | 4 | All Maps","name_short":"chi-4","host":"chi-1.us.uncletopia.com","port":27045,"enabled":true,"region":"us-central","cc":"us","latitude":41.881832,"longitude":-87.62318,"reserved":0,"last_update":"0001-01-01T00:00:00Z","name_a2s":"Uncletopia | Chicago | 4 | All Maps","protocol":17,"map":"cp_mossrock","folder":"tf","game":"Team Fortress","app_id":440,"player_count":24,"max_players":24,"Bots":0,"server_type":"Dedicated","server_os":"Linux","password":true,"vac":true,"version":"7961495","steam_id":85568392924515193,"keywords":["cp","nocrits","nodmgspread","uncletopia"],"game_id":440,"stv_port":27046,"stv_name":"Uncletopia | Chicago | 4 | All Maps | STV","players":[{"user_id":708,"name":"TheLastBed","steam_id":76561198083103544,"connected_time":3453000000000,"state":"active","ping":63},{"user_id":728,"name":"lester375jimenez","steam_id":76561199301390498,"connected_time":1723000000000,"state":"active","ping":102},{"user_id":722,"name":"type \"bad med\" to kick","steam_id":76561198076402476,"connected_time":1800000000000,"state":"active","ping":115},{"user_id":737,"name":"NarDuu","steam_id":76561198081707619,"connected_time":1235000000000,"state":"active","ping":93},{"user_id":705,"name":"Menachem","steam_id":76561198041226420,"connected_time":3637000000000,"state":"active","ping":49},{"user_id":744,"name":"Jibanyanlnewells69","steam_id":76561198337420431,"connected_time":992000000000,"state":"active","ping":59},{"user_id":739,"name":"big scary fish","steam_id":76561198073269122,"connected_time":1179000000000,"state":"active","ping":63},{"user_id":740,"name":"taco bell jizz balls","steam_id":76561199041179985,"connected_time":1169000000000,"state":"active","ping":104},{"user_id":711,"name":"PunAdvice","steam_id":76561198055428778,"connected_time":3163000000000,"state":"active","ping":70},{"user_id":735,"name":"Queen Frau the Round","steam_id":76561197999942134,"connected_time":1312000000000,"state":"active","ping":45},{"user_id":736,"name":"turnip","steam_id":76561197999375941,"connected_time":1298000000000,"state":"active","ping":77},{"user_id":725,"name":"johnny_potatoes","steam_id":76561198823526581,"connected_time":1746000000000,"state":"active","ping":71},{"user_id":752,"name":"Spy Kart 2","steam_id":76561199486212244,"connected_time":632000000000,"state":"active","ping":81},{"user_id":646,"name":"rude boi","steam_id":76561198006783260,"connected_time":6414000000000,"state":"active","ping":63},{"user_id":743,"name":"motherfucker 2.0","steam_id":76561198141189209,"connected_time":1110000000000,"state":"active","ping":65},{"user_id":647,"name":"kaputon","steam_id":76561198146299782,"connected_time":6358000000000,"state":"active","ping":64},{"user_id":745,"name":"Just some clown","steam_id":76561198998953018,"connected_time":989000000000,"state":"active","ping":105},{"user_id":733,"name":"._.","steam_id":76561198820617005,"connected_time":1529000000000,"state":"active","ping":109},{"user_id":727,"name":"Pinhed Lary","steam_id":76561198378320706,"connected_time":1736000000000,"state":"active","ping":76},{"user_id":746,"name":"CheeZeyRat","steam_id":76561199473394284,"connected_time":982000000000,"state":"active","ping":81},{"user_id":754,"name":"squash","steam_id":76561198150281353,"connected_time":483000000000,"state":"active","ping":102},{"user_id":747,"name":"Saphyra","steam_id":76561198110951985,"connected_time":934000000000,"state":"active","ping":75},{"user_id":750,"name":"Le Meilleur","steam_id":76561198054581325,"connected_time":726000000000,"state":"active","ping":59},{"user_id":632,"name":"Shrebbie","steam_id":76561198875230824,"connected_time":8288000000000,"state":"active","ping":62}]},{"server_id":36,"name":"Uncletopia | Chicago | 5 | All Maps","name_short":"chi-5","host":"chi-2.us.uncletopia.com","port":27015,"enabled":true,"region":"us-central","cc":"us","latitude":41.881832,"longitude":-87.62318,"reserved":0,"last_update":"0001-01-01T00:00:00Z","name_a2s":"Uncletopia | Chicago | 5 | All Maps","protocol":17,"map":"pl_frontier_final","folder":"tf","game":"Team Fortress","app_id":440,"player_count":4,"max_players":24,"Bots":0,"server_type":"Dedicated","server_os":"Linux","password":true,"vac":true,"version":"7961495","steam_id":85568392924866362,"keywords":["nocrits","nodmgspread","payload","uncletopia"],"game_id":440,"stv_port":27016,"stv_name":"Uncletopia | Chicago | 5 | All Maps | STV","players":[{"user_id":686,"name":"Surprise! I'm From Cuba","steam_id":76561198044856349,"connected_time":142000000000,"state":"active","ping":57},{"user_id":687,"name":"Grandad","steam_id":76561198931285831,"connected_time":96000000000,"state":"active","ping":74},{"user_id":678,"name":"The strongest ‚ë® ball","steam_id":76561198126760743,"connected_time":1382000000000,"state":"active","ping":64},{"user_id":435,"name":"Uwu Micster","steam_id":76561198843890616,"connected_time":16728000000000,"state":"active","ping":90}]},{"server_id":37,"name":"Uncletopia | Chicago | 6 | All Maps","name_short":"chi-6","host":"chi-2.us.uncletopia.com","port":27025,"enabled":true,"region":"us-central","cc":"us","latitude":41.881832,"longitude":-87.62318,"reserved":0,"last_update":"0001-01-01T00:00:00Z","name_a2s":"Uncletopia | Chicago | 6 | All Maps","protocol":17,"map":"cp_sunshine","folder":"tf","game":"Team Fortress","app_id":440,"player_count":24,"max_players":24,"Bots":0,"server_type":"Dedicated","server_os":"Linux","password":true,"vac":true,"version":"7961495","steam_id":85568392924866363,"keywords":["cp","nocrits","nodmgspread","uncletopia"],"game_id":440,"stv_port":27026,"stv_name":"Uncletopia | Chicago | 6 | All Maps | STV","players":[{"user_id":281,"name":"don tomas","steam_id":76561199050423086,"connected_time":5234000000000,"state":"active","ping":141},{"user_id":325,"name":"Onion Mayonnaise Soda","steam_id":76561198092483430,"connected_time":1229000000000,"state":"active","ping":78},{"user_id":310,"name":"SirKnightOwl","steam_id":76561199065885597,"connected_time":2118000000000,"state":"active","ping":118},{"user_id":306,"name":"HyperGalvanized","steam_id":76561198029262451,"connected_time":3231000000000,"state":"active","ping":79},{"user_id":312,"name":"Major Coom","steam_id":76561198038371512,"connected_time":1710000000000,"state":"active","ping":79},{"user_id":326,"name":"local man","steam_id":76561198074946673,"connected_time":1169000000000,"state":"active","ping":64},{"user_id":313,"name":"bitchtiddes","steam_id":76561199008352469,"connected_time":1624000000000,"state":"active","ping":68},{"user_id":293,"name":"DiscoTraveler","steam_id":76561199240168088,"connected_time":4064000000000,"state":"active","ping":63},{"user_id":322,"name":"dum","steam_id":76561198053386482,"connected_time":1284000000000,"state":"active","ping":74},{"user_id":314,"name":"Bat","steam_id":76561198278728161,"connected_time":1610000000000,"state":"active","ping":60},{"user_id":327,"name":"frank","steam_id":76561198137777483,"connected_time":1061000000000,"state":"active","ping":72},{"user_id":285,"name":"devorameeltrozo","steam_id":76561199153217772,"connected_time":4781000000000,"state":"active","ping":123},{"user_id":315,"name":"Furburger","steam_id":76561198403649648,"connected_time":1602000000000,"state":"active","ping":55},{"user_id":337,"name":"Le Ruse Bird","steam_id":76561198044890333,"connected_time":340000000000,"state":"active","ping":65},{"user_id":316,"name":"Boomerang_Monkey","steam_id":76561198849970999,"connected_time":1570000000000,"state":"active","ping":62},{"user_id":299,"name":"BlueSceptile","steam_id":76561198303151606,"connected_time":3836000000000,"state":"active","ping":85},{"user_id":317,"name":"Spinerx7","steam_id":76561198987597383,"connected_time":1556000000000,"state":"active","ping":53},{"user_id":328,"name":"MedRed‚Ñ¢ #IATAH","steam_id":76561198002962970,"connected_time":1056000000000,"state":"active","ping":93},{"user_id":332,"name":"Pollen Buying Skins \u0026 Backpacks","steam_id":76561198061779536,"connected_time":830000000000,"state":"active","ping":79},{"user_id":333,"name":"ChampionOfSheets","steam_id":76561198297380028,"connected_time":796000000000,"state":"active","ping":86},{"user_id":331,"name":"Zinc","steam_id":76561198025303928,"connected_time":1003000000000,"state":"active","ping":83},{"user_id":334,"name":"sithreis","steam_id":76561198000564263,"connected_time":618000000000,"state":"active","ping":74},{"user_id":335,"name":"AlecTheNefarious","steam_id":76561198035291230,"connected_time":613000000000,"state":"active","ping":72},{"user_id":336,"name":"lanoc","steam_id":76561198055415367,"connected_time":612000000000,"state":"active","ping":61}]},{"server_id":38,"name":"Uncletopia | Chicago | 7 | Stopwatch","name_short":"chi-7","host":"chi-2.us.uncletopia.com","port":27035,"enabled":true,"region":"us-central","cc":"us","latitude":41.881832,"longitude":-87.62318,"reserved":0,"last_update":"0001-01-01T00:00:00Z","name_a2s":"Uncletopia | Chicago | 7 | Stopwatch","protocol":17,"map":"koth_highpass","folder":"tf","game":"Team Fortress","app_id":440,"player_count":8,"max_players":24,"Bots":0,"server_type":"Dedicated","server_os":"Linux","password":true,"vac":true,"version":"7961495","steam_id":85568392924866364,"keywords":["cp","nocrits","nodmgspread","uncletopia"],"game_id":440,"stv_port":27036,"stv_name":"Uncletopia | Chicago | 7 | Stopwatch | STV","players":[{"user_id":30,"name":"Kobbert","steam_id":76561198045040833,"connected_time":6732000000000,"state":"active","ping":45},{"user_id":31,"name":"FELONIOUS MONK","steam_id":76561198201872929,"connected_time":6723000000000,"state":"active","ping":58},{"user_id":32,"name":"CreateADebate","steam_id":76561198115760035,"connected_time":6713000000000,"state":"active","ping":61},{"user_id":121,"name":"What's he building in there","steam_id":76561198271907916,"connected_time":264000000000,"state":"active","ping":52},{"user_id":123,"name":"A lost cow.","steam_id":76561198047673765,"connected_time":22000000000,"state":"active","ping":76},{"user_id":103,"name":"Blaze","steam_id":76561198043797702,"connected_time":1966000000000,"state":"active","ping":50},{"user_id":60,"name":"SoWhich","steam_id":76561198237125842,"connected_time":4954000000000,"state":"active","ping":50},{"user_id":68,"name":"gonzalez2014","steam_id":76561199422766504,"connected_time":4393000000000,"state":"active","ping":96}]},{"server_id":39,"name":"Uncletopia | Chicago | 8 | Community","name_short":"chi-8","host":"chi-2.us.uncletopia.com","port":27045,"enabled":true,"region":"us-central","cc":"us","latitude":41.881832,"longitude":-87.62318,"reserved":0,"last_update":"0001-01-01T00:00:00Z","name_a2s":"Uncletopia | Chicago | 8 | Community","protocol":17,"map":"workshop/koth_slaughter_rc1.ugc1712845210","folder":"tf","game":"Team Fortress","app_id":440,"player_count":0,"max_players":24,"Bots":0,"server_type":"Dedicated","server_os":"Linux","password":true,"vac":true,"version":"7961495","steam_id":85568392924866365,"keywords":["cp","nocrits","nodmgspread","uncletopia"],"game_id":440,"stv_port":27046,"stv_name":"Uncletopia | Chicago | 8 | Community | STV","players":null},{"server_id":8,"name":"Uncletopia | Dallas | 1 | All Maps","name_short":"dal-1","host":"dal-1.us.uncletopia.com","port":27015,"enabled":true,"region":"us-central","cc":"us","latitude":32.779167,"longitude":-96.80889,"reserved":0,"last_update":"0001-01-01T00:00:00Z","name_a2s":"Uncletopia | Dallas | 1 | All Maps","protocol":17,"map":"cp_gorge","folder":"tf","game":"Team Fortress","app_id":440,"player_count":24,"max_players":24,"Bots":0,"server_type":"Dedicated","server_os":"Linux","password":true,"vac":true,"version":"7961495","steam_id":85568392924469986,"keywords":["cp","nocrits","nodmgspread","uncletopia"],"game_id":440,"stv_port":27016,"stv_name":"Uncletopia | Dallas | 1 | All Maps | STV","players":[{"user_id":594,"name":"Wooden E","steam_id":76561198020308956,"connected_time":6225000000000,"state":"active","ping":63},{"user_id":639,"name":"Pvt. Dimitri Petrenko","steam_id":76561198078040091,"connected_time":1762000000000,"state":"active","ping":62},{"user_id":571,"name":"ATLS1 | Strange Festive","steam_id":76561198050385093,"connected_time":9085000000000,"state":"active","ping":89},{"user_id":643,"name":"ferby","steam_id":76561198028229594,"connected_time":925000000000,"state":"active","ping":83},{"user_id":644,"name":"Rearranging furniture","steam_id":76561199054971009,"connected_time":858000000000,"state":"active","ping":51},{"user_id":632,"name":"ZILICON","steam_id":76561199044705592,"connected_time":2536000000000,"state":"active","ping":107},{"user_id":623,"name":"Bigfoot ate my ass","steam_id":76561198071605190,"connected_time":3198000000000,"state":"active","ping":75},{"user_id":620,"name":"HoneyBadger","steam_id":76561198129202829,"connected_time":3742000000000,"state":"active","ping":71},{"user_id":600,"name":"Robogineer","steam_id":76561198026994739,"connected_time":5971000000000,"state":"active","ping":78},{"user_id":629,"name":"Butteryback","steam_id":76561198049642485,"connected_time":2649000000000,"state":"active","ping":61},{"user_id":637,"name":"Rat Cycle","steam_id":76561198113364714,"connected_time":2454000000000,"state":"active","ping":77},{"user_id":645,"name":"floofy","steam_id":76561198389769098,"connected_time":855000000000,"state":"active","ping":83},{"user_id":633,"name":"daemon","steam_id":76561198001541433,"connected_time":2531000000000,"state":"active","ping":76},{"user_id":587,"name":"Andrew's Taint","steam_id":76561198131400543,"connected_time":6966000000000,"state":"active","ping":71},{"user_id":624,"name":"Gl√ºhbirne","steam_id":76561198189278869,"connected_time":3190000000000,"state":"active","ping":70},{"user_id":590,"name":"talented","steam_id":76561198800259660,"connected_time":6686000000000,"state":"active","ping":64},{"user_id":573,"name":"iluvtoust","steam_id":76561198869269207,"connected_time":8854000000000,"state":"active","ping":53},{"user_id":649,"name":"CongitionCram","steam_id":76561198824203909,"connected_time":629000000000,"state":"active","ping":87},{"user_id":635,"name":"Dukino","steam_id":76561198008455368,"connected_time":2519000000000,"state":"active","ping":65},{"user_id":628,"name":"EvilPi99let","steam_id":76561197987243470,"connected_time":2651000000000,"state":"active","ping":84},{"user_id":646,"name":"AzuriousAlex","steam_id":76561198158026405,"connected_time":839000000000,"state":"active","ping":73},{"user_id":647,"name":"antediluvian death angel","steam_id":76561199001918194,"connected_time":828000000000,"state":"active","ping":81},{"user_id":648,"name":"Imrgrim","steam_id":76561198135866481,"connected_time":828000000000,"state":"active","ping":64},{"user_id":576,"name":"lover is my jean billie not","steam_id":76561198054070811,"connected_time":8093000000000,"state":"active","ping":76}]},{"server_id":108,"name":"Uncletopia | Dallas | 2 | All Maps","name_short":"dal-2","host":"dal-1.us.uncletopia.com","port":27025,"enabled":true,"region":"us-central","cc":"us","latitude":32.779167,"longitude":-96.80889,"reserved":0,"last_update":"0001-01-01T00:00:00Z","name_a2s":"Uncletopia | Dallas | 2 | All Maps","protocol":17,"map":"pl_barnblitz","folder":"tf","game":"Team Fortress","app_id":440,"player_count":24,"max_players":24,"Bots":0,"server_type":"Dedicated","server_os":"Linux","password":true,"vac":true,"version":"7961495","steam_id":85568392924469988,"keywords":["nocrits","nodmgspread","payload","uncletopia"],"game_id":440,"stv_port":27026,"stv_name":"Uncletopia | Dallas | 2 | All Maps | STV","players":[{"user_id":763,"name":"Glanderson booper","steam_id":76561198021223747,"connected_time":289000000000,"state":"active","ping":108},{"user_id":725,"name":"Raian","steam_id":76561199138048671,"connected_time":2294000000000,"state":"active","ping":75},{"user_id":732,"name":"stuffedidiot","steam_id":76561199181513019,"connected_time":2112000000000,"state":"active","ping":119},{"user_id":717,"name":"Muselk, but mexican","steam_id":76561199289676387,"connected_time":2608000000000,"state":"active","ping":63},{"user_id":668,"name":"Junowo","steam_id":76561199136179696,"connected_time":5930000000000,"state":"active","ping":87},{"user_id":750,"name":"Random","steam_id":76561198318879454,"connected_time":1116000000000,"state":"active","ping":83},{"user_id":758,"name":"DeckofDragons","steam_id":76561198057398213,"connected_time":505000000000,"state":"active","ping":66},{"user_id":747,"name":"qawzse543","steam_id":76561198049425694,"connected_time":1332000000000,"state":"active","ping":139},{"user_id":756,"name":"Kelbo","steam_id":76561197999557126,"connected_time":662000000000,"state":"active","ping":45},{"user_id":761,"name":"eatmysteel","steam_id":76561198976437527,"connected_time":327000000000,"state":"active","ping":74},{"user_id":757,"name":"Jerry","steam_id":76561199257383826,"connected_time":527000000000,"state":"active","ping":68},{"user_id":719,"name":"schmuck","steam_id":76561198143789773,"connected_time":2484000000000,"state":"active","ping":56},{"user_id":709,"name":"minecraft","steam_id":76561198104345201,"connected_time":3093000000000,"state":"active","ping":82},{"user_id":743,"name":"Bond","steam_id":76561198089262776,"connected_time":1678000000000,"state":"active","ping":60},{"user_id":740,"name":"Equal Opportunity Asskicker","steam_id":76561198286792807,"connected_time":1794000000000,"state":"active","ping":78},{"user_id":764,"name":"anonEDM","steam_id":76561197976560316,"connected_time":59000000000,"state":"active","ping":98},{"user_id":745,"name":"Username","steam_id":76561198198918781,"connected_time":1503000000000,"state":"active","ping":124},{"user_id":730,"name":"transfem atsuko kagari","steam_id":76561198217402847,"connected_time":2218000000000,"state":"active","ping":89},{"user_id":741,"name":"Tony","steam_id":76561198169799653,"connected_time":1793000000000,"state":"active","ping":60},{"user_id":760,"name":"YouR dad","steam_id":76561198044013623,"connected_time":480000000000,"state":"active","ping":77},{"user_id":754,"name":"shinon","steam_id":76561198373626848,"connected_time":965000000000,"state":"active","ping":78},{"user_id":752,"name":"i got a new old mouse","steam_id":76561198421913648,"connected_time":1047000000000,"state":"active","ping":121},{"user_id":697,"name":"Baconator","steam_id":76561198941700660,"connected_time":4421000000000,"state":"active","ping":110},{"user_id":762,"name":"F2P","steam_id":76561199509106728,"connected_time":304000000000,"state":"active","ping":73}]},{"server_id":404,"name":"Uncletopia | Dallas | 3 | All Maps","name_short":"dal-3","host":"dal-1.us.uncletopia.com","port":27035,"enabled":true,"region":"us-central","cc":"us","latitude":32.779167,"longitude":-96.80889,"reserved":0,"last_update":"0001-01-01T00:00:00Z","name_a2s":"Uncletopia | Dallas | 3 | All Maps","protocol":17,"map":"pl_frontier_final","folder":"tf","game":"Team Fortress","app_id":440,"player_count":23,"max_players":24,"Bots":0,"server_type":"Dedicated","server_os":"Linux","password":true,"vac":true,"version":"7961495","steam_id":85568392924515219,"keywords":["nocrits","nodmgspread","payload","uncletopia"],"game_id":440,"stv_port":27036,"stv_name":"Uncletopia | Dallas | 3 | All Maps | STV","players":[{"user_id":738,"name":"hungry kibten","steam_id":76561198184099558,"connected_time":3912000000000,"state":"active","ping":92},{"user_id":768,"name":"McDonald","steam_id":76561199028533497,"connected_time":2652000000000,"state":"active","ping":72},{"user_id":804,"name":"Zozbieta","steam_id":76561198010336265,"connected_time":283000000000,"state":"active","ping":51},{"user_id":807,"name":"John Jameson","steam_id":76561198065238093,"connected_time":66000000000,"state":"active","ping":52},{"user_id":797,"name":"Hallowedspoon","steam_id":76561199141350399,"connected_time":820000000000,"state":"active","ping":51},{"user_id":802,"name":"dzcreeper","steam_id":76561198072250723,"connected_time":395000000000,"state":"active","ping":106},{"user_id":749,"name":"Dongus","steam_id":76561197979056451,"connected_time":3436000000000,"state":"active","ping":92},{"user_id":795,"name":"‚ù§ Ashleyyy ‚ù§","steam_id":76561198056428303,"connected_time":987000000000,"state":"active","ping":77},{"user_id":757,"name":"Mythical Lag","steam_id":76561198347031281,"connected_time":2979000000000,"state":"active","ping":53},{"user_id":770,"name":"silicasandwhich","steam_id":76561198178809821,"connected_time":2566000000000,"state":"active","ping":96},{"user_id":808,"name":"ZungusCrungus","steam_id":76561198043385971,"connected_time":59000000000,"state":"active","ping":75},{"user_id":805,"name":"Trashgaming","steam_id":76561199184268442,"connected_time":258000000000,"state":"active","ping":69},{"user_id":605,"name":"self sufficient kitten ‚ô•","steam_id":76561197960592612,"connected_time":10205000000000,"state":"active","ping":91},{"user_id":793,"name":"PuzzledRadish","steam_id":76561198085357114,"connected_time":1039000000000,"state":"active","ping":58},{"user_id":809,"name":"zzzz","steam_id":76561198310495200,"connected_time":9000000000,"state":"spawning","ping":77},{"user_id":788,"name":"LORDMARF","steam_id":76561198143122675,"connected_time":1234000000000,"state":"active","ping":72},{"user_id":806,"name":"Ricodashadad","steam_id":76561198066140119,"connected_time":231000000000,"state":"active","ping":68},{"user_id":801,"name":"krebex","steam_id":76561198004660630,"connected_time":487000000000,"state":"active","ping":54},{"user_id":794,"name":"poop","steam_id":76561198297795681,"connected_time":1037000000000,"state":"active","ping":60},{"user_id":773,"name":"Whompert","steam_id":76561198042939624,"connected_time":2421000000000,"state":"active","ping":89},{"user_id":703,"name":"paws :3","steam_id":76561199371694361,"connected_time":6123000000000,"state":"active","ping":82},{"user_id":803,"name":"Jetstream Sam","steam_id":76561198842076296,"connected_time":393000000000,"state":"active","ping":48},{"user_id":781,"name":"LaChancla","steam_id":76561198971528917,"connected_time":1537000000000,"state":"active","ping":46}]},{"server_id":405,"name":"Uncletopia | Dallas | 4 | Community","name_short":"dal-4","host":"dal-1.us.uncletopia.com","port":27045,"enabled":true,"region":"us-central","cc":"us","latitude":32.779167,"longitude":-96.80889,"reserved":0,"last_update":"0001-01-01T00:00:00Z","name_a2s":"Uncletopia | Dallas | 4 | Community","protocol":17,"map":"workshop/cp_hazyfort_rc6.ugc1365963729","folder":"tf","game":"Team Fortress","app_id":440,"player_count":0,"max_players":24,"Bots":0,"server_type":"Dedicated","server_os":"Linux","password":true,"vac":true,"version":"7961495","steam_id":85568392924515220,"keywords":["cp","nocrits","nodmgspread","uncletopia"],"game_id":440,"stv_port":27046,"stv_name":"Uncletopia | Dallas | 4 | Community | STV","players":null},{"server_id":5,"name":"Uncletopia | Frankfurt | 1 | All Maps","name_short":"frk-1","host":"frk-1.de.uncletopia.com","port":27015,"enabled":true,"region":"eu","cc":"de","latitude":50.110924,"longitude":8.682127,"reserved":0,"last_update":"0001-01-01T00:00:00Z","name_a2s":"Uncletopia | Frankfurt | 1 | All Maps","protocol":17,"map":"koth_highpass","folder":"tf","game":"Team Fortress","app_id":440,"player_count":0,"max_players":24,"Bots":0,"server_type":"Dedicated","server_os":"Linux","password":true,"vac":true,"version":"7961495","steam_id":85568392924469989,"keywords":["cp","nocrits","nodmgspread","uncletopia"],"game_id":440,"stv_port":27016,"stv_name":"Uncletopia | Frankfurt | 1 | All Maps | STV","players":null},{"server_id":110,"name":"Uncletopia | Frankfurt | 2 | All Maps","name_short":"frk-2","host":"frk-1.de.uncletopia.com","port":27025,"enabled":true,"region":"eu","cc":"de","latitude":50.110924,"longitude":8.682127,"reserved":0,"last_update":"0001-01-01T00:00:00Z","name_a2s":"Uncletopia | Frankfurt | 2 | All Maps","protocol":17,"map":"cp_coldfront","folder":"tf","game":"Team Fortress","app_id":440,"player_count":0,"max_players":24,"Bots":0,"server_type":"Dedicated","server_os":"Linux","password":true,"vac":true,"version":"7961495","steam_id":85568392924469990,"keywords":["cp","nocrits","nodmgspread","uncletopia"],"game_id":440,"stv_port":27026,"stv_name":"Uncletopia | Frankfurt | 2 | All Maps | STV","players":null},{"server_id":308,"name":"Uncletopia | Frankfurt | 3 | All Maps","name_short":"frk-3","host":"frk-1.de.uncletopia.com","port":27035,"enabled":true,"region":"eu","cc":"de","latitude":50.110924,"longitude":8.682127,"reserved":0,"last_update":"0001-01-01T00:00:00Z","name_a2s":"Uncletopia | Frankfurt | 3 | All Maps","protocol":17,"map":"plr_pipeline","folder":"tf","game":"Team Fortress","app_id":440,"player_count":0,"max_players":24,"Bots":0,"server_type":"Dedicated","server_os":"Linux","password":true,"vac":true,"version":"7961495","steam_id":85568392924504274,"keywords":["nocrits","nodmgspread","payload","uncletopia"],"game_id":440,"stv_port":27036,"stv_name":"Uncletopia | Frankfurt | 3 | All Maps | STV","players":null},{"server_id":309,"name":"Uncletopia | Frankfurt | 4 | All Maps","name_short":"frk-4","host":"frk-1.de.uncletopia.com","port":27045,"enabled":true,"region":"eu","cc":"de","latitude":50.110924,"longitude":8.682127,"reserved":0,"last_update":"0001-01-01T00:00:00Z","name_a2s":"Uncletopia | Frankfurt | 4 | All Maps","protocol":17,"map":"koth_lakeside_final","folder":"tf","game":"Team Fortress","app_id":440,"player_count":0,"max_players":24,"Bots":0,"server_type":"Dedicated","server_os":"Linux","password":true,"vac":true,"version":"7961495","steam_id":85568392924504275,"keywords":["cp","nocrits","nodmgspread","uncletopia"],"game_id":440,"stv_port":27046,"stv_name":"Uncletopia | Frankfurt | 4 | All Maps | STV","players":null},{"server_id":310,"name":"Uncletopia | Frankfurt | 5 | All Maps","name_short":"frk-5","host":"frk-1.de.uncletopia.com","port":27055,"enabled":true,"region":"eu","cc":"de","latitude":50.110924,"longitude":8.682127,"reserved":0,"last_update":"0001-01-01T00:00:00Z","name_a2s":"Uncletopia | Frankfurt | 5 | All Maps","protocol":17,"map":"cp_altitude","folder":"tf","game":"Team Fortress","app_id":440,"player_count":0,"max_players":24,"Bots":0,"server_type":"Dedicated","server_os":"Linux","password":true,"vac":true,"version":"7961495","steam_id":85568392924504277,"keywords":["cp","nocrits","nodmgspread","uncletopia"],"game_id":440,"stv_port":27056,"stv_name":"Uncletopia | Frankfurt | 5 | All Maps | STV","players":null},{"server_id":311,"name":"Uncletopia | Frankfurt | 6 | All Maps","name_short":"frk-6","host":"frk-1.de.uncletopia.com","port":27065,"enabled":true,"region":"eu","cc":"de","latitude":50.110924,"longitude":8.682127,"reserved":0,"last_update":"0001-01-01T00:00:00Z","name_a2s":"Uncletopia | Frankfurt | 6 | All Maps","protocol":17,"map":"cp_steel","folder":"tf","game":"Team Fortress","app_id":440,"player_count":0,"max_players":24,"Bots":0,"server_type":"Dedicated","server_os":"Linux","password":true,"vac":true,"version":"7961495","steam_id":85568392924504278,"keywords":["cp","nocrits","nodmgspread","uncletopia"],"game_id":440,"stv_port":27066,"stv_name":"Uncletopia | Frankfurt | 6 | All Maps | STV","players":null},{"server_id":23,"name":"Uncletopia | Frankfurt | 7 | Stopwatch","name_short":"frk-7","host":"frk-1.de.uncletopia.com","port":27075,"enabled":true,"region":"eu","cc":"de","latitude":50.110924,"longitude":8.682127,"reserved":0,"last_update":"0001-01-01T00:00:00Z","name_a2s":"Uncletopia | Frankfurt | 7 | Stopwatch","protocol":17,"map":"koth_highpass","folder":"tf","game":"Team Fortress","app_id":440,"player_count":0,"max_players":24,"Bots":0,"server_type":"Dedicated","server_os":"Linux","password":true,"vac":true,"version":"7961495","steam_id":85568392924742827,"keywords":["cp","nocrits","nodmgspread","uncletopia"],"game_id":440,"stv_port":27076,"stv_name":"Uncletopia | Frankfurt | 7 | Stopwatch | STV","players":null},{"server_id":24,"name":"Uncletopia | Frankfurt | 8 | Community","name_short":"frk-8","host":"frk-1.de.uncletopia.com","port":27085,"enabled":true,"region":"eu","cc":"de","latitude":50.110924,"longitude":8.682127,"reserved":0,"last_update":"0001-01-01T00:00:00Z","name_a2s":"Uncletopia | Frankfurt | 8 | Community","protocol":17,"map":"workshop/pl_stallberg_rc3.ugc1849111469","folder":"tf","game":"Team Fortress","app_id":440,"player_count":0,"max_players":24,"Bots":0,"server_type":"Dedicated","server_os":"Linux","password":true,"vac":true,"version":"7961495","steam_id":85568392924742828,"keywords":["nocrits","nodmgspread","payload","uncletopia"],"game_id":440,"stv_port":27086,"stv_name":"Uncletopia | Frankfurt | 8 | Community | STV","players":null},{"server_id":202,"name":"Uncletopia | Hong Kong | 1 | All Maps","name_short":"hgk-1","host":"hgk-1.hk.uncletopia.com","port":27015,"enabled":true,"region":"asia","cc":"hk","latitude":22.302711,"longitude":114.177216,"reserved":0,"last_update":"0001-01-01T00:00:00Z","name_a2s":"Uncletopia | Hong Kong | 1 | All Maps","protocol":17,"map":"cp_gorge","folder":"tf","game":"Team Fortress","app_id":440,"player_count":24,"max_players":24,"Bots":0,"server_type":"Dedicated","server_os":"Linux","password":true,"vac":true,"version":"7961495","steam_id":85568392924494504,"keywords":["cp","nocrits","nodmgspread","uncletopia"],"game_id":440,"stv_port":27016,"stv_name":"Uncletopia | Hong Kong | 1 | All Maps | STV","players":[{"user_id":19,"name":"Corbezy","steam_id":76561197993398349,"connected_time":10408000000000,"state":"active","ping":94},{"user_id":128,"name":"noceof","steam_id":76561198043656816,"connected_time":1906000000000,"state":"active","ping":84},{"user_id":57,"name":"qingque","steam_id":76561198230213828,"connected_time":6757000000000,"state":"active","ping":56},{"user_id":119,"name":"Mystery cheese üßÄ","steam_id":76561198304002409,"connected_time":2679000000000,"state":"active","ping":80},{"user_id":118,"name":"ArcticDolphin","steam_id":76561198203626319,"connected_time":2765000000000,"state":"active","ping":124},{"user_id":130,"name":"Aim and Ignite","steam_id":76561198097721707,"connected_time":1626000000000,"state":"active","ping":46},{"user_id":59,"name":"14","steam_id":76561198113401862,"connected_time":6646000000000,"state":"active","ping":83},{"user_id":89,"name":"toad‚ô°","steam_id":76561198082199290,"connected_time":4463000000000,"state":"active","ping":42},{"user_id":132,"name":"UR MOTHERRR... IS A N**GERRR","steam_id":76561198797699056,"connected_time":1575000000000,"state":"active","ping":90},{"user_id":117,"name":"Pillboi","steam_id":76561198011172886,"connected_time":2796000000000,"state":"active","ping":36},{"user_id":142,"name":".-.. .- .. -.","steam_id":76561198337154745,"connected_time":781000000000,"state":"active","ping":95},{"user_id":149,"name":"rock_005 enthusiast","steam_id":76561199015521820,"connected_time":268000000000,"state":"active","ping":88},{"user_id":141,"name":"Ratboi7Street","steam_id":76561199222913157,"connected_time":810000000000,"state":"active","ping":66},{"user_id":106,"name":"yveth","steam_id":76561198320532821,"connected_time":3480000000000,"state":"active","ping":71},{"user_id":124,"name":"MANCO FETT","steam_id":76561198107128889,"connected_time":2301000000000,"state":"active","ping":101},{"user_id":143,"name":"vnnfier2","steam_id":76561198914460787,"connected_time":732000000000,"state":"active","ping":81},{"user_id":75,"name":"Sover blw.tf","steam_id":76561198136347837,"connected_time":5714000000000,"state":"active","ping":77},{"user_id":144,"name":"red_dyedegg","steam_id":76561199468346618,"connected_time":621000000000,"state":"active","ping":59},{"user_id":147,"name":"ÁóÖÂêç‰∏∫Áà±.","steam_id":76561198842217982,"connected_time":337000000000,"state":"active","ping":57},{"user_id":148,"name":"Bocchi gaming","steam_id":76561199063009828,"connected_time":316000000000,"state":"active","ping":80},{"user_id":129,"name":"killman47","steam_id":76561198348487408,"connected_time":1905000000000,"state":"active","ping":39},{"user_id":140,"name":"SunShine","steam_id":76561198323642446,"connected_time":914000000000,"state":"active","ping":98},{"user_id":146,"name":"RockGaming2008","steam_id":76561198872566128,"connected_time":511000000000,"state":"active","ping":87},{"user_id":85,"name":"WhyOwhat","steam_id":76561198137571487,"connected_time":5204000000000,"state":"active","ping":115}]},{"server_id":1,"name":"Uncletopia | Los Angeles | 1 | All Maps","name_short":"lax-1","host":"lax-1.us.uncletopia.com","port":27015,"enabled":true,"region":"us-west","cc":"us","latitude":33.94279,"longitude":-118.41004,"reserved":0,"last_update":"0001-01-01T00:00:00Z","name_a2s":"Uncletopia | Los Angeles | 1 | All Maps","protocol":17,"map":"pl_barnblitz","folder":"tf","game":"Team Fortress","app_id":440,"player_count":24,"max_players":24,"Bots":0,"server_type":"Dedicated","server_os":"Linux","password":true,"vac":true,"version":"7961495","steam_id":85568392924469991,"keywords":["nocrits","nodmgspread","payload","uncletopia"],"game_id":440,"stv_port":27016,"stv_name":"Uncletopia | Los Angeles | 1 | All Maps | STV","players":[{"user_id":386,"name":"Merekitten","steam_id":76561198066307477,"connected_time":892000000000,"state":"active","ping":67},{"user_id":394,"name":"davout","steam_id":76561198064662875,"connected_time":28000000000,"state":"active","ping":53},{"user_id":391,"name":"HAT-WEARING‚Ñ¢ Maggot Gamer Cat","steam_id":76561197973992705,"connected_time":148000000000,"state":"active","ping":65},{"user_id":349,"name":"Commander Shrekard","steam_id":76561198124066405,"connected_time":4605000000000,"state":"active","ping":45},{"user_id":367,"name":"Lard","steam_id":76561198290315229,"connected_time":2298000000000,"state":"active","ping":54},{"user_id":377,"name":"Keamy","steam_id":76561199471434875,"connected_time":1380000000000,"state":"active","ping":74},{"user_id":395,"name":"b","steam_id":76561198156336213,"connected_time":15000000000,"state":"active","ping":65},{"user_id":383,"name":"Mocha Josie","steam_id":76561198066452726,"connected_time":998000000000,"state":"active","ping":73},{"user_id":374,"name":"Leterq8","steam_id":76561198331432556,"connected_time":1925000000000,"state":"active","ping":69},{"user_id":352,"name":"Mr. Muffin Man","steam_id":76561198124525513,"connected_time":4473000000000,"state":"active","ping":59},{"user_id":385,"name":"drank baby","steam_id":76561199483723843,"connected_time":928000000000,"state":"active","ping":65},{"user_id":379,"name":"Fred","steam_id":76561198114281255,"connected_time":1257000000000,"state":"active","ping":111},{"user_id":387,"name":"Buckethead","steam_id":76561198210181296,"connected_time":858000000000,"state":"active","ping":60},{"user_id":362,"name":"himbomccree","steam_id":76561198373330850,"connected_time":3024000000000,"state":"active","ping":48},{"user_id":388,"name":"Lambchop","steam_id":76561198043900363,"connected_time":843000000000,"state":"active","ping":61},{"user_id":318,"name":"FI LO","steam_id":76561198976530881,"connected_time":6382000000000,"state":"active","ping":30},{"user_id":354,"name":"xbox record that","steam_id":76561198150117455,"connected_time":3833000000000,"state":"active","ping":51},{"user_id":389,"name":"purple hatsune miku","steam_id":76561198108844158,"connected_time":835000000000,"state":"active","ping":51},{"user_id":392,"name":"PrinterLights","steam_id":76561198145909722,"connected_time":96000000000,"state":"active","ping":45},{"user_id":370,"name":"CometDrg0n_(he/him)","steam_id":76561198175713051,"connected_time":2033000000000,"state":"active","ping":75},{"user_id":393,"name":"czarchasm","steam_id":76561198055712749,"connected_time":85000000000,"state":"active","ping":76},{"user_id":371,"name":"Squiggle","steam_id":76561198257197535,"connected_time":2005000000000,"state":"active","ping":57},{"user_id":390,"name":"Leo x.x","steam_id":76561198309760791,"connected_time":769000000000,"state":"active","ping":94},{"user_id":375,"name":"allMAX","steam_id":76561198270980670,"connected_time":1799000000000,"state":"active","ping":167}]},{"server_id":112,"name":"Uncletopia | Los Angeles | 2 | All Maps","name_short":"lax-2","host":"lax-1.us.uncletopia.com","port":27025,"enabled":true,"region":"us-west","cc":"us","latitude":33.94279,"longitude":-118.41004,"reserved":0,"last_update":"0001-01-01T00:00:00Z","name_a2s":"Uncletopia | Los Angeles | 2 | All Maps","protocol":17,"map":"cp_mountainlab","folder":"tf","game":"Team Fortress","app_id":440,"player_count":24,"max_players":24,"Bots":0,"server_type":"Dedicated","server_os":"Linux","password":true,"vac":true,"version":"7961495","steam_id":85568392924469992,"keywords":["cp","nocrits","nodmgspread","uncletopia"],"game_id":440,"stv_port":27026,"stv_name":"Uncletopia | Los Angeles | 2 | All Maps | STV","players":[{"user_id":161,"name":"Pork Belly","steam_id":76561198053003142,"connected_time":1010000000000,"state":"active","ping":54},{"user_id":179,"name":"Dreamy Sweat from 2hu","steam_id":76561198094602446,"connected_time":223000000000,"state":"active","ping":59},{"user_id":148,"name":"weed lesbian","steam_id":76561198042263805,"connected_time":2084000000000,"state":"active","ping":82},{"user_id":160,"name":"nescoceo","steam_id":76561198040801160,"connected_time":1130000000000,"state":"active","ping":46},{"user_id":173,"name":"bcizzo","steam_id":76561197994399953,"connected_time":383000000000,"state":"active","ping":68},{"user_id":137,"name":"ninety9dragonfly","steam_id":76561198363406983,"connected_time":2360000000000,"state":"active","ping":65},{"user_id":133,"name":"Tubi From Russia Make Borscht","steam_id":76561198075619480,"connected_time":2441000000000,"state":"active","ping":58},{"user_id":174,"name":"An00bis","steam_id":76561198044084508,"connected_time":378000000000,"state":"active","ping":45},{"user_id":163,"name":"epsilon","steam_id":76561198025337276,"connected_time":872000000000,"state":"active","ping":86},{"user_id":138,"name":"Pizza Employee","steam_id":76561199073301053,"connected_time":2359000000000,"state":"active","ping":56},{"user_id":39,"name":"dr perky irl","steam_id":76561199467387844,"connected_time":10004000000000,"state":"active","ping":46},{"user_id":175,"name":"Reed the Flame Shadow","steam_id":76561198348354629,"connected_time":314000000000,"state":"active","ping":37},{"user_id":156,"name":"Whisper!","steam_id":76561198119609795,"connected_time":1231000000000,"state":"active","ping":52},{"user_id":168,"name":"UltShuip","steam_id":76561198074339262,"connected_time":648000000000,"state":"active","ping":60},{"user_id":157,"name":"Eden","steam_id":76561198081284664,"connected_time":1220000000000,"state":"active","ping":56},{"user_id":165,"name":"June","steam_id":76561198141803658,"connected_time":729000000000,"state":"active","ping":49},{"user_id":183,"name":"wunderbrad","steam_id":76561198069445905,"connected_time":118000000000,"state":"active","ping":98},{"user_id":177,"name":"chimplicity","steam_id":76561198012097062,"connected_time":279000000000,"state":"active","ping":66},{"user_id":170,"name":"lordstinkdemon666","steam_id":76561198073914311,"connected_time":401000000000,"state":"active","ping":46},{"user_id":167,"name":"cjetson","steam_id":76561198074482272,"connected_time":716000000000,"state":"active","ping":65},{"user_id":180,"name":"nop","steam_id":76561199119420455,"connected_time":197000000000,"state":"active","ping":143},{"user_id":151,"name":"NightmareOhm","steam_id":76561198338853664,"connected_time":1699000000000,"state":"active","ping":83},{"user_id":182,"name":"trans noelle my beloved \u003c3","steam_id":76561199183686977,"connected_time":170000000000,"state":"active","ping":87},{"user_id":159,"name":"bocchi the fool","steam_id":76561198259650356,"connected_time":1156000000000,"state":"active","ping":68}]},{"server_id":324,"name":"Uncletopia | Los Angeles | 3 | All Maps","name_short":"lax-3","host":"lax-1.us.uncletopia.com","port":27035,"enabled":true,"region":"us-west","cc":"us","latitude":33.94279,"longitude":-118.41004,"reserved":0,"last_update":"0001-01-01T00:00:00Z","name_a2s":"Uncletopia | Los Angeles | 3 | All Maps","protocol":17,"map":"koth_lakeside_final","folder":"tf","game":"Team Fortress","app_id":440,"player_count":1,"max_players":24,"Bots":0,"server_type":"Dedicated","server_os":"Linux","password":true,"vac":true,"version":"7961495","steam_id":85568392924510198,"keywords":["cp","nocrits","nodmgspread","uncletopia"],"game_id":440,"stv_port":27036,"stv_name":"Uncletopia | Los Angeles | 3 | All Maps | STV","players":[{"user_id":37,"name":"Comvic","steam_id":76561198065309037,"connected_time":384000000000,"state":"active","ping":110}]},{"server_id":25,"name":"Uncletopia | Los Angeles | 4 | Stopwatch","name_short":"lax-4","host":"lax-1.us.uncletopia.com","port":27045,"enabled":true,"region":"us-west","cc":"us","latitude":33.94279,"longitude":-118.41004,"reserved":0,"last_update":"0001-01-01T00:00:00Z","name_a2s":"Uncletopia | Los Angeles | 4 | Stopwatch","protocol":17,"map":"cp_metalworks","folder":"tf","game":"Team Fortress","app_id":440,"player_count":0,"max_players":24,"Bots":0,"server_type":"Dedicated","server_os":"Linux","password":true,"vac":true,"version":"7961495","steam_id":85568392924510199,"keywords":["cp","nocrits","nodmgspread","uncletopia"],"game_id":440,"stv_port":27046,"stv_name":"Uncletopia | Los Angeles | 4 | Stopwatch | STV","players":null},{"server_id":11,"name":"Uncletopia | London | 1 | All Maps","name_short":"lon-1","host":"lon-1.uk.uncletopia.com","port":27015,"enabled":true,"region":"eu","cc":"gb","latitude":51.509865,"longitude":-0.118092,"reserved":0,"last_update":"0001-01-01T00:00:00Z","name_a2s":"Uncletopia | London | 1 | All Maps","protocol":17,"map":"koth_sawmill","folder":"tf","game":"Team Fortress","app_id":440,"player_count":6,"max_players":24,"Bots":0,"server_type":"Dedicated","server_os":"Linux","password":true,"vac":true,"version":"7961495","steam_id":85568392924367362,"keywords":["cp","nocrits","nodmgspread","uncletopia"],"game_id":440,"stv_port":27016,"stv_name":"Uncletopia | London | 1 | All Maps | STV","players":[{"user_id":3,"name":"AnimeGirl(real)","steam_id":76561199062433944,"connected_time":797000000000,"state":"active","ping":127},{"user_id":4,"name":"P","steam_id":76561198399390201,"connected_time":769000000000,"state":"active","ping":91},{"user_id":5,"name":"TheEventGuy","steam_id":76561197972797744,"connected_time":754000000000,"state":"active","ping":78},{"user_id":6,"name":"Amin","steam_id":76561199212272501,"connected_time":519000000000,"state":"active","ping":154},{"user_id":7,"name":"im come from my dad's balls","steam_id":76561199065090344,"connected_time":140000000000,"state":"active","ping":153},{"user_id":8,"name":"CAL","steam_id":76561199217717138,"connected_time":20000000000,"state":"active","ping":74}]},{"server_id":114,"name":"Uncletopia | London | 2 | All Maps","name_short":"lon-2","host":"lon-1.uk.uncletopia.com","port":27025,"enabled":true,"region":"eu","cc":"gb","latitude":51.509865,"longitude":-0.118092,"reserved":0,"last_update":"0001-01-01T00:00:00Z","name_a2s":"Uncletopia | London | 2 | All Maps","protocol":17,"map":"cp_mountainlab","folder":"tf","game":"Team Fortress","app_id":440,"player_count":0,"max_players":24,"Bots":0,"server_type":"Dedicated","server_os":"Linux","password":true,"vac":true,"version":"7961495","steam_id":85568392924470941,"keywords":["cp","nocrits","nodmgspread","uncletopia"],"game_id":440,"stv_port":27026,"stv_name":"Uncletopia | London | 2 | All Maps | STV","players":null},{"server_id":320,"name":"Uncletopia | London | 3 | All Maps","name_short":"lon-3","host":"lon-1.uk.uncletopia.com","port":27035,"enabled":true,"region":"eu","cc":"gb","latitude":51.509865,"longitude":-0.118092,"reserved":0,"last_update":"0001-01-01T00:00:00Z","name_a2s":"Uncletopia | London | 3 | All Maps","protocol":17,"map":"cp_mountainlab","folder":"tf","game":"Team Fortress","app_id":440,"player_count":0,"max_players":24,"Bots":0,"server_type":"Dedicated","server_os":"Linux","password":true,"vac":true,"version":"7961495","steam_id":85568392924510192,"keywords":["cp","nocrits","nodmgspread","uncletopia"],"game_id":440,"stv_port":27036,"stv_name":"Uncletopia | London | 3 | All Maps | STV","players":null},{"server_id":321,"name":"Uncletopia | London | 4 | All Maps","name_short":"lon-4","host":"lon-1.uk.uncletopia.com","port":27045,"enabled":true,"region":"eu","cc":"gb","latitude":51.509865,"longitude":-0.118092,"reserved":0,"last_update":"0001-01-01T00:00:00Z","name_a2s":"Uncletopia | London | 4 | All Maps","protocol":17,"map":"pl_badwater","folder":"tf","game":"Team Fortress","app_id":440,"player_count":0,"max_players":24,"Bots":0,"server_type":"Dedicated","server_os":"Linux","password":true,"vac":true,"version":"7961495","steam_id":85568392924510193,"keywords":["nocrits","nodmgspread","payload","uncletopia"],"game_id":440,"stv_port":27046,"stv_name":"Uncletopia | London | 4 | All Maps | STV","players":null},{"server_id":21,"name":"Uncletopia | London | 5 | All Maps","name_short":"lon-5","host":"lon-1.uk.uncletopia.com","port":27055,"enabled":true,"region":"eu","cc":"gb","latitude":51.509865,"longitude":-0.118092,"reserved":0,"last_update":"0001-01-01T00:00:00Z","name_a2s":"Uncletopia | London | 5 | All Maps","protocol":17,"map":"koth_suijin","folder":"tf","game":"Team Fortress","app_id":440,"player_count":0,"max_players":24,"Bots":0,"server_type":"Dedicated","server_os":"Linux","password":true,"vac":true,"version":"7961495","steam_id":85568392924742829,"keywords":["cp","nocrits","nodmgspread","uncletopia"],"game_id":440,"stv_port":27056,"stv_name":"Uncletopia | London | 5 | All Maps | STV","players":null},{"server_id":22,"name":"Uncletopia | London | 6 | All Maps","name_short":"lon-6","host":"lon-1.uk.uncletopia.com","port":27065,"enabled":true,"region":"eu","cc":"gb","latitude":51.509865,"longitude":-0.118092,"reserved":0,"last_update":"0001-01-01T00:00:00Z","name_a2s":"Uncletopia | London | 6 | All Maps","protocol":17,"map":"pl_frontier_final","folder":"tf","game":"Team Fortress","app_id":440,"player_count":0,"max_players":24,"Bots":0,"server_type":"Dedicated","server_os":"Linux","password":true,"vac":true,"version":"7961495","steam_id":85568392924742830,"keywords":["nocrits","nodmgspread","payload","uncletopia"],"game_id":440,"stv_port":27066,"stv_name":"Uncletopia | London | 6 | All Maps | STV","players":null},{"server_id":40,"name":"Uncletopia | London | 7 | Stopwatch","name_short":"lon-7","host":"lon-1.uk.uncletopia.com","port":27075,"enabled":true,"region":"eu","cc":"gb","latitude":51.509865,"longitude":-0.118092,"reserved":0,"last_update":"0001-01-01T00:00:00Z","name_a2s":"Uncletopia | London | 7 | Stopwatch","protocol":17,"map":"pl_swiftwater_final1","folder":"tf","game":"Team Fortress","app_id":440,"player_count":0,"max_players":24,"Bots":0,"server_type":"Dedicated","server_os":"Linux","password":true,"vac":true,"version":"7961495","steam_id":85568392924964314,"keywords":["nocrits","nodmgspread","payload","uncletopia"],"game_id":440,"stv_port":27076,"stv_name":"Uncletopia | London | 7 | Stopwatch | STV","players":null},{"server_id":41,"name":"Uncletopia | London | 8 | Community","name_short":"lon-8","host":"lon-1.uk.uncletopia.com","port":27085,"enabled":true,"region":"eu","cc":"gb","latitude":51.509865,"longitude":-0.118092,"reserved":0,"last_update":"0001-01-01T00:00:00Z","name_a2s":"Uncletopia | London | 8 | Community","protocol":17,"map":"workshop/cp_propaganda_b18.ugc1603743849","folder":"tf","game":"Team Fortress","app_id":440,"player_count":0,"max_players":24,"Bots":0,"server_type":"Dedicated","server_os":"Linux","password":true,"vac":true,"version":"7961495","steam_id":85568392924964315,"keywords":["cp","nocrits","nodmgspread","uncletopia"],"game_id":440,"stv_port":27086,"stv_name":"Uncletopia | London | 8 | Community | STV","players":null},{"server_id":300,"name":"Uncletopia | Montr√©al | 1 | One Thousand Uncles","name_short":"mtl-1","host":"mtl-1.ca.uncletopia.com","port":27015,"enabled":true,"region":"us-east","cc":"ca","latitude":45.50889,"longitude":-73.56167,"reserved":0,"last_update":"0001-01-01T00:00:00Z","name_a2s":"Uncletopia | Montr√©al | 1 | One Thousand Uncles","protocol":17,"map":"cp_mossrock","folder":"tf","game":"Team Fortress","app_id":440,"player_count":28,"max_players":32,"Bots":20,"server_type":"Dedicated","server_os":"Linux","password":true,"vac":true,"version":"7961495","steam_id":85568392924500087,"keywords":["alltalk","bots","cp","danepve","increased_maxplayers","norespawntime","uncletopia"],"game_id":440,"stv_port":0,"stv_name":"","players":[{"user_id":417,"name":"Kiervce","steam_id":76561199175427371,"connected_time":1373000000000,"state":"active","ping":62},{"user_id":422,"name":"MagikarpEX","steam_id":76561198166172279,"connected_time":1026000000000,"state":"active","ping":72},{"user_id":424,"name":"pecko10","steam_id":76561198278452493,"connected_time":913000000000,"state":"active","ping":174},{"user_id":425,"name":"Lucas096br","steam_id":76561198350760997,"connected_time":904000000000,"state":"active","ping":205},{"user_id":427,"name":"Why not Zoidberg?","steam_id":76561197982207556,"connected_time":494000000000,"state":"active","ping":73},{"user_id":381,"name":"Flappus","steam_id":76561198857949632,"connected_time":4433000000000,"state":"active","ping":70},{"user_id":394,"name":"Beau-tiful","steam_id":76561198258200651,"connected_time":2446000000000,"state":"active","ping":72},{"user_id":396,"name":"Cly","steam_id":76561198988655555,"connected_time":1636000000000,"state":"active","ping":77}]},{"server_id":301,"name":"Uncletopia | Montr√©al | 2 | One Thousand Uncles","name_short":"mtl-2","host":"mtl-1.ca.uncletopia.com","port":27025,"enabled":true,"region":"us-east","cc":"ca","latitude":45.50889,"longitude":-73.56167,"reserved":0,"last_update":"0001-01-01T00:00:00Z","name_a2s":"Uncletopia | Montr√©al | 2 | One Thousand Uncles","protocol":17,"map":"cp_dustbowl","folder":"tf","game":"Team Fortress","app_id":440,"player_count":21,"max_players":32,"Bots":20,"server_type":"Dedicated","server_os":"Linux","password":true,"vac":true,"version":"7961495","steam_id":85568392924500088,"keywords":["alltalk","bots","cp","danepve","increased_maxplayers","norespawntime","uncletopia"],"game_id":440,"stv_port":0,"stv_name":"","players":[{"user_id":138,"name":"Rhutebeer","steam_id":76561198018302761,"connected_time":6657000000000,"state":"active","ping":102}]},{"server_id":302,"name":"Uncletopia | Montr√©al | 3 | One Thousand Uncles","name_short":"mtl-3","host":"mtl-1.ca.uncletopia.com","port":27035,"enabled":true,"region":"us-east","cc":"ca","latitude":45.50889,"longitude":-73.56167,"reserved":0,"last_update":"0001-01-01T00:00:00Z","name_a2s":"Uncletopia | Montr√©al | 3 | One Thousand Uncles","protocol":17,"map":"pl_thundermountain","folder":"tf","game":"Team Fortress","app_id":440,"player_count":0,"max_players":32,"Bots":0,"server_type":"Dedicated","server_os":"Linux","password":true,"vac":true,"version":"7961495","steam_id":85568392924500089,"keywords":["alltalk","danepve","increased_maxplayers","norespawntime","payload","uncletopia"],"game_id":440,"stv_port":0,"stv_name":"","players":null},{"server_id":13,"name":"Uncletopia | New York City | 1 | All Maps","name_short":"nyc-1","host":"nyc-1.us.uncletopia.com","port":27015,"enabled":true,"region":"us-east","cc":"us","latitude":40.73061,"longitude":-73.93524,"reserved":0,"last_update":"0001-01-01T00:00:00Z","name_a2s":"Uncletopia | New York City | 1 | All Maps","protocol":17,"map":"ctf_2fort","folder":"tf","game":"Team Fortress","app_id":440,"player_count":21,"max_players":24,"Bots":0,"server_type":"Dedicated","server_os":"Linux","password":true,"vac":true,"version":"7961495","steam_id":85568392924469993,"keywords":["ctf","nocrits","nodmgspread","uncletopia"],"game_id":440,"stv_port":27016,"stv_name":"Uncletopia | New York City | 1 | All Maps | STV","players":[{"user_id":778,"name":"Harry S. Truman","steam_id":76561197993339757,"connected_time":2627000000000,"state":"active","ping":52},{"user_id":705,"name":"Yuzu","steam_id":76561198417913035,"connected_time":10443000000000,"state":"active","ping":62},{"user_id":771,"name":"Femboy Dracula","steam_id":76561198090606686,"connected_time":3096000000000,"state":"active","ping":70},{"user_id":790,"name":"ATL1 | LOFILE","steam_id":76561198083798918,"connected_time":1250000000000,"state":"active","ping":63},{"user_id":789,"name":"blone","steam_id":76561199077504411,"connected_time":1384000000000,"state":"active","ping":129},{"user_id":781,"name":"HungryPenguin","steam_id":76561198039803880,"connected_time":2027000000000,"state":"active","ping":50},{"user_id":799,"name":"Vince Offer","steam_id":76561198991008825,"connected_time":563000000000,"state":"active","ping":58},{"user_id":706,"name":"googa","steam_id":76561198133130452,"connected_time":10412000000000,"state":"active","ping":37},{"user_id":796,"name":"Maniac Hat","steam_id":76561199082942851,"connected_time":1045000000000,"state":"active","ping":88},{"user_id":764,"name":"Magstriker","steam_id":76561198085761854,"connected_time":4243000000000,"state":"active","ping":54},{"user_id":762,"name":"SpaceSanctum","steam_id":76561198805242305,"connected_time":4383000000000,"state":"active","ping":45},{"user_id":747,"name":"Fish Fisherman","steam_id":76561198018656022,"connected_time":5741000000000,"state":"active","ping":51},{"user_id":720,"name":"space man","steam_id":76561198066333670,"connected_time":9194000000000,"state":"active","ping":62},{"user_id":800,"name":"Alejandro","steam_id":76561197970051493,"connected_time":456000000000,"state":"active","ping":129},{"user_id":726,"name":"DAYMARES","steam_id":76561198051903982,"connected_time":8638000000000,"state":"active","ping":48},{"user_id":793,"name":"Lemon Soda","steam_id":76561198140208761,"connected_time":1126000000000,"state":"active","ping":37},{"user_id":797,"name":"itzfifthdolphinbtw","steam_id":76561199128872873,"connected_time":902000000000,"state":"active","ping":67},{"user_id":745,"name":"Bunni","steam_id":76561198065169997,"connected_time":6109000000000,"state":"active","ping":71},{"user_id":782,"name":"eMcP","steam_id":76561198382509396,"connected_time":2026000000000,"state":"active","ping":127},{"user_id":777,"name":"non professional nouns.","steam_id":76561198294013916,"connected_time":2936000000000,"state":"active","ping":44},{"user_id":801,"name":"Shack","steam_id":76561198035503322,"connected_time":416000000000,"state":"active","ping":71}]},{"server_id":14,"name":"Uncletopia | New York City | 2 | All Maps","name_short":"nyc-2","host":"nyc-1.us.uncletopia.com","port":27025,"enabled":true,"region":"us-east","cc":"us","latitude":40.73061,"longitude":-73.93524,"reserved":0,"last_update":"0001-01-01T00:00:00Z","name_a2s":"Uncletopia | New York City | 2 | All Maps","protocol":17,"map":"koth_viaduct","folder":"tf","game":"Team Fortress","app_id":440,"player_count":0,"max_players":24,"Bots":0,"server_type":"Dedicated","server_os":"Linux","password":true,"vac":true,"version":"7961495","steam_id":85568392924469994,"keywords":["cp","nocrits","nodmgspread","uncletopia"],"game_id":440,"stv_port":27026,"stv_name":"Uncletopia | New York City | 2 | All Maps | STV","players":null},{"server_id":15,"name":"Uncletopia | New York City | 3 | Stopwatch","name_short":"nyc-3","host":"nyc-1.us.uncletopia.com","port":27035,"enabled":true,"region":"us-east","cc":"us","latitude":40.73061,"longitude":-73.93524,"reserved":0,"last_update":"0001-01-01T00:00:00Z","name_a2s":"Uncletopia | New York City | 3 | Stopwatch","protocol":17,"map":"workshop/pl_badwater_pro_v12.ugc2142942074","folder":"tf","game":"Team Fortress","app_id":440,"player_count":0,"max_players":24,"Bots":0,"server_type":"Dedicated","server_os":"Linux","password":true,"vac":true,"version":"7961495","steam_id":85568392924742820,"keywords":["nocrits","nodmgspread","payload","uncletopia"],"game_id":440,"stv_port":27036,"stv_name":"Uncletopia | New York City | 3 | Stopwatch | STV","players":null},{"server_id":16,"name":"Uncletopia | New York City | 4 | Community","name_short":"nyc-4","host":"nyc-1.us.uncletopia.com","port":27045,"enabled":true,"region":"us-east","cc":"us","latitude":40.73061,"longitude":-73.93524,"reserved":0,"last_update":"0001-01-01T00:00:00Z","name_a2s":"Uncletopia | New York City | 4 | Community","protocol":17,"map":"workshop/cp_bruhstbowl_b6.ugc2878604990","folder":"tf","game":"Team Fortress","app_id":440,"player_count":0,"max_players":24,"Bots":0,"server_type":"Dedicated","server_os":"Linux","password":true,"vac":true,"version":"7961495","steam_id":85568392924742821,"keywords":["cp","nocrits","nodmgspread","uncletopia"],"game_id":440,"stv_port":27046,"stv_name":"Uncletopia | New York City | 4 | Community | STV","players":null},{"server_id":142,"name":"Uncletopia | S√£o Paulo | 1 | All Maps","name_short":"sao-1","host":"sao-1.br.uncletopia.com","port":27015,"enabled":true,"region":"sa","cc":"br","latitude":-23.533773,"longitude":-46.62529,"reserved":0,"last_update":"0001-01-01T00:00:00Z","name_a2s":"Uncletopia | S√£o Paulo | 1 | All Maps","protocol":17,"map":"cp_gorge","folder":"tf","game":"Team Fortress","app_id":440,"player_count":0,"max_players":24,"Bots":0,"server_type":"Dedicated","server_os":"Linux","password":true,"vac":true,"version":"7961495","steam_id":85568392924469996,"keywords":["cp","nocrits","nodmgspread","uncletopia"],"game_id":440,"stv_port":27016,"stv_name":"Uncletopia | S√£o Paulo | 1 | All Maps | STV","players":null},{"server_id":143,"name":"Uncletopia | S√£o Paulo | 2 | Community","name_short":"sao-2","host":"sao-2.br.uncletopia.com","port":27015,"enabled":true,"region":"sa","cc":"br","latitude":-23.533773,"longitude":-46.62529,"reserved":0,"last_update":"0001-01-01T00:00:00Z","name_a2s":"Uncletopia | S√£o Paulo | 2 | Community","protocol":17,"map":"workshop/koth_product_final.ugc454272353","folder":"tf","game":"Team Fortress","app_id":440,"player_count":0,"max_players":24,"Bots":0,"server_type":"Dedicated","server_os":"Linux","password":true,"vac":true,"version":"7961495","steam_id":85568392924485349,"keywords":["cp","nocrits","nodmgspread","uncletopia"],"game_id":440,"stv_port":27016,"stv_name":"Uncletopia | S√£o Paulo | 2 | Community | STV","players":null},{"server_id":7,"name":"Uncletopia | Seattle | 1 | All Maps","name_short":"sea-1","host":"sea-1.us.uncletopia.com","port":27015,"enabled":true,"region":"us-west","cc":"us","latitude":47.608013,"longitude":-122.33517,"reserved":0,"last_update":"0001-01-01T00:00:00Z","name_a2s":"Uncletopia | Seattle | 1 | All Maps","protocol":17,"map":"pl_badwater","folder":"tf","game":"Team Fortress","app_id":440,"player_count":24,"max_players":24,"Bots":0,"server_type":"Dedicated","server_os":"Linux","password":true,"vac":true,"version":"7961495","steam_id":85568392924469997,"keywords":["nocrits","nodmgspread","payload","uncletopia"],"game_id":440,"stv_port":27016,"stv_name":"Uncletopia | Seattle | 1 | All Maps | STV","players":[{"user_id":750,"name":"Pyrolimited","steam_id":76561198195455657,"connected_time":2566000000000,"state":"active","ping":47},{"user_id":753,"name":"ghor","steam_id":76561197994547132,"connected_time":2497000000000,"state":"active","ping":30},{"user_id":749,"name":"AveragePhil","steam_id":76561199139836802,"connected_time":2724000000000,"state":"active","ping":50},{"user_id":782,"name":"Wavelengths","steam_id":76561197997621320,"connected_time":927000000000,"state":"active","ping":69},{"user_id":788,"name":"Spare(8)Ball","steam_id":76561197982432995,"connected_time":409000000000,"state":"active","ping":74},{"user_id":758,"name":"trackpad gaming | f2p","steam_id":76561198840414371,"connected_time":1828000000000,"state":"active","ping":50},{"user_id":792,"name":"PootisBird","steam_id":76561198284344671,"connected_time":299000000000,"state":"active","ping":73},{"user_id":760,"name":"Born2Krill","steam_id":76561198427100244,"connected_time":1763000000000,"state":"active","ping":81},{"user_id":789,"name":"TimeSnake","steam_id":76561198052098233,"connected_time":387000000000,"state":"active","ping":61},{"user_id":767,"name":"SmeagolDaRegal","steam_id":76561198095029807,"connected_time":1342000000000,"state":"active","ping":104},{"user_id":786,"name":"hazel","steam_id":76561198037292232,"connected_time":484000000000,"state":"active","ping":126},{"user_id":766,"name":"MrYadaization","steam_id":76561198050770818,"connected_time":1364000000000,"state":"active","ping":63},{"user_id":768,"name":"ThePrinceApollo","steam_id":76561198974111032,"connected_time":1329000000000,"state":"active","ping":86},{"user_id":769,"name":"PippinRope","steam_id":76561198196670873,"connected_time":1329000000000,"state":"active","ping":60},{"user_id":784,"name":"PTR","steam_id":76561198237253772,"connected_time":740000000000,"state":"active","ping":98},{"user_id":771,"name":"mothsprings","steam_id":76561198928604937,"connected_time":1318000000000,"state":"active","ping":136},{"user_id":783,"name":"ret","steam_id":76561198045189319,"connected_time":791000000000,"state":"active","ping":57},{"user_id":781,"name":"Grill Skills","steam_id":76561198053575147,"connected_time":1138000000000,"state":"active","ping":60},{"user_id":774,"name":"goth witch","steam_id":76561198069605283,"connected_time":1230000000000,"state":"active","ping":86},{"user_id":775,"name":"Women don't exist","steam_id":76561198836316052,"connected_time":1225000000000,"state":"active","ping":85},{"user_id":777,"name":"gugcat bday 3 days","steam_id":76561198129822860,"connected_time":1198000000000,"state":"active","ping":45},{"user_id":778,"name":"izzydex","steam_id":76561199101531034,"connected_time":1192000000000,"state":"active","ping":122},{"user_id":779,"name":"AWGER","steam_id":76561198284683624,"connected_time":1178000000000,"state":"active","ping":76},{"user_id":780,"name":"Sir Lump","steam_id":76561198119879254,"connected_time":1174000000000,"state":"active","ping":64}]},{"server_id":119,"name":"Uncletopia | Seattle | 2 | All Maps","name_short":"sea-2","host":"sea-1.us.uncletopia.com","port":27025,"enabled":true,"region":"us-west","cc":"us","latitude":47.608013,"longitude":-122.33517,"reserved":0,"last_update":"0001-01-01T00:00:00Z","name_a2s":"Uncletopia | Seattle | 2 | All Maps","protocol":17,"map":"koth_harvest_final","folder":"tf","game":"Team Fortress","app_id":440,"player_count":24,"max_players":24,"Bots":0,"server_type":"Dedicated","server_os":"Linux","password":true,"vac":true,"version":"7961495","steam_id":85568392924469998,"keywords":["cp","nocrits","nodmgspread","uncletopia"],"game_id":440,"stv_port":27026,"stv_name":"Uncletopia | Seattle | 2 | All Maps | STV","players":[{"user_id":556,"name":"TheHumanTaco119","steam_id":76561198996107520,"connected_time":1377000000000,"state":"active","ping":88},{"user_id":345,"name":"\u003c blank \u003e","steam_id":76561198097188001,"connected_time":16609000000000,"state":"active","ping":64},{"user_id":570,"name":"Caramel_Chalice","steam_id":76561198307609692,"connected_time":742000000000,"state":"active","ping":51},{"user_id":516,"name":"{AVG} Xx_Half-Life2fan420_xX","steam_id":76561199231634222,"connected_time":4149000000000,"state":"active","ping":74},{"user_id":548,"name":"Lily Thorn","steam_id":76561198305488625,"connected_time":2248000000000,"state":"active","ping":63},{"user_id":576,"name":"Drake from State Farm","steam_id":76561199069029812,"connected_time":395000000000,"state":"active","ping":74},{"user_id":577,"name":"Kdash","steam_id":76561198043829155,"connected_time":354000000000,"state":"active","ping":103},{"user_id":575,"name":"jamman888daman","steam_id":76561199145043880,"connected_time":482000000000,"state":"active","ping":79},{"user_id":557,"name":"Glint_","steam_id":76561199084430003,"connected_time":1371000000000,"state":"active","ping":89},{"user_id":569,"name":"UV","steam_id":76561198083936918,"connected_time":780000000000,"state":"active","ping":54},{"user_id":532,"name":"fancyfreak","steam_id":76561198326466375,"connected_time":3407000000000,"state":"active","ping":72},{"user_id":559,"name":"Waylavon","steam_id":76561198383701590,"connected_time":1253000000000,"state":"active","ping":55},{"user_id":571,"name":"Violet K.","steam_id":76561198062963842,"connected_time":721000000000,"state":"active","ping":82},{"user_id":578,"name":"CabezaGrande","steam_id":76561197972555502,"connected_time":326000000000,"state":"active","ping":98},{"user_id":582,"name":"Kronk","steam_id":76561198267956028,"connected_time":191000000000,"state":"active","ping":43},{"user_id":574,"name":"Gh0w0st","steam_id":76561199471261226,"connected_time":588000000000,"state":"active","ping":131},{"user_id":579,"name":"Invictus","steam_id":76561198079517075,"connected_time":324000000000,"state":"active","ping":131},{"user_id":580,"name":"M1C4A3L","steam_id":76561198009980085,"connected_time":322000000000,"state":"active","ping":122},{"user_id":581,"name":"Antzen","steam_id":76561198041343470,"connected_time":309000000000,"state":"active","ping":67},{"user_id":583,"name":"Strikerbolt","steam_id":76561199095622897,"connected_time":103000000000,"state":"active","ping":92},{"user_id":530,"name":"Clagger","steam_id":76561198066701092,"connected_time":3524000000000,"state":"active","ping":39},{"user_id":531,"name":"Cry some more","steam_id":76561198025498172,"connected_time":3472000000000,"state":"active","ping":67},{"user_id":554,"name":"killswitch","steam_id":76561198213385439,"connected_time":1533000000000,"state":"active","ping":74},{"user_id":546,"name":"[TrC] Dackstrus","steam_id":76561197973518509,"connected_time":2470000000000,"state":"active","ping":59}]},{"server_id":406,"name":"Uncletopia | Seattle | 3 | Stopwatch","name_short":"sea-3","host":"sea-1.us.uncletopia.com","port":27035,"enabled":true,"region":"us-west","cc":"us","latitude":47.608013,"longitude":-122.33517,"reserved":0,"last_update":"0001-01-01T00:00:00Z","name_a2s":"Uncletopia | Seattle | 3 | Stopwatch","protocol":17,"map":"workshop/pl_vigil_rc10.ugc1266210012","folder":"tf","game":"Team Fortress","app_id":440,"player_count":0,"max_players":24,"Bots":0,"server_type":"Dedicated","server_os":"Linux","password":true,"vac":true,"version":"7961495","steam_id":85568392924515217,"keywords":["nocrits","nodmgspread","payload","uncletopia"],"game_id":440,"stv_port":27036,"stv_name":"Uncletopia | Seattle | 3 | Stopwatch | STV","players":null},{"server_id":17,"name":"Uncletopia | San Francisco | 1 | All Maps","name_short":"sfo-1","host":"sfo-1.us.uncletopia.com","port":27015,"enabled":true,"region":"us-west","cc":"us","latitude":37.77397,"longitude":-122.4313,"reserved":0,"last_update":"0001-01-01T00:00:00Z","name_a2s":"Uncletopia | San Francisco | 1 | All Maps","protocol":17,"map":"pl_borneo","folder":"tf","game":"Team Fortress","app_id":440,"player_count":0,"max_players":24,"Bots":0,"server_type":"Dedicated","server_os":"Linux","password":true,"vac":true,"version":"7961495","steam_id":85568392924469999,"keywords":["nocrits","nodmgspread","payload","uncletopia"],"game_id":440,"stv_port":27016,"stv_name":"Uncletopia | San Francisco | 1 | All Maps | STV","players":null},{"server_id":18,"name":"Uncletopia | San Francisco | 2 | All Maps","name_short":"sfo-2","host":"sfo-1.us.uncletopia.com","port":27025,"enabled":true,"region":"us-west","cc":"us","latitude":37.77397,"longitude":-122.4313,"reserved":0,"last_update":"0001-01-01T00:00:00Z","name_a2s":"Uncletopia | San Francisco | 2 | All Maps","protocol":17,"map":"pl_upward","folder":"tf","game":"Team Fortress","app_id":440,"player_count":18,"max_players":24,"Bots":0,"server_type":"Dedicated","server_os":"Linux","password":true,"vac":true,"version":"7961495","steam_id":85568392924470000,"keywords":["nocrits","nodmgspread","payload","uncletopia"],"game_id":440,"stv_port":27026,"stv_name":"Uncletopia | San Francisco | 2 | All Maps | STV","players":[{"user_id":30,"name":"TOTALLY HARDCORE","steam_id":76561198842311643,"connected_time":1273000000000,"state":"active","ping":76},{"user_id":42,"name":"grafix","steam_id":76561197986568224,"connected_time":520000000000,"state":"active","ping":319},{"user_id":33,"name":"Risingtigerking","steam_id":76561199070704000,"connected_time":1256000000000,"state":"active","ping":127},{"user_id":26,"name":"DrippySpiffy","steam_id":76561199233974512,"connected_time":1963000000000,"state":"active","ping":121},{"user_id":48,"name":"Lactose ‡πëÔ≠•","steam_id":76561198208256987,"connected_time":91000000000,"state":"active","ping":45},{"user_id":28,"name":"JJkdragon","steam_id":76561198866990919,"connected_time":1584000000000,"state":"active","ping":91},{"user_id":29,"name":"pengun_space","steam_id":76561199066008734,"connected_time":1570000000000,"state":"active","ping":92},{"user_id":31,"name":"Sokol","steam_id":76561198110327956,"connected_time":1267000000000,"state":"active","ping":45},{"user_id":32,"name":"Oober Jackalope","steam_id":76561198285747760,"connected_time":1260000000000,"state":"active","ping":114},{"user_id":37,"name":"I have the tism","steam_id":76561198992584443,"connected_time":725000000000,"state":"active","ping":107},{"user_id":38,"name":"{Mbx} HighnTight","steam_id":76561198072441047,"connected_time":678000000000,"state":"active","ping":79},{"user_id":41,"name":"the keebler","steam_id":76561199486326945,"connected_time":610000000000,"state":"active","ping":107},{"user_id":44,"name":"KhongGF","steam_id":76561198268788132,"connected_time":285000000000,"state":"active","ping":79},{"user_id":45,"name":"glock41982","steam_id":76561198025107915,"connected_time":191000000000,"state":"active","ping":55},{"user_id":49,"name":"Homura Simp","steam_id":76561198246080762,"connected_time":84000000000,"state":"active","ping":35},{"user_id":47,"name":"NOBODY","steam_id":76561198094578887,"connected_time":133000000000,"state":"active","ping":97},{"user_id":50,"name":"Profile Name","steam_id":76561198404517128,"connected_time":59000000000,"state":"active","ping":101},{"user_id":51,"name":"SlakerRySa(F2P)","steam_id":76561198954198301,"connected_time":25000000000,"state":"active","ping":149}]},{"server_id":19,"name":"Uncletopia | San Francisco | 3 | Stopwatch","name_short":"sfo-3","host":"sfo-1.us.uncletopia.com","port":27035,"enabled":true,"region":"us-west","cc":"us","latitude":37.77397,"longitude":-122.4313,"reserved":0,"last_update":"0001-01-01T00:00:00Z","name_a2s":"Uncletopia | San Francisco | 3 | Stopwatch","protocol":17,"map":"cp_metalworks","folder":"tf","game":"Team Fortress","app_id":440,"player_count":0,"max_players":24,"Bots":0,"server_type":"Dedicated","server_os":"Linux","password":true,"vac":true,"version":"7961495","steam_id":85568392924742824,"keywords":["cp","nocrits","nodmgspread","uncletopia"],"game_id":440,"stv_port":27036,"stv_name":"Uncletopia | San Francisco | 3 | Stopwatch | STV","players":null},{"server_id":20,"name":"Uncletopia | San Francisco | 4 | Community","name_short":"sfo-4","host":"sfo-1.us.uncletopia.com","port":27045,"enabled":true,"region":"us-west","cc":"us","latitude":37.77397,"longitude":-122.4313,"reserved":0,"last_update":"0001-01-01T00:00:00Z","name_a2s":"Uncletopia | San Francisco | 4 | Community","protocol":17,"map":"workshop/koth_bagel_rc6.ugc2514036946","folder":"tf","game":"Team Fortress","app_id":440,"player_count":0,"max_players":24,"Bots":0,"server_type":"Dedicated","server_os":"Linux","password":true,"vac":true,"version":"7961495","steam_id":85568392924742826,"keywords":["cp","nocrits","nodmgspread","uncletopia"],"game_id":440,"stv_port":27046,"stv_name":"Uncletopia | San Francisco | 4 | Community | STV","players":null},{"server_id":141,"name":"Uncletopia | Sydney | 1 | All Maps","name_short":"syd-1","host":"syd-1.au.uncletopia.com","port":27015,"enabled":true,"region":"au","cc":"au","latitude":-33.865143,"longitude":151.2099,"reserved":0,"last_update":"0001-01-01T00:00:00Z","name_a2s":"Uncletopia | Sydney | 1 | All Maps","protocol":17,"map":"pl_thundermountain","folder":"tf","game":"Team Fortress","app_id":440,"player_count":24,"max_players":24,"Bots":0,"server_type":"Dedicated","server_os":"Linux","password":true,"vac":true,"version":"7961495","steam_id":85568392924470001,"keywords":["nocrits","nodmgspread","payload","uncletopia"],"game_id":440,"stv_port":27016,"stv_name":"Uncletopia | Sydney | 1 | All Maps | STV","players":[{"user_id":244,"name":"akmon753","steam_id":76561199507989067,"connected_time":1263000000000,"state":"active","ping":72},{"user_id":235,"name":"Pompadouraus","steam_id":76561198327530525,"connected_time":2148000000000,"state":"active","ping":76},{"user_id":224,"name":"Diming","steam_id":76561198325584599,"connected_time":2972000000000,"state":"active","ping":76},{"user_id":223,"name":"t.tv/catherine_x3","steam_id":76561198041907885,"connected_time":3028000000000,"state":"active","ping":58},{"user_id":245,"name":"MAYHEM","steam_id":76561199323730865,"connected_time":1122000000000,"state":"active","ping":39},{"user_id":236,"name":"sav","steam_id":76561198058760041,"connected_time":2137000000000,"state":"active","ping":75},{"user_id":248,"name":"saturation","steam_id":76561199457046392,"connected_time":599000000000,"state":"active","ping":76},{"user_id":217,"name":"Blondie","steam_id":76561198046977058,"connected_time":3416000000000,"state":"active","ping":66},{"user_id":252,"name":"toblue","steam_id":76561198189137465,"connected_time":361000000000,"state":"active","ping":83},{"user_id":201,"name":"Marzell","steam_id":76561198151276153,"connected_time":4663000000000,"state":"active","ping":84},{"user_id":228,"name":"FascismSalad","steam_id":76561198262410973,"connected_time":2593000000000,"state":"active","ping":53},{"user_id":240,"name":"4LOW","steam_id":76561199156942316,"connected_time":1757000000000,"state":"active","ping":76},{"user_id":181,"name":"-Ech0-","steam_id":76561199121536801,"connected_time":6923000000000,"state":"active","ping":60},{"user_id":221,"name":"oldbie","steam_id":76561198053297711,"connected_time":3081000000000,"state":"active","ping":65},{"user_id":253,"name":"Chooka","steam_id":76561197992307814,"connected_time":264000000000,"state":"active","ping":66},{"user_id":242,"name":"monnickev","steam_id":76561198252587162,"connected_time":1705000000000,"state":"active","ping":42},{"user_id":226,"name":"buff_sheep","steam_id":76561199122474585,"connected_time":2865000000000,"state":"active","ping":73},{"user_id":230,"name":"ravioli","steam_id":76561198001765827,"connected_time":2418000000000,"state":"active","ping":46},{"user_id":254,"name":"electro599","steam_id":76561198058148858,"connected_time":176000000000,"state":"active","ping":57},{"user_id":250,"name":"Ba1thazar","steam_id":76561197966008413,"connected_time":571000000000,"state":"active","ping":61},{"user_id":251,"name":"noXy","steam_id":76561198032671657,"connected_time":473000000000,"state":"active","ping":60},{"user_id":161,"name":"Hayden","steam_id":76561197983838052,"connected_time":8156000000000,"state":"active","ping":44},{"user_id":229,"name":"MINI S.","steam_id":76561198116179875,"connected_time":2522000000000,"state":"active","ping":47},{"user_id":243,"name":"Finios","steam_id":76561198209013071,"connected_time":1704000000000,"state":"active","ping":59}]},{"server_id":123,"name":"Uncletopia | Sydney | 2 | All Maps","name_short":"syd-2","host":"syd-1.au.uncletopia.com","port":27025,"enabled":true,"region":"au","cc":"au","latitude":-33.865143,"longitude":151.2099,"reserved":0,"last_update":"0001-01-01T00:00:00Z","name_a2s":"Uncletopia | Sydney | 2 | All Maps","protocol":17,"map":"cp_altitude","folder":"tf","game":"Team Fortress","app_id":440,"player_count":5,"max_players":24,"Bots":0,"server_type":"Dedicated","server_os":"Linux","password":true,"vac":true,"version":"7961495","steam_id":85568392924470002,"keywords":["cp","nocrits","nodmgspread","uncletopia"],"game_id":440,"stv_port":27026,"stv_name":"Uncletopia | Sydney | 2 | All Maps | STV","players":[{"user_id":11,"name":"Mikey","steam_id":76561198438203131,"connected_time":1759000000000,"state":"active","ping":57},{"user_id":14,"name":"Glockenspe (She/Her)","steam_id":76561199184115241,"connected_time":826000000000,"state":"active","ping":56},{"user_id":15,"name":"Squishy","steam_id":76561198985769205,"connected_time":337000000000,"state":"active","ping":51},{"user_id":16,"name":"nugget666","steam_id":76561198037839783,"connected_time":112000000000,"state":"active","ping":64},{"user_id":17,"name":"lexx","steam_id":76561198108267710,"connected_time":75000000000,"state":"active","ping":47}]},{"server_id":395,"name":"Uncletopia | Sydney | 3 | All Maps","name_short":"syd-3","host":"syd-1.au.uncletopia.com","port":27035,"enabled":true,"region":"au","cc":"au","latitude":-33.865143,"longitude":151.2099,"reserved":0,"last_update":"0001-01-01T00:00:00Z","name_a2s":"Uncletopia | Sydney | 3 | All Maps","protocol":17,"map":"koth_brazil","folder":"tf","game":"Team Fortress","app_id":440,"player_count":0,"max_players":24,"Bots":0,"server_type":"Dedicated","server_os":"Linux","password":true,"vac":true,"version":"7961495","steam_id":85568392925194467,"keywords":["cp","nocrits","nodmgspread","uncletopia"],"game_id":440,"stv_port":27036,"stv_name":"Uncletopia | Sydney | 3 | All Maps | STV","players":null},{"server_id":396,"name":"Uncletopia | Sydney | 4 | All Maps","name_short":"syd-4","host":"syd-1.au.uncletopia.com","port":27045,"enabled":true,"region":"au","cc":"au","latitude":-33.865143,"longitude":151.2099,"reserved":0,"last_update":"0001-01-01T00:00:00Z","name_a2s":"Uncletopia | Sydney | 4 | All Maps","protocol":17,"map":"pl_upward","folder":"tf","game":"Team Fortress","app_id":440,"player_count":0,"max_players":24,"Bots":0,"server_type":"Dedicated","server_os":"Linux","password":true,"vac":true,"version":"7961495","steam_id":85568392925397958,"keywords":["nocrits","nodmgspread","payload","uncletopia"],"game_id":440,"stv_port":27046,"stv_name":"Uncletopia | Sydney | 4 | All Maps | STV","players":null},{"server_id":58,"name":"Uncletopia | Sydney | 5 | Stopwatch","name_short":"syd-5","host":"syd-1.au.uncletopia.com","port":27055,"enabled":true,"region":"au","cc":"au","latitude":-33.865143,"longitude":151.2099,"reserved":0,"last_update":"0001-01-01T00:00:00Z","name_a2s":"Uncletopia | Sydney | 5 | Stopwatch","protocol":17,"map":"koth_highpass","folder":"tf","game":"Team Fortress","app_id":440,"player_count":0,"max_players":24,"Bots":0,"server_type":"Dedicated","server_os":"Linux","password":true,"vac":true,"version":"7961495","steam_id":85568392925397959,"keywords":["cp","nocrits","nodmgspread","uncletopia"],"game_id":440,"stv_port":27056,"stv_name":"Uncletopia | Sydney | 5 | Stopwatch | STV","players":null},{"server_id":59,"name":"Uncletopia | Sydney | 6 | Community","name_short":"syd-6","host":"syd-1.au.uncletopia.com","port":27065,"enabled":true,"region":"au","cc":"au","latitude":-33.865143,"longitude":151.2099,"reserved":0,"last_update":"0001-01-01T00:00:00Z","name_a2s":"Uncletopia | Sydney | 6 | Community","protocol":17,"map":"workshop/cp_mannbase_rc2a.ugc1900737467","folder":"tf","game":"Team Fortress","app_id":440,"player_count":0,"max_players":24,"Bots":0,"server_type":"Dedicated","server_os":"Linux","password":true,"vac":true,"version":"7961495","steam_id":85568392925397960,"keywords":["cp","nocrits","nodmgspread","uncletopia"],"game_id":440,"stv_port":27066,"stv_name":"Uncletopia | Sydney | 6 | Community | STV","players":null},{"server_id":49,"name":"Uncletopia | Warsaw | 1 | One Thousand Uncles","name_short":"waw-1","host":"waw-1.pl.uncletopia.com","port":27015,"enabled":true,"region":"eu","cc":"pl","latitude":52.2297,"longitude":21.017532,"reserved":0,"last_update":"0001-01-01T00:00:00Z","name_a2s":"Uncletopia | Warsaw | 1 | One Thousand Uncles","protocol":17,"map":"cp_egypt_final","folder":"tf","game":"Team Fortress","app_id":440,"player_count":0,"max_players":32,"Bots":0,"server_type":"Dedicated","server_os":"Linux","password":true,"vac":true,"version":"7961495","steam_id":85568392925397850,"keywords":["alltalk","cp","danepve","increased_maxplayers","norespawntime","uncletopia"],"game_id":440,"stv_port":0,"stv_name":"","players":null},{"server_id":50,"name":"Uncletopia | Warsaw | 2 | One Thousand Uncles","name_short":"waw-2","host":"waw-1.pl.uncletopia.com","port":27025,"enabled":true,"region":"eu","cc":"pl","latitude":52.2297,"longitude":21.017532,"reserved":0,"last_update":"0001-01-01T00:00:00Z","name_a2s":"Uncletopia | Warsaw | 2 | One Thousand Uncles","protocol":17,"map":"pl_pier","folder":"tf","game":"Team Fortress","app_id":440,"player_count":0,"max_players":32,"Bots":0,"server_type":"Dedicated","server_os":"Linux","password":true,"vac":true,"version":"7961495","steam_id":85568392925397851,"keywords":["alltalk","danepve","increased_maxplayers","norespawntime","payload","uncletopia"],"game_id":440,"stv_port":0,"stv_name":"","players":null},{"server_id":51,"name":"Uncletopia | Warsaw | 3 | All Maps","name_short":"waw-3","host":"waw-1.pl.uncletopia.com","port":27035,"enabled":true,"region":"eu","cc":"pl","latitude":52.2297,"longitude":21.017532,"reserved":0,"last_update":"0001-01-01T00:00:00Z","name_a2s":"Uncletopia | Warsaw | 3 | All Maps","protocol":17,"map":"pl_frontier_final","folder":"tf","game":"Team Fortress","app_id":440,"player_count":0,"max_players":24,"Bots":0,"server_type":"Dedicated","server_os":"Linux","password":true,"vac":true,"version":"7961495","steam_id":85568392925397852,"keywords":["nocrits","nodmgspread","payload","uncletopia"],"game_id":440,"stv_port":27036,"stv_name":"Uncletopia | Warsaw | 3 | All Maps | STV","players":null},{"server_id":52,"name":"Uncletopia | Warsaw | 4 | All Maps","name_short":"waw-4","host":"waw-1.pl.uncletopia.com","port":27045,"enabled":true,"region":"eu","cc":"pl","latitude":52.2297,"longitude":21.017532,"reserved":0,"last_update":"0001-01-01T00:00:00Z","name_a2s":"Uncletopia | Warsaw | 4 | All Maps","protocol":17,"map":"ctf_turbine","folder":"tf","game":"Team Fortress","app_id":440,"player_count":0,"max_players":24,"Bots":0,"server_type":"Dedicated","server_os":"Linux","password":true,"vac":true,"version":"7961495","steam_id":85568392925397853,"keywords":["ctf","nocrits","nodmgspread","uncletopia"],"game_id":440,"stv_port":27046,"stv_name":"Uncletopia | Warsaw | 4 | All Maps | STV","players":null},{"server_id":53,"name":"Uncletopia | Warsaw | 5 | Stopwatch","name_short":"waw-5","host":"waw-1.pl.uncletopia.com","port":27055,"enabled":true,"region":"eu","cc":"pl","latitude":52.2297,"longitude":21.017532,"reserved":0,"last_update":"0001-01-01T00:00:00Z","name_a2s":"Uncletopia | Warsaw | 5 | Stopwatch","protocol":17,"map":"workshop/koth_clearcut_b15.ugc2107050255","folder":"tf","game":"Team Fortress","app_id":440,"player_count":0,"max_players":24,"Bots":0,"server_type":"Dedicated","server_os":"Linux","password":true,"vac":true,"version":"7961495","steam_id":85568392925397854,"keywords":["cp","nocrits","nodmgspread","uncletopia"],"game_id":440,"stv_port":27056,"stv_name":"Uncletopia | Warsaw | 5 | Stopwatch | STV","players":null},{"server_id":54,"name":"Uncletopia | Warsaw | 6 | Community","name_short":"waw-6","host":"waw-1.pl.uncletopia.com","port":27065,"enabled":true,"region":"eu","cc":"pl","latitude":52.2297,"longitude":21.017532,"reserved":0,"last_update":"0001-01-01T00:00:00Z","name_a2s":"Uncletopia | Warsaw | 6 | Community","protocol":17,"map":"workshop/pl_highwood_b19.ugc1769496557","folder":"tf","game":"Team Fortress","app_id":440,"player_count":0,"max_players":24,"Bots":0,"server_type":"Dedicated","server_os":"Linux","password":true,"vac":true,"version":"7961495","steam_id":85568392925397856,"keywords":["nocrits","nodmgspread","payload","uncletopia"],"game_id":440,"stv_port":27066,"stv_name":"Uncletopia | Warsaw | 6 | Community | STV","players":null}]}