{"status":true,"message":"","result":[{"server_id":9,"name":"Uncletopia | Atlanta | 1 | All Maps","name_short":"atl-1","host":"atl-1.us.uncletopia.com","port":27015,"enabled":true,"region":"us-east","cc":"us","latitude":33.753746,"longitude":-84.38633,"reserved":0,"last_update":"0001-01-01T00:00:00Z","name_a2s":"Uncletopia | Atlanta | 1 | All Maps","protocol":17,"map":"pl_swiftwater_final1","folder":"tf","game":"Team Fortress","app_id":440,"player_count":24,"max_players":24,"Bots":0,"server_type":"Dedicated","server_os":"Linux","password":true,"vac":true,"version":"7757534","steam_id":85568392924469982,"keywords":["nocrits","nodmgspread","payload","uncletopia"],"game_id":440,"stv_port":27016,"stv_name":"Uncletopia | Atlanta | 1 | All Maps | STV","players":[{"user_id":84,"name":"atl1 Quality","steam_id":76561198361132101,"connected_time":1221000000000,"state":"active","ping":70},{"user_id":76,"name":"Pennis the Menace","steam_id":76561198254878037,"connected_time":2060000000000,"state":"active","ping":82},{"user_id":44,"name":"Mask","steam_id":76561198877649728,"connected_time":3335000000000,"state":"active","ping":160},{"user_id":95,"name":"LuckyZero-_-","steam_id":76561198139891051,"connected_time":567000000000,"state":"active","ping":65},{"user_id":46,"name":"Doctor Vegeta","steam_id":76561198353898356,"connected_time":3206000000000,"state":"active","ping":99},{"user_id":47,"name":"ATL1 | on my hunting trip","steam_id":76561198315341646,"connected_time":3187000000000,"state":"active","ping":73},{"user_id":48,"name":"Chilakiller","steam_id":76561198182348907,"connected_time":3180000000000,"state":"active","ping":91},{"user_id":75,"name":"Ëø∑Ë∑ØÁöÑÁãêÁã∏akemi!","steam_id":76561198406252824,"connected_time":2150000000000,"state":"active","ping":119},{"user_id":85,"name":"Broken Cereal‚àö","steam_id":76561198087489795,"connected_time":1146000000000,"state":"active","ping":65},{"user_id":89,"name":"Brandonazz","steam_id":76561197994366351,"connected_time":787000000000,"state":"active","ping":79},{"user_id":55,"name":"Jin Gulilo","steam_id":76561198065151242,"connected_time":2742000000000,"state":"active","ping":75},{"user_id":92,"name":"ATL1 | Pango","steam_id":76561198069811545,"connected_time":770000000000,"state":"active","ping":46},{"user_id":57,"name":"Among Us","steam_id":76561199045075356,"connected_time":2708000000000,"state":"active","ping":76},{"user_id":58,"name":"luxin","steam_id":76561198399383047,"connected_time":2628000000000,"state":"active","ping":54},{"user_id":77,"name":"Mango","steam_id":76561199209533440,"connected_time":1987000000000,"state":"active","ping":69},{"user_id":81,"name":"Willy","steam_id":76561198046508940,"connected_time":1687000000000,"state":"active","ping":75},{"user_id":87,"name":"lil hog","steam_id":76561199230929836,"connected_time":790000000000,"state":"active","ping":80},{"user_id":88,"name":"cola","steam_id":76561198374390458,"connected_time":789000000000,"state":"active","ping":59},{"user_id":90,"name":"Ranger Locust","steam_id":76561198065223333,"connected_time":783000000000,"state":"active","ping":77},{"user_id":83,"name":"big if true","steam_id":76561198155403131,"connected_time":1669000000000,"state":"active","ping":92},{"user_id":93,"name":"wire-guided","steam_id":76561198055407168,"connected_time":766000000000,"state":"active","ping":58},{"user_id":69,"name":"Shinies","steam_id":76561198169459631,"connected_time":2468000000000,"state":"active","ping":63},{"user_id":94,"name":"amelia watson number one fan","steam_id":76561198249206656,"connected_time":762000000000,"state":"active","ping":86},{"user_id":73,"name":"lynt","steam_id":76561198988333976,"connected_time":2357000000000,"state":"active","ping":43}]},{"server_id":104,"name":"Uncletopia | Atlanta | 2 | All Maps","name_short":"atl-2","host":"atl-1.us.uncletopia.com","port":27025,"enabled":true,"region":"us-east","cc":"us","latitude":33.753746,"longitude":-84.38633,"reserved":0,"last_update":"0001-01-01T00:00:00Z","name_a2s":"Uncletopia | Atlanta | 2 | All Maps","protocol":17,"map":"pl_pier","folder":"tf","game":"Team Fortress","app_id":440,"player_count":0,"max_players":24,"Bots":0,"server_type":"Dedicated","server_os":"Linux","password":true,"vac":true,"version":"7757534","steam_id":85568392924469983,"keywords":["nocrits","nodmgspread","payload","uncletopia"],"game_id":440,"stv_port":27026,"stv_name":"Uncletopia | Atlanta | 2 | All Maps | STV","players":null},{"server_id":400,"name":"Uncletopia | Atlanta | 3 | Community","name_short":"atl-3","host":"atl-1.us.uncletopia.com","port":27035,"enabled":true,"region":"us-east","cc":"us","latitude":33.753746,"longitude":-84.38633,"reserved":0,"last_update":"0001-01-01T00:00:00Z","name_a2s":"Uncletopia | Atlanta | 3 | Community","protocol":17,"map":"workshop/cp_indulge.ugc528106646","folder":"tf","game":"Team Fortress","app_id":440,"player_count":0,"max_players":24,"Bots":0,"server_type":"Dedicated","server_os":"Linux","password":true,"vac":true,"version":"7757534","steam_id":85568392924515187,"keywords":["cp","nocrits","nodmgspread","uncletopia"],"game_id":440,"stv_port":27036,"stv_name":"Uncletopia | Atlanta | 3 | Community | STV","players":null},{"server_id":401,"name":"Uncletopia | Atlanta | 4 | No Payload","name_short":"atl-4","host":"atl-1.us.uncletopia.com","port":27045,"enabled":true,"region":"us-east","cc":"us","latitude":33.753746,"longitude":-84.38633,"reserved":0,"last_update":"0001-01-01T00:00:00Z","name_a2s":"","protocol":0,"map":"","folder":"","game":"","app_id":0,"player_count":0,"max_players":0,"Bots":0,"server_type":"","server_os":"","password":false,"vac":false,"version":"","steam_id":0,"keywords":null,"game_id":0,"stv_port":0,"stv_name":"","players":null},{"server_id":2,"name":"Uncletopia | Chicago | 1 | All Maps","name_short":"chi-1","host":"chi-1.us.uncletopia.com","port":27015,"enabled":true,"region":"us-central","cc":"us","latitude":41.881832,"longitude":-87.62318,"reserved":0,"last_update":"0001-01-01T00:00:00Z","name_a2s":"Uncletopia | Chicago | 1 | All Maps","protocol":17,"map":"pl_snowycoast","folder":"tf","game":"Team Fortress","app_id":440,"player_count":24,"max_players":24,"Bots":0,"server_type":"Dedicated","server_os":"Linux","password":true,"vac":true,"version":"7757534","steam_id":85568392924469984,"keywords":["nocrits","nodmgspread","payload","uncletopia"],"game_id":440,"stv_port":27016,"stv_name":"Uncletopia | Chicago | 1 | All Maps | STV","players":[{"user_id":285,"name":"ilimori","steam_id":76561197961231625,"connected_time":4034000000000,"state":"active","ping":135},{"user_id":275,"name":"Elefant√©","steam_id":76561198258765900,"connected_time":5041000000000,"state":"active","ping":84},{"user_id":311,"name":"Old St. Scat","steam_id":76561198322096569,"connected_time":2657000000000,"state":"active","ping":83},{"user_id":327,"name":"AnonymousCritter","steam_id":76561198864475187,"connected_time":1207000000000,"state":"active","ping":47},{"user_id":326,"name":"N√©oGothiqueüïØ","steam_id":76561198003467269,"connected_time":1294000000000,"state":"active","ping":67},{"user_id":273,"name":"Ras","steam_id":76561198123546775,"connected_time":5048000000000,"state":"active","ping":71},{"user_id":278,"name":"Si1entSn1pa","steam_id":76561198170095479,"connected_time":5027000000000,"state":"active","ping":91},{"user_id":297,"name":"Apollite","steam_id":76561198071669801,"connected_time":3359000000000,"state":"active","ping":63},{"user_id":253,"name":"Doc{MDW}","steam_id":76561198075049640,"connected_time":7681000000000,"state":"active","ping":93},{"user_id":286,"name":"Quiet","steam_id":76561198119175817,"connected_time":4030000000000,"state":"active","ping":85},{"user_id":330,"name":"edelyn","steam_id":76561198815644949,"connected_time":1029000000000,"state":"active","ping":58},{"user_id":272,"name":"Lilith","steam_id":76561198125102885,"connected_time":5049000000000,"state":"active","ping":69},{"user_id":274,"name":"Orca?","steam_id":76561198164341099,"connected_time":5047000000000,"state":"active","ping":89},{"user_id":331,"name":"estrogen addict","steam_id":76561199185046348,"connected_time":991000000000,"state":"active","ping":84},{"user_id":332,"name":"Nassu","steam_id":76561198147367577,"connected_time":923000000000,"state":"active","ping":72},{"user_id":236,"name":"hi","steam_id":76561198809577048,"connected_time":8654000000000,"state":"active","ping":102},{"user_id":281,"name":"THEDINKY","steam_id":76561198190077399,"connected_time":4572000000000,"state":"active","ping":64},{"user_id":319,"name":"wiiblob","steam_id":76561198109106242,"connected_time":2129000000000,"state":"active","ping":137},{"user_id":314,"name":"DocLucky","steam_id":76561199093899249,"connected_time":2463000000000,"state":"active","ping":166},{"user_id":333,"name":"LAB8","steam_id":76561198047743526,"connected_time":896000000000,"state":"active","ping":90},{"user_id":309,"name":"Simply-Vincenzo","steam_id":76561198044580842,"connected_time":2770000000000,"state":"active","ping":124},{"user_id":320,"name":"Bee","steam_id":76561198074681324,"connected_time":2090000000000,"state":"active","ping":66},{"user_id":334,"name":"Shaby_Frost","steam_id":76561198401334563,"connected_time":889000000000,"state":"active","ping":54},{"user_id":324,"name":"Fuegan Ra","steam_id":76561198287923849,"connected_time":1633000000000,"state":"active","ping":56}]},{"server_id":106,"name":"Uncletopia | Chicago | 2 | All Maps","name_short":"chi-2","host":"chi-1.us.uncletopia.com","port":27025,"enabled":true,"region":"us-central","cc":"us","latitude":41.881832,"longitude":-87.62318,"reserved":0,"last_update":"0001-01-01T00:00:00Z","name_a2s":"Uncletopia | Chicago | 2 | All Maps","protocol":17,"map":"pl_badwater","folder":"tf","game":"Team Fortress","app_id":440,"player_count":24,"max_players":24,"Bots":0,"server_type":"Dedicated","server_os":"Linux","password":true,"vac":true,"version":"7757534","steam_id":85568392924469985,"keywords":["nocrits","nodmgspread","payload","uncletopia"],"game_id":440,"stv_port":27026,"stv_name":"Uncletopia | Chicago | 2 | All Maps | STV","players":[{"user_id":196,"name":"Vv","steam_id":76561199052196750,"connected_time":100000000000,"state":"spawning","ping":149},{"user_id":178,"name":"Patriot Pills","steam_id":76561198381647349,"connected_time":1146000000000,"state":"active","ping":70},{"user_id":129,"name":"General Jimbo","steam_id":76561198075426735,"connected_time":4968000000000,"state":"active","ping":82},{"user_id":171,"name":"Saggy","steam_id":76561198166706479,"connected_time":1599000000000,"state":"active","ping":70},{"user_id":110,"name":"dairy","steam_id":76561198117033273,"connected_time":7294000000000,"state":"active","ping":136},{"user_id":195,"name":"NUKAHOLIC","steam_id":76561198095051652,"connected_time":171000000000,"state":"active","ping":50},{"user_id":179,"name":"Insect Abdomen Appreciator","steam_id":76561198980062131,"connected_time":1116000000000,"state":"active","ping":72},{"user_id":186,"name":"Medigun Broke (Sorry)","steam_id":76561198016168993,"connected_time":955000000000,"state":"active","ping":140},{"user_id":176,"name":"‚ñ≤‚ñº‚ñ≤ Paul Atreideeznuts","steam_id":76561198015714075,"connected_time":1400000000000,"state":"active","ping":74},{"user_id":184,"name":"cj da man","steam_id":76561198303575607,"connected_time":1025000000000,"state":"active","ping":83},{"user_id":160,"name":"Weerk","steam_id":76561199209543551,"connected_time":3045000000000,"state":"active","ping":76},{"user_id":162,"name":"Gamut","steam_id":76561199185822800,"connected_time":2739000000000,"state":"active","ping":74},{"user_id":181,"name":"shnowshner","steam_id":76561198066450438,"connected_time":1093000000000,"state":"active","ping":83},{"user_id":182,"name":"ZenkoZSprite","steam_id":76561198190132250,"connected_time":1087000000000,"state":"active","ping":59},{"user_id":188,"name":"Satori Komeiji","steam_id":76561198158211423,"connected_time":846000000000,"state":"active","ping":105},{"user_id":174,"name":"Skullypoo","steam_id":76561198067912022,"connected_time":1522000000000,"state":"active","ping":61},{"user_id":193,"name":"Errrmmett","steam_id":76561198041314051,"connected_time":303000000000,"state":"active","ping":64},{"user_id":194,"name":"floppy muppet","steam_id":76561198003076261,"connected_time":260000000000,"state":"active","ping":81},{"user_id":168,"name":"purple diesel","steam_id":76561197976548449,"connected_time":2118000000000,"state":"active","ping":105},{"user_id":166,"name":"TruffleShuffl","steam_id":76561198833742625,"connected_time":2679000000000,"state":"active","ping":60},{"user_id":185,"name":"Flyinglab","steam_id":76561198042161408,"connected_time":1006000000000,"state":"active","ping":75},{"user_id":175,"name":"Biggles","steam_id":76561198126576389,"connected_time":1481000000000,"state":"active","ping":72},{"user_id":191,"name":"Punished Jeff #NeverSimpAgain","steam_id":76561198304252584,"connected_time":560000000000,"state":"active","ping":96},{"user_id":197,"name":"Gato","steam_id":76561198063521721,"connected_time":44000000000,"state":"active","ping":78}]},{"server_id":402,"name":"Uncletopia | Chicago | 3 | All Maps","name_short":"chi-3","host":"chi-1.us.uncletopia.com","port":27035,"enabled":true,"region":"us-central","cc":"us","latitude":41.881832,"longitude":-87.62318,"reserved":0,"last_update":"0001-01-01T00:00:00Z","name_a2s":"Uncletopia | Chicago | 3 | All Maps","protocol":17,"map":"cp_dustbowl","folder":"tf","game":"Team Fortress","app_id":440,"player_count":8,"max_players":24,"Bots":0,"server_type":"Dedicated","server_os":"Linux","password":true,"vac":true,"version":"7757534","steam_id":85568392924515191,"keywords":["cp","nocrits","nodmgspread","uncletopia"],"game_id":440,"stv_port":27036,"stv_name":"Uncletopia | Chicago | 3 | All Maps | STV","players":[{"user_id":52,"name":"averagesoldiermain","steam_id":76561198158447466,"connected_time":469000000000,"state":"active","ping":65},{"user_id":46,"name":"nth derivative","steam_id":76561198081971317,"connected_time":1974000000000,"state":"active","ping":47},{"user_id":47,"name":"LegoLeo","steam_id":76561199230114771,"connected_time":1436000000000,"state":"active","ping":154},{"user_id":53,"name":"super dookie 69","steam_id":76561198300660227,"connected_time":440000000000,"state":"active","ping":37},{"user_id":54,"name":"Thequirka","steam_id":76561198968058652,"connected_time":420000000000,"state":"active","ping":90},{"user_id":57,"name":"EmptyB33R","steam_id":76561198993166528,"connected_time":140000000000,"state":"active","ping":160},{"user_id":59,"name":"GreenGamer","steam_id":76561199092014466,"connected_time":99000000000,"state":"active","ping":254},{"user_id":60,"name":"Cheeeeeeeen","steam_id":76561198986388085,"connected_time":26000000000,"state":"active","ping":110}]},{"server_id":403,"name":"Uncletopia | Chicago | 4 | All Maps","name_short":"chi-4","host":"chi-1.us.uncletopia.com","port":27045,"enabled":true,"region":"us-central","cc":"us","latitude":41.881832,"longitude":-87.62318,"reserved":0,"last_update":"0001-01-01T00:00:00Z","name_a2s":"Uncletopia | Chicago | 4 | All Maps","protocol":17,"map":"pl_pier","folder":"tf","game":"Team Fortress","app_id":440,"player_count":24,"max_players":24,"Bots":0,"server_type":"Dedicated","server_os":"Linux","password":true,"vac":true,"version":"7757534","steam_id":85568392924515193,"keywords":["nocrits","nodmgspread","payload","uncletopia"],"game_id":440,"stv_port":27046,"stv_name":"Uncletopia | Chicago | 4 | All Maps | STV","players":[{"user_id":254,"name":"El Bondin","steam_id":76561198820792434,"connected_time":2703000000000,"state":"active","ping":101},{"user_id":272,"name":"dude smoothie","steam_id":76561199122915452,"connected_time":1003000000000,"state":"active","ping":98},{"user_id":255,"name":"Bozanimal","steam_id":76561198044096897,"connected_time":2620000000000,"state":"active","ping":64},{"user_id":256,"name":"Buttons :)","steam_id":76561198139478534,"connected_time":2442000000000,"state":"active","ping":108},{"user_id":262,"name":"Gromlin","steam_id":76561198042055526,"connected_time":2202000000000,"state":"active","ping":79},{"user_id":275,"name":"crayonnipple","steam_id":76561198070253331,"connected_time":897000000000,"state":"active","ping":74},{"user_id":283,"name":"wahooka","steam_id":76561197981211922,"connected_time":215000000000,"state":"active","ping":70},{"user_id":281,"name":"Limasio","steam_id":76561198198176191,"connected_time":489000000000,"state":"active","ping":65},{"user_id":224,"name":"Anita Hanjaab","steam_id":76561198111669774,"connected_time":4507000000000,"state":"active","ping":47},{"user_id":245,"name":"shake","steam_id":76561199064204750,"connected_time":3381000000000,"state":"active","ping":79},{"user_id":276,"name":"Sh3ba Spaniel","steam_id":76561198047412394,"connected_time":853000000000,"state":"active","ping":62},{"user_id":278,"name":"God's Goofiest Goober","steam_id":76561198132557605,"connected_time":829000000000,"state":"active","ping":109},{"user_id":282,"name":"thanksgiving turkey","steam_id":76561198976876859,"connected_time":244000000000,"state":"active","ping":85},{"user_id":280,"name":"Lawrence Pemberton","steam_id":76561198180863090,"connected_time":623000000000,"state":"active","ping":79},{"user_id":240,"name":"B.","steam_id":76561198040445907,"connected_time":3448000000000,"state":"active","ping":73},{"user_id":241,"name":"Goober","steam_id":76561198988863807,"connected_time":3442000000000,"state":"active","ping":72},{"user_id":247,"name":"Morshu","steam_id":76561198064474215,"connected_time":3356000000000,"state":"active","ping":95},{"user_id":270,"name":"amablehughes","steam_id":76561199007131236,"connected_time":1049000000000,"state":"active","ping":83},{"user_id":269,"name":"-W3E- grim10465","steam_id":76561198045698581,"connected_time":1588000000000,"state":"active","ping":45},{"user_id":274,"name":"SpringSeas","steam_id":76561199019859624,"connected_time":909000000000,"state":"active","ping":72},{"user_id":252,"name":"Onyx","steam_id":76561198275349640,"connected_time":3122000000000,"state":"active","ping":82},{"user_id":266,"name":"GoldenSongbird","steam_id":76561198337535669,"connected_time":1818000000000,"state":"active","ping":83},{"user_id":268,"name":"alandus","steam_id":76561198310789626,"connected_time":1762000000000,"state":"active","ping":64},{"user_id":235,"name":"floofy","steam_id":76561198389769098,"connected_time":3559000000000,"state":"active","ping":90}]},{"server_id":36,"name":"Uncletopia | Chicago | 5 | All Maps","name_short":"chi-5","host":"chi-2.us.uncletopia.com","port":27015,"enabled":true,"region":"us-central","cc":"us","latitude":41.881832,"longitude":-87.62318,"reserved":0,"last_update":"0001-01-01T00:00:00Z","name_a2s":"Uncletopia | Chicago | 5 | All Maps","protocol":17,"map":"pl_badwater","folder":"tf","game":"Team Fortress","app_id":440,"player_count":22,"max_players":24,"Bots":0,"server_type":"Dedicated","server_os":"Linux","password":true,"vac":true,"version":"7757534","steam_id":85568392924866362,"keywords":["nocrits","nodmgspread","payload","uncletopia"],"game_id":440,"stv_port":27016,"stv_name":"Uncletopia | Chicago | 5 | All Maps | STV","players":[{"user_id":62,"name":"GatoSeiko","steam_id":76561198001001360,"connected_time":410000000000,"state":"active","ping":179},{"user_id":53,"name":"frank","steam_id":76561198045436159,"connected_time":1478000000000,"state":"active","ping":77},{"user_id":64,"name":"„ÄåSwede„Äç","steam_id":76561198024821171,"connected_time":59000000000,"state":"active","ping":86},{"user_id":65,"name":"borzier","steam_id":76561198069190432,"connected_time":52000000000,"state":"active","ping":81},{"user_id":44,"name":"Jambi","steam_id":76561198846091685,"connected_time":2162000000000,"state":"active","ping":60},{"user_id":66,"name":"choi","steam_id":76561198053669887,"connected_time":39000000000,"state":"active","ping":106},{"user_id":46,"name":"arse77","steam_id":76561198169613105,"connected_time":2118000000000,"state":"active","ping":70},{"user_id":50,"name":"M E M E  M A N","steam_id":76561198103179061,"connected_time":1950000000000,"state":"active","ping":62},{"user_id":60,"name":"Flying Emu","steam_id":76561198121632924,"connected_time":714000000000,"state":"active","ping":72},{"user_id":69,"name":"BigBubble42","steam_id":76561198136286123,"connected_time":9000000000,"state":"spawning","ping":46},{"user_id":54,"name":"Pharma","steam_id":76561198258475476,"connected_time":1416000000000,"state":"active","ping":81},{"user_id":38,"name":"Red_Hatkins","steam_id":76561198214004105,"connected_time":2484000000000,"state":"active","ping":86},{"user_id":49,"name":"pool shark","steam_id":76561198130191179,"connected_time":2067000000000,"state":"active","ping":70},{"user_id":68,"name":"Doomagedden","steam_id":76561198272589475,"connected_time":15000000000,"state":"spawning","ping":88},{"user_id":70,"name":"ribbonborn","steam_id":76561198001195423,"connected_time":4000000000,"state":"spawning","ping":73},{"user_id":26,"name":"Waffle Wannabe","steam_id":76561198064510650,"connected_time":2848000000000,"state":"active","ping":58},{"user_id":27,"name":"AL SPUGNAR","steam_id":76561199020253203,"connected_time":2845000000000,"state":"active","ping":115},{"user_id":71,"name":"Garzy Hardbody","steam_id":76561198024304342,"connected_time":2000000000,"state":"spawning","ping":85},{"user_id":55,"name":"wish.com aim","steam_id":76561198083345384,"connected_time":1414000000000,"state":"active","ping":89},{"user_id":52,"name":"Grand Piano Tuna","steam_id":76561198135137213,"connected_time":1623000000000,"state":"active","ping":74},{"user_id":63,"name":"RAMPAGE","steam_id":76561199183495620,"connected_time":404000000000,"state":"active","ping":75},{"user_id":56,"name":"Seal","steam_id":76561197970204043,"connected_time":1270000000000,"state":"active","ping":90}]},{"server_id":37,"name":"Uncletopia | Chicago | 6 | All Maps","name_short":"chi-6","host":"chi-2.us.uncletopia.com","port":27025,"enabled":true,"region":"us-central","cc":"us","latitude":41.881832,"longitude":-87.62318,"reserved":0,"last_update":"0001-01-01T00:00:00Z","name_a2s":"Uncletopia | Chicago | 6 | All Maps","protocol":17,"map":"pl_borneo","folder":"tf","game":"Team Fortress","app_id":440,"player_count":0,"max_players":24,"Bots":0,"server_type":"Dedicated","server_os":"Linux","password":true,"vac":true,"version":"7757534","steam_id":85568392924866363,"keywords":["nocrits","nodmgspread","payload","uncletopia"],"game_id":440,"stv_port":27026,"stv_name":"Uncletopia | Chicago | 6 | All Maps | STV","players":null},{"server_id":38,"name":"Uncletopia | Chicago | 7 | Stopwatch Beta","name_short":"chi-7","host":"chi-2.us.uncletopia.com","port":27035,"enabled":true,"region":"us-central","cc":"us","latitude":41.881832,"longitude":-87.62318,"reserved":0,"last_update":"0001-01-01T00:00:00Z","name_a2s":"Uncletopia | Chicago | 7 | Stopwatch Beta","protocol":17,"map":"koth_viaduct","folder":"tf","game":"Team Fortress","app_id":440,"player_count":0,"max_players":24,"Bots":0,"server_type":"Dedicated","server_os":"Linux","password":true,"vac":true,"version":"7757534","steam_id":85568392924866364,"keywords":["cp","nocrits","nodmgspread","uncletopia"],"game_id":440,"stv_port":27036,"stv_name":"Uncletopia | Chicago | 7 | Stopwatch Beta | STV","players":null},{"server_id":39,"name":"Uncletopia | Chicago | 8 | Community","name_short":"chi-8","host":"chi-2.us.uncletopia.com","port":27045,"enabled":true,"region":"us-central","cc":"us","latitude":41.881832,"longitude":-87.62318,"reserved":0,"last_update":"0001-01-01T00:00:00Z","name_a2s":"Uncletopia | Chicago | 8 | Community","protocol":17,"map":"koth_lakeside_final","folder":"tf","game":"Team Fortress","app_id":440,"player_count":0,"max_players":24,"Bots":0,"server_type":"Dedicated","server_os":"Linux","password":true,"vac":true,"version":"7757534","steam_id":85568392924866365,"keywords":["cp","nocrits","nodmgspread","uncletopia"],"game_id":440,"stv_port":27046,"stv_name":"Uncletopia | Chicago | 8 | Community | STV","players":null},{"server_id":8,"name":"Uncletopia | Dallas | 1 | All Maps","name_short":"dal-1","host":"dal-1.us.uncletopia.com","port":27015,"enabled":true,"region":"us-central","cc":"us","latitude":32.779167,"longitude":-96.80889,"reserved":0,"last_update":"0001-01-01T00:00:00Z","name_a2s":"Uncletopia | Dallas | 1 | All Maps","protocol":17,"map":"cp_dustbowl","folder":"tf","game":"Team Fortress","app_id":440,"player_count":0,"max_players":24,"Bots":0,"server_type":"Dedicated","server_os":"Linux","password":true,"vac":true,"version":"7757534","steam_id":85568392924469986,"keywords":["cp","nocrits","nodmgspread","uncletopia"],"game_id":440,"stv_port":27016,"stv_name":"Uncletopia | Dallas | 1 | All Maps | STV","players":null},{"server_id":108,"name":"Uncletopia | Dallas | 2 | All Maps","name_short":"dal-2","host":"dal-1.us.uncletopia.com","port":27025,"enabled":true,"region":"us-central","cc":"us","latitude":32.779167,"longitude":-96.80889,"reserved":0,"last_update":"0001-01-01T00:00:00Z","name_a2s":"Uncletopia | Dallas | 2 | All Maps","protocol":17,"map":"koth_highpass","folder":"tf","game":"Team Fortress","app_id":440,"player_count":0,"max_players":24,"Bots":0,"server_type":"Dedicated","server_os":"Linux","password":true,"vac":true,"version":"7757534","steam_id":85568392924469988,"keywords":["cp","nocrits","nodmgspread","uncletopia"],"game_id":440,"stv_port":27026,"stv_name":"Uncletopia | Dallas | 2 | All Maps | STV","players":null},{"server_id":5,"name":"Uncletopia | Frankfurt | 1 | All Maps","name_short":"frk-1","host":"frk-1.de.uncletopia.com","port":27015,"enabled":true,"region":"eu","cc":"de","latitude":50.110924,"longitude":8.682127,"reserved":0,"last_update":"0001-01-01T00:00:00Z","name_a2s":"Uncletopia | Frankfurt | 1 | All Maps","protocol":17,"map":"pl_barnblitz","folder":"tf","game":"Team Fortress","app_id":440,"player_count":25,"max_players":24,"Bots":0,"server_type":"Dedicated","server_os":"Linux","password":true,"vac":true,"version":"7757534","steam_id":85568392924469989,"keywords":["nocrits","nodmgspread","payload","uncletopia"],"game_id":440,"stv_port":27016,"stv_name":"Uncletopia | Frankfurt | 1 | All Maps | STV","players":[{"user_id":666,"name":"MAKENTAKEN","steam_id":76561199127359587,"connected_time":334000000000,"state":"active","ping":88},{"user_id":667,"name":"ghost","steam_id":76561198189940229,"connected_time":212000000000,"state":"active","ping":69},{"user_id":570,"name":"neJ","steam_id":76561198003397488,"connected_time":5181000000000,"state":"active","ping":73},{"user_id":608,"name":"‚òÖpoyo‚òÖ","steam_id":76561198150078959,"connected_time":3830000000000,"state":"active","ping":77},{"user_id":626,"name":"Mussolini","steam_id":76561198218384865,"connected_time":3418000000000,"state":"active","ping":93},{"user_id":630,"name":"–±–ª–∏–Ω!","steam_id":76561198808819694,"connected_time":3084000000000,"state":"active","ping":45},{"user_id":650,"name":"Meta","steam_id":76561198413073432,"connected_time":1982000000000,"state":"active","ping":66},{"user_id":645,"name":"Seail_M","steam_id":76561198002405605,"connected_time":2281000000000,"state":"active","ping":50},{"user_id":640,"name":"Endi","steam_id":76561198914938199,"connected_time":2445000000000,"state":"active","ping":92},{"user_id":663,"name":"Chad","steam_id":76561198037309490,"connected_time":429000000000,"state":"active","ping":64},{"user_id":657,"name":"Egor Pomidor","steam_id":76561199175688390,"connected_time":1709000000000,"state":"active","ping":75},{"user_id":669,"name":"LarsInABox","steam_id":76561198028329262,"connected_time":173000000000,"state":"active","ping":69},{"user_id":564,"name":"Balls","steam_id":76561198086400484,"connected_time":5577000000000,"state":"active","ping":77},{"user_id":671,"name":"Cookies and Bakies","steam_id":76561198017442928,"connected_time":18000000000,"state":"active","ping":56},{"user_id":654,"name":"„É†GeRmAn |√óUA√ó„É†","steam_id":76561199044754898,"connected_time":1902000000000,"state":"active","ping":72},{"user_id":639,"name":"Mr.Schnittlauch","steam_id":76561198295868113,"connected_time":2589000000000,"state":"active","ping":67},{"user_id":672,"name":"Pestdoktor","steam_id":76561198058159271,"connected_time":6000000000,"state":"spawning","ping":41},{"user_id":635,"name":"Jeeworth","steam_id":76561198797972504,"connected_time":2858000000000,"state":"active","ping":78},{"user_id":648,"name":"Gryoss","steam_id":76561197999837111,"connected_time":2085000000000,"state":"active","ping":102},{"user_id":653,"name":"Fat Pigeon","steam_id":76561198817940142,"connected_time":1941000000000,"state":"active","ping":46},{"user_id":655,"name":"fallingpencil","steam_id":76561199230233148,"connected_time":1860000000000,"state":"active","ping":68},{"user_id":631,"name":"$13 hand-crank","steam_id":76561198029998773,"connected_time":2999000000000,"state":"active","ping":62},{"user_id":656,"name":"Kotlet schabowy","steam_id":76561198048983509,"connected_time":1797000000000,"state":"active","ping":79},{"user_id":665,"name":"X-tis","steam_id":76561198043837480,"connected_time":385000000000,"state":"active","ping":75},{"user_id":673,"name":"FUKTARD2005","steam_id":76561198839121591,"connected_time":5000000000,"state":"spawning","ping":46}]},{"server_id":110,"name":"Uncletopia | Frankfurt | 2 | All Maps","name_short":"frk-2","host":"frk-1.de.uncletopia.com","port":27025,"enabled":true,"region":"eu","cc":"de","latitude":50.110924,"longitude":8.682127,"reserved":0,"last_update":"0001-01-01T00:00:00Z","name_a2s":"Uncletopia | Frankfurt | 2 | All Maps","protocol":17,"map":"cp_steel","folder":"tf","game":"Team Fortress","app_id":440,"player_count":23,"max_players":24,"Bots":0,"server_type":"Dedicated","server_os":"Linux","password":true,"vac":true,"version":"7757534","steam_id":85568392924469990,"keywords":["cp","nocrits","nodmgspread","uncletopia"],"game_id":440,"stv_port":27026,"stv_name":"Uncletopia | Frankfurt | 2 | All Maps | STV","players":[{"user_id":353,"name":"Plop_","steam_id":76561198112567921,"connected_time":503000000000,"state":"active","ping":46},{"user_id":265,"name":"ldshwt","steam_id":76561198090364357,"connected_time":2726000000000,"state":"active","ping":59},{"user_id":311,"name":"Oki (Bon)","steam_id":76561199047748534,"connected_time":1550000000000,"state":"active","ping":68},{"user_id":308,"name":"Cosmetic brain","steam_id":76561198055936410,"connected_time":1582000000000,"state":"active","ping":88},{"user_id":309,"name":"Wir suchen dich!","steam_id":76561198307613521,"connected_time":1580000000000,"state":"active","ping":58},{"user_id":181,"name":"Lyra","steam_id":76561198043601838,"connected_time":8024000000000,"state":"active","ping":60},{"user_id":321,"name":"Dr.Cranium","steam_id":76561197992726926,"connected_time":1309000000000,"state":"active","ping":107},{"user_id":132,"name":"rigel_","steam_id":76561198148640847,"connected_time":11683000000000,"state":"active","ping":80},{"user_id":358,"name":"cowboy","steam_id":76561198080361351,"connected_time":267000000000,"state":"active","ping":58},{"user_id":268,"name":"adm1ral_plunge","steam_id":76561198035342559,"connected_time":2683000000000,"state":"active","ping":79},{"user_id":215,"name":"kiler.hunter.pro","steam_id":76561198074917015,"connected_time":4293000000000,"state":"active","ping":71},{"user_id":314,"name":"baro.ricky","steam_id":76561198172204039,"connected_time":1444000000000,"state":"active","ping":70},{"user_id":208,"name":"Nostradamus","steam_id":76561198349792686,"connected_time":5143000000000,"state":"active","ping":66},{"user_id":180,"name":"Healix","steam_id":76561198130270161,"connected_time":8060000000000,"state":"active","ping":54},{"user_id":196,"name":"‰∫ûÊ≠∑Â±±Â§ß","steam_id":76561199042056825,"connected_time":6567000000000,"state":"active","ping":56},{"user_id":192,"name":"one tap hedchot","steam_id":76561198106049954,"connected_time":7535000000000,"state":"active","ping":79},{"user_id":315,"name":"poliakov.noam","steam_id":76561199259322961,"connected_time":1435000000000,"state":"active","ping":107},{"user_id":195,"name":"sinologist","steam_id":76561198080912087,"connected_time":6742000000000,"state":"active","ping":62},{"user_id":345,"name":"Deva Path","steam_id":76561198085763542,"connected_time":731000000000,"state":"active","ping":69},{"user_id":284,"name":"_Shkoot","steam_id":76561198318170398,"connected_time":2250000000000,"state":"active","ping":42},{"user_id":317,"name":"Kowakum","steam_id":76561197998125950,"connected_time":1390000000000,"state":"active","ping":105},{"user_id":318,"name":"NiceBird","steam_id":76561198072118644,"connected_time":1388000000000,"state":"active","ping":48},{"user_id":349,"name":"askoidufjh","steam_id":76561198198581079,"connected_time":656000000000,"state":"active","ping":90}]},{"server_id":308,"name":"Uncletopia | Frankfurt | 3 | All Maps","name_short":"frk-3","host":"frk-1.de.uncletopia.com","port":27035,"enabled":true,"region":"eu","cc":"de","latitude":50.110924,"longitude":8.682127,"reserved":0,"last_update":"0001-01-01T00:00:00Z","name_a2s":"Uncletopia | Frankfurt | 3 | All Maps","protocol":17,"map":"koth_suijin","folder":"tf","game":"Team Fortress","app_id":440,"player_count":0,"max_players":24,"Bots":0,"server_type":"Dedicated","server_os":"Linux","password":true,"vac":true,"version":"7757534","steam_id":85568392924504274,"keywords":["cp","nocrits","nodmgspread","uncletopia"],"game_id":440,"stv_port":27036,"stv_name":"Uncletopia | Frankfurt | 3 | All Maps | STV","players":null},{"server_id":309,"name":"Uncletopia | Frankfurt | 4 | All Maps","name_short":"frk-4","host":"frk-1.de.uncletopia.com","port":27045,"enabled":true,"region":"eu","cc":"de","latitude":50.110924,"longitude":8.682127,"reserved":0,"last_update":"0001-01-01T00:00:00Z","name_a2s":"Uncletopia | Frankfurt | 4 | All Maps","protocol":17,"map":"pl_frontier_final","folder":"tf","game":"Team Fortress","app_id":440,"player_count":21,"max_players":24,"Bots":0,"server_type":"Dedicated","server_os":"Linux","password":true,"vac":true,"version":"7757534","steam_id":85568392924504275,"keywords":["nocrits","nodmgspread","payload","uncletopia"],"game_id":440,"stv_port":27046,"stv_name":"Uncletopia | Frankfurt | 4 | All Maps | STV","players":[{"user_id":18,"name":"Russenluster","steam_id":76561198118016220,"connected_time":948000000000,"state":"active","ping":56},{"user_id":19,"name":"twink detector","steam_id":76561198161070639,"connected_time":919000000000,"state":"active","ping":43},{"user_id":21,"name":"I eat plutonium cores","steam_id":76561198339480413,"connected_time":687000000000,"state":"active","ping":68},{"user_id":22,"name":"Milca_11 [Original Onslaught]","steam_id":76561198848650365,"connected_time":644000000000,"state":"active","ping":88},{"user_id":23,"name":"Valoxi","steam_id":76561197995042938,"connected_time":637000000000,"state":"active","ping":67},{"user_id":25,"name":"–¢—Ä—É–ø –í–æ–ª–æ–¥—è","steam_id":76561198035718457,"connected_time":470000000000,"state":"active","ping":78},{"user_id":26,"name":"Quinton Heckroth","steam_id":76561197979780972,"connected_time":356000000000,"state":"active","ping":45},{"user_id":27,"name":"Jokudami","steam_id":76561198346604154,"connected_time":291000000000,"state":"active","ping":50},{"user_id":28,"name":"RussianPingLord","steam_id":76561199055517485,"connected_time":288000000000,"state":"active","ping":1041},{"user_id":29,"name":"P√¶b√¶s","steam_id":76561198088369219,"connected_time":247000000000,"state":"active","ping":79},{"user_id":30,"name":"F","steam_id":76561199149462792,"connected_time":229000000000,"state":"active","ping":67},{"user_id":31,"name":"CAWER","steam_id":76561198277265652,"connected_time":193000000000,"state":"active","ping":56},{"user_id":32,"name":"jones","steam_id":76561198044434971,"connected_time":175000000000,"state":"active","ping":60},{"user_id":35,"name":"Savlon","steam_id":76561198011597274,"connected_time":115000000000,"state":"active","ping":45},{"user_id":34,"name":"AmadStatistician","steam_id":76561198163654770,"connected_time":123000000000,"state":"active","ping":69},{"user_id":36,"name":"eduardo","steam_id":76561198014491925,"connected_time":114000000000,"state":"active","ping":93},{"user_id":37,"name":"Pyrolander","steam_id":76561198050785450,"connected_time":99000000000,"state":"active","ping":59},{"user_id":38,"name":"Ork","steam_id":76561197968575924,"connected_time":92000000000,"state":"active","ping":68},{"user_id":39,"name":"astigmatic","steam_id":76561199103959197,"connected_time":91000000000,"state":"active","ping":85},{"user_id":40,"name":"Amdon.art","steam_id":76561198066251000,"connected_time":78000000000,"state":"active","ping":47},{"user_id":41,"name":"Een schaap zonder slaap","steam_id":76561198084808410,"connected_time":23000000000,"state":"spawning","ping":64}]},{"server_id":310,"name":"Uncletopia | Frankfurt | 5 | All Maps","name_short":"frk-5","host":"frk-1.de.uncletopia.com","port":27055,"enabled":true,"region":"eu","cc":"de","latitude":50.110924,"longitude":8.682127,"reserved":0,"last_update":"0001-01-01T00:00:00Z","name_a2s":"Uncletopia | Frankfurt | 5 | All Maps","protocol":17,"map":"pl_pier","folder":"tf","game":"Team Fortress","app_id":440,"player_count":24,"max_players":24,"Bots":0,"server_type":"Dedicated","server_os":"Linux","password":true,"vac":true,"version":"7757534","steam_id":85568392924504277,"keywords":["nocrits","nodmgspread","payload","uncletopia"],"game_id":440,"stv_port":27056,"stv_name":"Uncletopia | Frankfurt | 5 | All Maps | STV","players":[{"user_id":239,"name":"Taskyy","steam_id":76561198134901175,"connected_time":1663000000000,"state":"active","ping":84},{"user_id":234,"name":"Hexagon","steam_id":76561198151205758,"connected_time":2677000000000,"state":"active","ping":56},{"user_id":245,"name":"Retarded Asian Programmer","steam_id":76561198852826853,"connected_time":1019000000000,"state":"active","ping":62},{"user_id":246,"name":"-gunripp0r^be / Obelix^","steam_id":76561197999306879,"connected_time":1018000000000,"state":"active","ping":108},{"user_id":253,"name":"Louki","steam_id":76561198150080041,"connected_time":678000000000,"state":"active","ping":60},{"user_id":140,"name":"Carry Krypl","steam_id":76561198136938121,"connected_time":8420000000000,"state":"active","ping":62},{"user_id":201,"name":"kaa","steam_id":76561198044061430,"connected_time":4825000000000,"state":"active","ping":49},{"user_id":254,"name":"Burpman","steam_id":76561198022897937,"connected_time":670000000000,"state":"active","ping":61},{"user_id":249,"name":"Gnaisse","steam_id":76561198010560642,"connected_time":1000000000000,"state":"active","ping":89},{"user_id":198,"name":"Lucan","steam_id":76561198219195135,"connected_time":4998000000000,"state":"active","ping":55},{"user_id":183,"name":"Raymus","steam_id":76561198021330407,"connected_time":5456000000000,"state":"active","ping":48},{"user_id":255,"name":"Acanda","steam_id":76561198123246537,"connected_time":442000000000,"state":"active","ping":54},{"user_id":250,"name":"Cheshireycat","steam_id":76561198067204908,"connected_time":989000000000,"state":"active","ping":72},{"user_id":215,"name":"nibsÓÑ∏","steam_id":76561198040099538,"connected_time":4397000000000,"state":"active","ping":85},{"user_id":236,"name":"maxx","steam_id":76561198260625229,"connected_time":2374000000000,"state":"active","ping":75},{"user_id":241,"name":"BarrackOmaha","steam_id":76561198027922724,"connected_time":1540000000000,"state":"active","ping":86},{"user_id":227,"name":"Battersüå∏","steam_id":76561198927992205,"connected_time":3168000000000,"state":"active","ping":60},{"user_id":248,"name":"zinzyk","steam_id":76561198128011822,"connected_time":1013000000000,"state":"active","ping":59},{"user_id":194,"name":"Torttu","steam_id":76561198013980029,"connected_time":5040000000000,"state":"active","ping":65},{"user_id":232,"name":"mt","steam_id":76561197961319303,"connected_time":2920000000000,"state":"active","ping":54},{"user_id":252,"name":"big tiddy goth gf","steam_id":76561198097507847,"connected_time":695000000000,"state":"active","ping":75},{"user_id":222,"name":"syndenz","steam_id":76561198176063813,"connected_time":4199000000000,"state":"active","ping":68},{"user_id":243,"name":"cat (they/them)","steam_id":76561198416657815,"connected_time":1256000000000,"state":"active","ping":76},{"user_id":179,"name":"rox","steam_id":76561198095462283,"connected_time":5641000000000,"state":"active","ping":60}]},{"server_id":311,"name":"Uncletopia | Frankfurt | 6 | All Maps","name_short":"frk-6","host":"frk-1.de.uncletopia.com","port":27065,"enabled":true,"region":"eu","cc":"de","latitude":50.110924,"longitude":8.682127,"reserved":0,"last_update":"0001-01-01T00:00:00Z","name_a2s":"Uncletopia | Frankfurt | 6 | All Maps","protocol":17,"map":"pl_pier","folder":"tf","game":"Team Fortress","app_id":440,"player_count":23,"max_players":24,"Bots":0,"server_type":"Dedicated","server_os":"Linux","password":true,"vac":true,"version":"7757534","steam_id":85568392924504278,"keywords":["nocrits","nodmgspread","payload","uncletopia"],"game_id":440,"stv_port":27066,"stv_name":"Uncletopia | Frankfurt | 6 | All Maps | STV","players":[{"user_id":446,"name":"TheFallenFox","steam_id":76561199074190919,"connected_time":1049000000000,"state":"active","ping":57},{"user_id":428,"name":"Behind you","steam_id":76561198102420849,"connected_time":2527000000000,"state":"active","ping":60},{"user_id":396,"name":"15IQ soldier main","steam_id":76561198798657045,"connected_time":4170000000000,"state":"active","ping":78},{"user_id":423,"name":"fire","steam_id":76561198063674613,"connected_time":2900000000000,"state":"active","ping":44},{"user_id":432,"name":"KingofCubes","steam_id":76561198258037513,"connected_time":1833000000000,"state":"active","ping":75},{"user_id":389,"name":"The Spah","steam_id":76561198292845505,"connected_time":4652000000000,"state":"active","ping":93},{"user_id":402,"name":"Menty","steam_id":76561198036748212,"connected_time":3738000000000,"state":"active","ping":45},{"user_id":420,"name":"Madeen","steam_id":76561198051120288,"connected_time":2969000000000,"state":"active","ping":50},{"user_id":434,"name":"DeCypher [She/Her]","steam_id":76561198171992619,"connected_time":1744000000000,"state":"active","ping":68},{"user_id":435,"name":"Masquerade queen","steam_id":76561198218299273,"connected_time":1571000000000,"state":"active","ping":101},{"user_id":451,"name":"Rudy Karma","steam_id":76561198349348738,"connected_time":328000000000,"state":"active","ping":55},{"user_id":430,"name":"holykyckling","steam_id":76561198040661615,"connected_time":1921000000000,"state":"active","ping":78},{"user_id":437,"name":"let me cook","steam_id":76561198010380786,"connected_time":1540000000000,"state":"active","ping":59},{"user_id":445,"name":".::[SerafeTTiN]::.","steam_id":76561198009471724,"connected_time":1125000000000,"state":"active","ping":86},{"user_id":449,"name":"kaktusswe","steam_id":76561198279344223,"connected_time":876000000000,"state":"active","ping":71},{"user_id":452,"name":"Mateumt","steam_id":76561198101669791,"connected_time":326000000000,"state":"active","ping":59},{"user_id":440,"name":"antlionguard","steam_id":76561198072747143,"connected_time":1514000000000,"state":"active","ping":92},{"user_id":425,"name":"dagadt_ty√∫k.69","steam_id":76561198147173457,"connected_time":2890000000000,"state":"active","ping":66},{"user_id":427,"name":"foureyesfries","steam_id":76561198271831555,"connected_time":2614000000000,"state":"active","ping":68},{"user_id":431,"name":"shmancy","steam_id":76561198091669254,"connected_time":1921000000000,"state":"active","ping":76},{"user_id":444,"name":"trite","steam_id":76561197983765323,"connected_time":1158000000000,"state":"active","ping":72},{"user_id":447,"name":"socaramel","steam_id":76561197984480336,"connected_time":943000000000,"state":"active","ping":83},{"user_id":450,"name":"Drekad√≥ttir","steam_id":76561198119979169,"connected_time":856000000000,"state":"active","ping":72}]},{"server_id":23,"name":"Uncletopia | Frankfurt | 7 | Stopwatch Beta","name_short":"frk-7","host":"frk-1.de.uncletopia.com","port":27075,"enabled":true,"region":"eu","cc":"de","latitude":50.110924,"longitude":8.682127,"reserved":0,"last_update":"0001-01-01T00:00:00Z","name_a2s":"Uncletopia | Frankfurt | 7 | Stopwatch Beta","protocol":17,"map":"pl_borneo","folder":"tf","game":"Team Fortress","app_id":440,"player_count":0,"max_players":24,"Bots":0,"server_type":"Dedicated","server_os":"Linux","password":true,"vac":true,"version":"7757534","steam_id":85568392924742827,"keywords":["nocrits","nodmgspread","payload","uncletopia"],"game_id":440,"stv_port":27076,"stv_name":"Uncletopia | Frankfurt | 7 | Stopwatch Beta | STV","players":null},{"server_id":24,"name":"Uncletopia | Frankfurt | 8 | Community","name_short":"frk-8","host":"frk-1.de.uncletopia.com","port":27085,"enabled":true,"region":"eu","cc":"de","latitude":50.110924,"longitude":8.682127,"reserved":0,"last_update":"0001-01-01T00:00:00Z","name_a2s":"Uncletopia | Frankfurt | 8 | Community","protocol":17,"map":"workshop/koth_bagel_rc6.ugc2514036946","folder":"tf","game":"Team Fortress","app_id":440,"player_count":0,"max_players":24,"Bots":0,"server_type":"Dedicated","server_os":"Linux","password":true,"vac":true,"version":"7757534","steam_id":85568392924742828,"keywords":["cp","nocrits","nodmgspread","uncletopia"],"game_id":440,"stv_port":27086,"stv_name":"Uncletopia | Frankfurt | 8 | Community | STV","players":null},{"server_id":202,"name":"Uncletopia | Hong Kong | 1 | All Maps","name_short":"hgk-1","host":"hgk-1.hk.uncletopia.com","port":27015,"enabled":true,"region":"asia","cc":"hk","latitude":22.302711,"longitude":114.177216,"reserved":0,"last_update":"0001-01-01T00:00:00Z","name_a2s":"Uncletopia | Hong Kong | 1 | All Maps","protocol":17,"map":"pl_borneo","folder":"tf","game":"Team Fortress","app_id":440,"player_count":0,"max_players":24,"Bots":0,"server_type":"Dedicated","server_os":"Linux","password":true,"vac":true,"version":"7757534","steam_id":85568392924494504,"keywords":["nocrits","nodmgspread","payload","uncletopia"],"game_id":440,"stv_port":27016,"stv_name":"Uncletopia | Hong Kong | 1 | All Maps | STV","players":null},{"server_id":1,"name":"Uncletopia | Los Angeles | 1 | All Maps","name_short":"lax-1","host":"lax-1.us.uncletopia.com","port":27015,"enabled":true,"region":"us-west","cc":"us","latitude":33.94279,"longitude":-118.41004,"reserved":0,"last_update":"0001-01-01T00:00:00Z","name_a2s":"Uncletopia | Los Angeles | 1 | All Maps","protocol":17,"map":"cp_process_final","folder":"tf","game":"Team Fortress","app_id":440,"player_count":0,"max_players":24,"Bots":0,"server_type":"Dedicated","server_os":"Linux","password":true,"vac":true,"version":"7757534","steam_id":85568392924469991,"keywords":["cp","nocrits","nodmgspread","uncletopia"],"game_id":440,"stv_port":27016,"stv_name":"Uncletopia | Los Angeles | 1 | All Maps | STV","players":null},{"server_id":112,"name":"Uncletopia | Los Angeles | 2 | All Maps","name_short":"lax-2","host":"lax-1.us.uncletopia.com","port":27025,"enabled":true,"region":"us-west","cc":"us","latitude":33.94279,"longitude":-118.41004,"reserved":0,"last_update":"0001-01-01T00:00:00Z","name_a2s":"Uncletopia | Los Angeles | 2 | All Maps","protocol":17,"map":"koth_viaduct","folder":"tf","game":"Team Fortress","app_id":440,"player_count":0,"max_players":24,"Bots":0,"server_type":"Dedicated","server_os":"Linux","password":true,"vac":true,"version":"7757534","steam_id":85568392924469992,"keywords":["cp","nocrits","nodmgspread","uncletopia"],"game_id":440,"stv_port":27026,"stv_name":"Uncletopia | Los Angeles | 2 | All Maps | STV","players":null},{"server_id":324,"name":"Uncletopia | Los Angeles | 3 | All Maps","name_short":"lax-3","host":"lax-1.us.uncletopia.com","port":27035,"enabled":true,"region":"us-west","cc":"us","latitude":33.94279,"longitude":-118.41004,"reserved":0,"last_update":"0001-01-01T00:00:00Z","name_a2s":"Uncletopia | Los Angeles | 3 | All Maps","protocol":17,"map":"cp_altitude","folder":"tf","game":"Team Fortress","app_id":440,"player_count":0,"max_players":24,"Bots":0,"server_type":"Dedicated","server_os":"Linux","password":true,"vac":true,"version":"7757534","steam_id":85568392924510198,"keywords":["cp","nocrits","nodmgspread","uncletopia"],"game_id":440,"stv_port":27036,"stv_name":"Uncletopia | Los Angeles | 3 | All Maps | STV","players":null},{"server_id":25,"name":"Uncletopia | Los Angeles | 4 | Stopwatch Beta","name_short":"lax-4","host":"lax-1.us.uncletopia.com","port":27045,"enabled":true,"region":"us-west","cc":"us","latitude":33.94279,"longitude":-118.41004,"reserved":0,"last_update":"0001-01-01T00:00:00Z","name_a2s":"Uncletopia | Los Angeles | 4 | Stopwatch Beta","protocol":17,"map":"cp_dustbowl","folder":"tf","game":"Team Fortress","app_id":440,"player_count":0,"max_players":24,"Bots":0,"server_type":"Dedicated","server_os":"Linux","password":true,"vac":true,"version":"7757534","steam_id":85568392924510199,"keywords":["cp","nocrits","nodmgspread","uncletopia"],"game_id":440,"stv_port":27046,"stv_name":"Uncletopia | Los Angeles | 4 | Stopwatch Beta | STV","players":null},{"server_id":11,"name":"Uncletopia | London | 1 | All Maps","name_short":"lon-1","host":"lon-1.uk.uncletopia.com","port":27015,"enabled":true,"region":"eu","cc":"gb","latitude":51.509865,"longitude":-0.118092,"reserved":0,"last_update":"0001-01-01T00:00:00Z","name_a2s":"Uncletopia | London | 1 | All Maps","protocol":17,"map":"koth_lakeside_final","folder":"tf","game":"Team Fortress","app_id":440,"player_count":24,"max_players":24,"Bots":0,"server_type":"Dedicated","server_os":"Linux","password":true,"vac":true,"version":"7757534","steam_id":85568392924367362,"keywords":["cp","nocrits","nodmgspread","uncletopia"],"game_id":440,"stv_port":27016,"stv_name":"Uncletopia | London | 1 | All Maps | STV","players":[{"user_id":335,"name":"Relix18144","steam_id":76561199202454318,"connected_time":2468000000000,"state":"active","ping":98},{"user_id":333,"name":"Cave","steam_id":76561198423147900,"connected_time":2520000000000,"state":"active","ping":55},{"user_id":345,"name":"Rowan Atkinson","steam_id":76561199378865926,"connected_time":2093000000000,"state":"active","ping":80},{"user_id":336,"name":"big hoops","steam_id":76561198004703799,"connected_time":2398000000000,"state":"active","ping":45},{"user_id":361,"name":"The White Alpaca","steam_id":76561198059064870,"connected_time":635000000000,"state":"active","ping":122},{"user_id":365,"name":"Squishy","steam_id":76561198124618876,"connected_time":207000000000,"state":"active","ping":105},{"user_id":337,"name":"poopcorn","steam_id":76561198435246575,"connected_time":2389000000000,"state":"active","ping":52},{"user_id":366,"name":"Is maybe a PonyE","steam_id":76561198000053879,"connected_time":51000000000,"state":"active","ping":71},{"user_id":278,"name":"Discipline.","steam_id":76561198060012688,"connected_time":7874000000000,"state":"active","ping":60},{"user_id":350,"name":"hades","steam_id":76561199435854673,"connected_time":1570000000000,"state":"active","ping":44},{"user_id":323,"name":"azzy","steam_id":76561198061293740,"connected_time":3374000000000,"state":"active","ping":79},{"user_id":320,"name":"pain","steam_id":76561198066287297,"connected_time":3508000000000,"state":"active","ping":46},{"user_id":339,"name":"dec","steam_id":76561198009660168,"connected_time":2387000000000,"state":"active","ping":54},{"user_id":334,"name":"plazma","steam_id":76561198886594048,"connected_time":2519000000000,"state":"active","ping":107},{"user_id":363,"name":"midlpsyzl47","steam_id":76561199475972637,"connected_time":408000000000,"state":"active","ping":63},{"user_id":353,"name":"Qwertuss","steam_id":76561198026305366,"connected_time":1388000000000,"state":"active","ping":58},{"user_id":306,"name":"WAPtrick star","steam_id":76561198133532980,"connected_time":5175000000000,"state":"active","ping":45},{"user_id":357,"name":"Chadrysiaque","steam_id":76561198061333310,"connected_time":1344000000000,"state":"active","ping":59},{"user_id":355,"name":"Shaiva","steam_id":76561198034677706,"connected_time":1360000000000,"state":"active","ping":84},{"user_id":362,"name":"Asbestos Enjoyer","steam_id":76561198001346236,"connected_time":564000000000,"state":"active","ping":75},{"user_id":359,"name":"Sekoju","steam_id":76561198067470819,"connected_time":1154000000000,"state":"active","ping":95},{"user_id":364,"name":"homeinvasion$","steam_id":76561199111905021,"connected_time":237000000000,"state":"active","ping":118},{"user_id":360,"name":"Aaron","steam_id":76561197990046953,"connected_time":857000000000,"state":"active","ping":60},{"user_id":358,"name":"Garden Freeman","steam_id":76561199073314677,"connected_time":1337000000000,"state":"active","ping":79}]},{"server_id":114,"name":"Uncletopia | London | 2 | All Maps","name_short":"lon-2","host":"lon-1.uk.uncletopia.com","port":27025,"enabled":true,"region":"eu","cc":"gb","latitude":51.509865,"longitude":-0.118092,"reserved":0,"last_update":"0001-01-01T00:00:00Z","name_a2s":"Uncletopia | London | 2 | All Maps","protocol":17,"map":"pl_barnblitz","folder":"tf","game":"Team Fortress","app_id":440,"player_count":0,"max_players":24,"Bots":0,"server_type":"Dedicated","server_os":"Linux","password":true,"vac":true,"version":"7757534","steam_id":85568392924470941,"keywords":["nocrits","nodmgspread","payload","uncletopia"],"game_id":440,"stv_port":27026,"stv_name":"Uncletopia | London | 2 | All Maps | STV","players":null},{"server_id":320,"name":"Uncletopia | London | 3 | All Maps","name_short":"lon-3","host":"lon-1.uk.uncletopia.com","port":27035,"enabled":true,"region":"eu","cc":"gb","latitude":51.509865,"longitude":-0.118092,"reserved":0,"last_update":"0001-01-01T00:00:00Z","name_a2s":"Uncletopia | London | 3 | All Maps","protocol":17,"map":"cp_altitude","folder":"tf","game":"Team Fortress","app_id":440,"player_count":22,"max_players":24,"Bots":0,"server_type":"Dedicated","server_os":"Linux","password":true,"vac":true,"version":"7757534","steam_id":85568392924510192,"keywords":["cp","nocrits","nodmgspread","uncletopia"],"game_id":440,"stv_port":27036,"stv_name":"Uncletopia | London | 3 | All Maps | STV","players":[{"user_id":695,"name":"noob_STALIN","steam_id":76561198273030727,"connected_time":813000000000,"state":"active","ping":46},{"user_id":681,"name":"Castellan","steam_id":76561197994861142,"connected_time":1603000000000,"state":"active","ping":67},{"user_id":712,"name":"8 Ball","steam_id":76561197960988736,"connected_time":612000000000,"state":"active","ping":45},{"user_id":688,"name":"Yagami Light","steam_id":76561198031573426,"connected_time":862000000000,"state":"active","ping":72},{"user_id":704,"name":"Blastimus","steam_id":76561198040070927,"connected_time":712000000000,"state":"active","ping":112},{"user_id":707,"name":"LoboPaciente","steam_id":76561198088870962,"connected_time":648000000000,"state":"active","ping":68},{"user_id":694,"name":"Ôº≤ ÔºØ Ôº¢ Ôº¢ Ôº• Ôº≤ Ôº¥","steam_id":76561198134404830,"connected_time":817000000000,"state":"active","ping":142},{"user_id":714,"name":"The 4th Doctor","steam_id":76561198191516706,"connected_time":489000000000,"state":"active","ping":77},{"user_id":715,"name":"MR.CRAB","steam_id":76561198329833659,"connected_time":212000000000,"state":"active","ping":75},{"user_id":699,"name":"lokeeeee","steam_id":76561198055575819,"connected_time":759000000000,"state":"active","ping":54},{"user_id":700,"name":"BookFps","steam_id":76561199113947978,"connected_time":753000000000,"state":"active","ping":82},{"user_id":687,"name":"Sec Innamon","steam_id":76561198355262923,"connected_time":974000000000,"state":"active","ping":62},{"user_id":666,"name":"‚ù§ shrimpee‚ù§ | [she/they]","steam_id":76561198303128670,"connected_time":2773000000000,"state":"active","ping":43},{"user_id":713,"name":"cantsniff","steam_id":76561198259668029,"connected_time":575000000000,"state":"active","ping":48},{"user_id":702,"name":"wolftube","steam_id":76561199109181515,"connected_time":734000000000,"state":"active","ping":87},{"user_id":717,"name":"Archimus","steam_id":76561198097378176,"connected_time":30000000000,"state":"active","ping":58},{"user_id":649,"name":"Qpangfire","steam_id":76561198094354139,"connected_time":3558000000000,"state":"active","ping":45},{"user_id":708,"name":"C0d3s","steam_id":76561198093907544,"connected_time":642000000000,"state":"active","ping":102},{"user_id":716,"name":"senko","steam_id":76561198002990168,"connected_time":202000000000,"state":"active","ping":58},{"user_id":710,"name":"simplistic","steam_id":76561198231690748,"connected_time":625000000000,"state":"active","ping":55},{"user_id":711,"name":"Raven","steam_id":76561198087296188,"connected_time":621000000000,"state":"active","ping":69},{"user_id":662,"name":"Riel","steam_id":76561198066017633,"connected_time":3025000000000,"state":"active","ping":63}]},{"server_id":321,"name":"Uncletopia | London | 4 | All Maps","name_short":"lon-4","host":"lon-1.uk.uncletopia.com","port":27045,"enabled":true,"region":"eu","cc":"gb","latitude":51.509865,"longitude":-0.118092,"reserved":0,"last_update":"0001-01-01T00:00:00Z","name_a2s":"Uncletopia | London | 4 | All Maps","protocol":17,"map":"pl_barnblitz","folder":"tf","game":"Team Fortress","app_id":440,"player_count":22,"max_players":24,"Bots":0,"server_type":"Dedicated","server_os":"Linux","password":true,"vac":true,"version":"7757534","steam_id":85568392924510193,"keywords":["nocrits","nodmgspread","payload","uncletopia"],"game_id":440,"stv_port":27046,"stv_name":"Uncletopia | London | 4 | All Maps | STV","players":[{"user_id":427,"name":"Johan","steam_id":76561199380849468,"connected_time":8280000000000,"state":"active","ping":73},{"user_id":522,"name":"kevin wenstob","steam_id":76561197996149548,"connected_time":13000000000,"state":"active","ping":66},{"user_id":502,"name":"Pancakes","steam_id":76561198196259989,"connected_time":1917000000000,"state":"active","ping":46},{"user_id":478,"name":"TheBeardedM1G","steam_id":76561198040208946,"connected_time":3931000000000,"state":"active","ping":45},{"user_id":436,"name":"frosty","steam_id":76561198094560834,"connected_time":6776000000000,"state":"active","ping":46},{"user_id":510,"name":"Yaire","steam_id":76561198017343510,"connected_time":1601000000000,"state":"active","ping":48},{"user_id":504,"name":"Anonymous47007","steam_id":76561199005211417,"connected_time":1792000000000,"state":"spawning","ping":84},{"user_id":498,"name":"Zerfesh","steam_id":76561198117534358,"connected_time":2284000000000,"state":"spawning","ping":89},{"user_id":521,"name":"Grillem Dafoe","steam_id":76561198306874574,"connected_time":30000000000,"state":"spawning","ping":62},{"user_id":506,"name":"sloppy transgirl toppy","steam_id":76561198057092208,"connected_time":1713000000000,"state":"active","ping":72},{"user_id":508,"name":"VolcanicArts","steam_id":76561198063453246,"connected_time":1679000000000,"state":"active","ping":57},{"user_id":477,"name":"‚òú(Ôæü„ÉÆÔæü‚òú) fribs","steam_id":76561198000461999,"connected_time":3941000000000,"state":"active","ping":47},{"user_id":520,"name":"Borat","steam_id":76561198122226417,"connected_time":336000000000,"state":"active","ping":43},{"user_id":451,"name":"KFD","steam_id":76561198157183003,"connected_time":5282000000000,"state":"active","ping":86},{"user_id":513,"name":"hora","steam_id":76561198404470526,"connected_time":1309000000000,"state":"active","ping":83},{"user_id":486,"name":"LemonLeCitron","steam_id":76561198215545267,"connected_time":2863000000000,"state":"active","ping":65},{"user_id":516,"name":"Breizbuc","steam_id":76561198118220633,"connected_time":1041000000000,"state":"active","ping":60},{"user_id":461,"name":"Thalash","steam_id":76561198064052251,"connected_time":5165000000000,"state":"active","ping":60},{"user_id":519,"name":"Bobirulez","steam_id":76561198009125458,"connected_time":785000000000,"state":"active","ping":75},{"user_id":467,"name":"cinny","steam_id":76561198832112629,"connected_time":4265000000000,"state":"active","ping":85},{"user_id":495,"name":"rubadub rocker","steam_id":76561197984763237,"connected_time":2418000000000,"state":"active","ping":30},{"user_id":475,"name":"‚òú(Ôæü„ÉÆÔæü‚òú) Lux","steam_id":76561198098008231,"connected_time":4070000000000,"state":"active","ping":46}]},{"server_id":21,"name":"Uncletopia | London | 5 | All Maps","name_short":"lon-5","host":"lon-1.uk.uncletopia.com","port":27055,"enabled":true,"region":"eu","cc":"gb","latitude":51.509865,"longitude":-0.118092,"reserved":0,"last_update":"0001-01-01T00:00:00Z","name_a2s":"Uncletopia | London | 5 | All Maps","protocol":17,"map":"koth_lakeside_final","folder":"tf","game":"Team Fortress","app_id":440,"player_count":0,"max_players":24,"Bots":0,"server_type":"Dedicated","server_os":"Linux","password":true,"vac":true,"version":"7757534","steam_id":85568392924742829,"keywords":["cp","nocrits","nodmgspread","uncletopia"],"game_id":440,"stv_port":27056,"stv_name":"Uncletopia | London | 5 | All Maps | STV","players":null},{"server_id":22,"name":"Uncletopia | London | 6 | All Maps","name_short":"lon-6","host":"lon-1.uk.uncletopia.com","port":27065,"enabled":true,"region":"eu","cc":"gb","latitude":51.509865,"longitude":-0.118092,"reserved":0,"last_update":"0001-01-01T00:00:00Z","name_a2s":"Uncletopia | London | 6 | All Maps","protocol":17,"map":"pl_barnblitz","folder":"tf","game":"Team Fortress","app_id":440,"player_count":23,"max_players":24,"Bots":0,"server_type":"Dedicated","server_os":"Linux","password":true,"vac":true,"version":"7757534","steam_id":85568392924742830,"keywords":["nocrits","nodmgspread","payload","uncletopia"],"game_id":440,"stv_port":27066,"stv_name":"Uncletopia | London | 6 | All Maps | STV","players":[{"user_id":147,"name":"Flal","steam_id":76561198453819816,"connected_time":489000000000,"state":"active","ping":68},{"user_id":123,"name":"Penis Contortionist","steam_id":76561198073663784,"connected_time":1307000000000,"state":"active","ping":37},{"user_id":142,"name":"Motley_","steam_id":76561198116057976,"connected_time":753000000000,"state":"active","ping":34},{"user_id":143,"name":"limbicsystem","steam_id":76561198025612680,"connected_time":729000000000,"state":"active","ping":56},{"user_id":157,"name":"yaldabaoth","steam_id":76561198084606869,"connected_time":165000000000,"state":"active","ping":132},{"user_id":159,"name":"Bgm_","steam_id":76561198056452044,"connected_time":126000000000,"state":"active","ping":75},{"user_id":25,"name":"kilikia","steam_id":76561198350261670,"connected_time":7322000000000,"state":"active","ping":104},{"user_id":137,"name":"Dispenser","steam_id":76561198130195469,"connected_time":1055000000000,"state":"active","ping":85},{"user_id":113,"name":"quickfast","steam_id":76561199438900919,"connected_time":2708000000000,"state":"active","ping":43},{"user_id":160,"name":"102ping","steam_id":76561199000963772,"connected_time":82000000000,"state":"active","ping":71},{"user_id":127,"name":"–ö–æ—Ç–ª–µ—Ç–∞ –ë–æ–≥–∞","steam_id":76561198014808352,"connected_time":1188000000000,"state":"active","ping":81},{"user_id":128,"name":"chssdk","steam_id":76561198262231733,"connected_time":1175000000000,"state":"active","ping":75},{"user_id":149,"name":"meatsoupcube","steam_id":76561198276802249,"connected_time":423000000000,"state":"active","ping":101},{"user_id":144,"name":"giclure :;","steam_id":76561197986362828,"connected_time":715000000000,"state":"active","ping":59},{"user_id":151,"name":"Tomfool","steam_id":76561197993256481,"connected_time":183000000000,"state":"active","ping":81},{"user_id":145,"name":"Violapwner","steam_id":76561198030044744,"connected_time":632000000000,"state":"active","ping":64},{"user_id":154,"name":"Miquel128","steam_id":76561198274955794,"connected_time":181000000000,"state":"active","ping":72},{"user_id":36,"name":"zek","steam_id":76561198862763731,"connected_time":7094000000000,"state":"active","ping":80},{"user_id":155,"name":"Mikeshowsha","steam_id":76561199114014127,"connected_time":179000000000,"state":"active","ping":75},{"user_id":134,"name":"FoOzTV","steam_id":76561197998636728,"connected_time":1087000000000,"state":"active","ping":71},{"user_id":135,"name":"Dark ^^","steam_id":76561198036241064,"connected_time":1079000000000,"state":"active","ping":69},{"user_id":158,"name":"Gr√∏nkj√¶r","steam_id":76561198041075280,"connected_time":155000000000,"state":"active","ping":78},{"user_id":141,"name":"bartvanm","steam_id":76561198048553676,"connected_time":843000000000,"state":"active","ping":50}]},{"server_id":40,"name":"Uncletopia | London | 7 | No Payload","name_short":"lon-7","host":"lon-1.uk.uncletopia.com","port":27075,"enabled":true,"region":"eu","cc":"gb","latitude":51.509865,"longitude":-0.118092,"reserved":0,"last_update":"0001-01-01T00:00:00Z","name_a2s":"Uncletopia | London | 7 | No Payload","protocol":17,"map":"koth_highpass","folder":"tf","game":"Team Fortress","app_id":440,"player_count":24,"max_players":24,"Bots":0,"server_type":"Dedicated","server_os":"Linux","password":true,"vac":true,"version":"7757534","steam_id":85568392924964314,"keywords":["cp","nocrits","nodmgspread","uncletopia"],"game_id":440,"stv_port":27076,"stv_name":"Uncletopia | London | 7 | No Payload | STV","players":[{"user_id":163,"name":"jail or the grave","steam_id":76561198274105878,"connected_time":610000000000,"state":"active","ping":83},{"user_id":98,"name":"Pinkchup","steam_id":76561198106802803,"connected_time":6008000000000,"state":"active","ping":75},{"user_id":151,"name":"One Shiny Boi‚Ñ¢","steam_id":76561198199193627,"connected_time":949000000000,"state":"active","ping":66},{"user_id":137,"name":"ev1lboyo","steam_id":76561199199499453,"connected_time":1844000000000,"state":"active","ping":83},{"user_id":149,"name":"Vitun vittu","steam_id":76561198110679463,"connected_time":1073000000000,"state":"active","ping":61},{"user_id":174,"name":"PizzaPete123","steam_id":76561198089478290,"connected_time":184000000000,"state":"active","ping":43},{"user_id":153,"name":"f0x","steam_id":76561198072921704,"connected_time":836000000000,"state":"active","ping":48},{"user_id":154,"name":"\u003eSix in swedish + y","steam_id":76561198372971096,"connected_time":833000000000,"state":"active","ping":70},{"user_id":162,"name":"jj","steam_id":76561198079200985,"connected_time":646000000000,"state":"active","ping":55},{"user_id":173,"name":"Yanis Darkaoui","steam_id":76561199244793006,"connected_time":207000000000,"state":"active","ping":62},{"user_id":169,"name":"k2johnleo Hue","steam_id":76561198046214250,"connected_time":301000000000,"state":"active","ping":55},{"user_id":176,"name":"Birdseye","steam_id":76561198025852216,"connected_time":68000000000,"state":"active","ping":45},{"user_id":109,"name":"Kraiti","steam_id":76561198847296908,"connected_time":4844000000000,"state":"active","ping":83},{"user_id":112,"name":"Space","steam_id":76561198021572167,"connected_time":4721000000000,"state":"active","ping":45},{"user_id":141,"name":"Windows 95 Soda Can","steam_id":76561198378357559,"connected_time":1438000000000,"state":"active","ping":43},{"user_id":167,"name":"meow","steam_id":76561198289343488,"connected_time":512000000000,"state":"active","ping":62},{"user_id":168,"name":"Reiyo the Interloper","steam_id":76561198155092485,"connected_time":483000000000,"state":"active","ping":54},{"user_id":144,"name":"X45Y","steam_id":76561198112534025,"connected_time":1402000000000,"state":"active","ping":61},{"user_id":88,"name":"Juanelo","steam_id":76561199096390505,"connected_time":7239000000000,"state":"active","ping":180},{"user_id":157,"name":"Subterranean","steam_id":76561198106684566,"connected_time":804000000000,"state":"active","ping":86},{"user_id":145,"name":"Silva_mlon","steam_id":76561199310242047,"connected_time":1215000000000,"state":"active","ping":74},{"user_id":158,"name":"Zune","steam_id":76561198119382708,"connected_time":792000000000,"state":"active","ping":82},{"user_id":63,"name":"Syd","steam_id":76561198020515027,"connected_time":8200000000000,"state":"active","ping":82},{"user_id":128,"name":"Gimli","steam_id":76561198004149706,"connected_time":2982000000000,"state":"active","ping":69}]},{"server_id":41,"name":"Uncletopia | London | 8 | Community","name_short":"lon-8","host":"lon-1.uk.uncletopia.com","port":27085,"enabled":true,"region":"eu","cc":"gb","latitude":51.509865,"longitude":-0.118092,"reserved":0,"last_update":"0001-01-01T00:00:00Z","name_a2s":"Uncletopia | London | 8 | Community","protocol":17,"map":"workshop/cp_sulfur_rc2.ugc619869471","folder":"tf","game":"Team Fortress","app_id":440,"player_count":0,"max_players":24,"Bots":0,"server_type":"Dedicated","server_os":"Linux","password":true,"vac":true,"version":"7757534","steam_id":85568392924964315,"keywords":["cp","nocrits","nodmgspread","uncletopia"],"game_id":440,"stv_port":27086,"stv_name":"Uncletopia | London | 8 | Community | STV","players":null},{"server_id":300,"name":"Uncletopia | Montr√©al | 1 | All Maps","name_short":"mtl-1","host":"mtl-1.ca.uncletopia.com","port":27015,"enabled":true,"region":"us-east","cc":"ca","latitude":45.50889,"longitude":-73.56167,"reserved":0,"last_update":"0001-01-01T00:00:00Z","name_a2s":"Uncletopia | Montr√©al | 1 | All Maps","protocol":17,"map":"pl_pier","folder":"tf","game":"Team Fortress","app_id":440,"player_count":0,"max_players":24,"Bots":0,"server_type":"Dedicated","server_os":"Linux","password":true,"vac":true,"version":"7757534","steam_id":85568392924500087,"keywords":["nocrits","nodmgspread","payload","uncletopia"],"game_id":440,"stv_port":27016,"stv_name":"Uncletopia | Montr√©al | 1 | All Maps | STV","players":null},{"server_id":301,"name":"Uncletopia | Montr√©al | 2 | All Maps","name_short":"mtl-2","host":"mtl-1.ca.uncletopia.com","port":27025,"enabled":true,"region":"us-east","cc":"ca","latitude":45.50889,"longitude":-73.56167,"reserved":0,"last_update":"0001-01-01T00:00:00Z","name_a2s":"Uncletopia | Montr√©al | 2 | All Maps","protocol":17,"map":"cp_sunshine","folder":"tf","game":"Team Fortress","app_id":440,"player_count":0,"max_players":24,"Bots":0,"server_type":"Dedicated","server_os":"Linux","password":true,"vac":true,"version":"7757534","steam_id":85568392924500088,"keywords":["cp","nocrits","nodmgspread","uncletopia"],"game_id":440,"stv_port":27026,"stv_name":"Uncletopia | Montr√©al | 2 | All Maps | STV","players":null},{"server_id":302,"name":"Uncletopia | Montr√©al | 3 | All Maps","name_short":"mtl-3","host":"mtl-1.ca.uncletopia.com","port":27035,"enabled":true,"region":"us-east","cc":"ca","latitude":45.50889,"longitude":-73.56167,"reserved":0,"last_update":"0001-01-01T00:00:00Z","name_a2s":"Uncletopia | Montr√©al | 3 | All Maps","protocol":17,"map":"pl_frontier_final","folder":"tf","game":"Team Fortress","app_id":440,"player_count":0,"max_players":24,"Bots":0,"server_type":"Dedicated","server_os":"Linux","password":true,"vac":true,"version":"7757534","steam_id":85568392924500089,"keywords":["nocrits","nodmgspread","payload","uncletopia"],"game_id":440,"stv_port":27036,"stv_name":"Uncletopia | Montr√©al | 3 | All Maps | STV","players":null},{"server_id":303,"name":"Uncletopia | Montr√©al | 4 | No Payload","name_short":"mtl-4","host":"mtl-1.ca.uncletopia.com","port":27045,"enabled":true,"region":"us-east","cc":"ca","latitude":45.50889,"longitude":-73.56167,"reserved":0,"last_update":"0001-01-01T00:00:00Z","name_a2s":"Uncletopia | Montr√©al | 4 | No Payload","protocol":17,"map":"koth_harvest_final","folder":"tf","game":"Team Fortress","app_id":440,"player_count":0,"max_players":24,"Bots":0,"server_type":"Dedicated","server_os":"Linux","password":true,"vac":true,"version":"7757534","steam_id":85568392924500090,"keywords":["cp","nocrits","nodmgspread","uncletopia"],"game_id":440,"stv_port":27046,"stv_name":"Uncletopia | Montr√©al | 4 | No Payload | STV","players":null},{"server_id":13,"name":"Uncletopia | New York City | 1 | All Maps","name_short":"nyc-1","host":"nyc-1.us.uncletopia.com","port":27015,"enabled":true,"region":"us-east","cc":"us","latitude":40.73061,"longitude":-73.93524,"reserved":0,"last_update":"0001-01-01T00:00:00Z","name_a2s":"Uncletopia | New York City | 1 | All Maps","protocol":17,"map":"koth_lakeside_final","folder":"tf","game":"Team Fortress","app_id":440,"player_count":18,"max_players":24,"Bots":0,"server_type":"Dedicated","server_os":"Linux","password":true,"vac":true,"version":"7757534","steam_id":85568392924469993,"keywords":["cp","nocrits","nodmgspread","uncletopia"],"game_id":440,"stv_port":27016,"stv_name":"Uncletopia | New York City | 1 | All Maps | STV","players":[{"user_id":41,"name":"Oni","steam_id":76561198112066584,"connected_time":895000000000,"state":"active","ping":63},{"user_id":54,"name":"Gods Drunkest Driver","steam_id":76561198390108910,"connected_time":56000000000,"state":"active","ping":87},{"user_id":56,"name":"Stagred","steam_id":76561198055973266,"connected_time":4000000000,"state":"spawning","ping":55},{"user_id":17,"name":"Monsterjessy","steam_id":76561198035630985,"connected_time":2001000000000,"state":"active","ping":53},{"user_id":55,"name":"Mei","steam_id":76561198971753591,"connected_time":42000000000,"state":"active","ping":53},{"user_id":45,"name":"AreDaneel","steam_id":76561198204560201,"connected_time":622000000000,"state":"active","ping":66},{"user_id":16,"name":"BasicPeaches","steam_id":76561198190890150,"connected_time":2060000000000,"state":"active","ping":61},{"user_id":18,"name":"Gandalf Gaming","steam_id":76561198368151490,"connected_time":1990000000000,"state":"active","ping":44},{"user_id":19,"name":"SuperFresh","steam_id":76561198200723198,"connected_time":1982000000000,"state":"active","ping":59},{"user_id":40,"name":"Crackbean","steam_id":76561199115082856,"connected_time":986000000000,"state":"active","ping":146},{"user_id":24,"name":"catrinaisahuman","steam_id":76561198281355729,"connected_time":1464000000000,"state":"active","ping":87},{"user_id":29,"name":"Wrench","steam_id":76561198055879094,"connected_time":1318000000000,"state":"active","ping":102},{"user_id":53,"name":"Yoyo","steam_id":76561199122577289,"connected_time":86000000000,"state":"active","ping":51},{"user_id":51,"name":"Five","steam_id":76561198026640473,"connected_time":348000000000,"state":"active","ping":83},{"user_id":33,"name":"tulpa","steam_id":76561198013253513,"connected_time":1269000000000,"state":"active","ping":66},{"user_id":50,"name":"jbrd4761","steam_id":76561199242047421,"connected_time":350000000000,"state":"active","ping":77},{"user_id":36,"name":"Small Wonder","steam_id":76561199476135471,"connected_time":1237000000000,"state":"active","ping":34},{"user_id":38,"name":"primordialheath","steam_id":76561199386942638,"connected_time":1186000000000,"state":"active","ping":63}]},{"server_id":14,"name":"Uncletopia | New York City | 2 | All Maps","name_short":"nyc-2","host":"nyc-1.us.uncletopia.com","port":27025,"enabled":true,"region":"us-east","cc":"us","latitude":40.73061,"longitude":-73.93524,"reserved":0,"last_update":"0001-01-01T00:00:00Z","name_a2s":"Uncletopia | New York City | 2 | All Maps","protocol":17,"map":"pl_frontier_final","folder":"tf","game":"Team Fortress","app_id":440,"player_count":0,"max_players":24,"Bots":0,"server_type":"Dedicated","server_os":"Linux","password":true,"vac":true,"version":"7757534","steam_id":85568392924469994,"keywords":["nocrits","nodmgspread","payload","uncletopia"],"game_id":440,"stv_port":27026,"stv_name":"Uncletopia | New York City | 2 | All Maps | STV","players":null},{"server_id":15,"name":"Uncletopia | New York City | 3 | Stopwatch Beta","name_short":"nyc-3","host":"nyc-1.us.uncletopia.com","port":27035,"enabled":true,"region":"us-east","cc":"us","latitude":40.73061,"longitude":-73.93524,"reserved":0,"last_update":"0001-01-01T00:00:00Z","name_a2s":"Uncletopia | New York City | 3 | Stopwatch Beta","protocol":17,"map":"koth_lakeside_final","folder":"tf","game":"Team Fortress","app_id":440,"player_count":0,"max_players":24,"Bots":0,"server_type":"Dedicated","server_os":"Linux","password":true,"vac":true,"version":"7757534","steam_id":85568392924742820,"keywords":["cp","nocrits","nodmgspread","uncletopia"],"game_id":440,"stv_port":27036,"stv_name":"Uncletopia | New York City | 3 | Stopwatch Beta | STV","players":null},{"server_id":16,"name":"Uncletopia | New York City | 4 | Community","name_short":"nyc-4","host":"nyc-1.us.uncletopia.com","port":27045,"enabled":true,"region":"us-east","cc":"us","latitude":40.73061,"longitude":-73.93524,"reserved":0,"last_update":"0001-01-01T00:00:00Z","name_a2s":"Uncletopia | New York City | 4 | Community","protocol":17,"map":"pl_frontier_final","folder":"tf","game":"Team Fortress","app_id":440,"player_count":0,"max_players":24,"Bots":0,"server_type":"Dedicated","server_os":"Linux","password":true,"vac":true,"version":"7757534","steam_id":85568392924742821,"keywords":["nocrits","nodmgspread","payload","uncletopia"],"game_id":440,"stv_port":27046,"stv_name":"Uncletopia | New York City | 4 | Community | STV","players":null},{"server_id":142,"name":"Uncletopia | S√£o Paulo | 1 | All Maps","name_short":"sao-1","host":"sao-1.br.uncletopia.com","port":27015,"enabled":true,"region":"sa","cc":"br","latitude":-23.533773,"longitude":-46.62529,"reserved":0,"last_update":"0001-01-01T00:00:00Z","name_a2s":"Uncletopia | S√£o Paulo | 1 | All Maps","protocol":17,"map":"pl_pier","folder":"tf","game":"Team Fortress","app_id":440,"player_count":0,"max_players":24,"Bots":0,"server_type":"Dedicated","server_os":"Linux","password":true,"vac":true,"version":"7757534","steam_id":85568392924469996,"keywords":["nocrits","nodmgspread","payload","uncletopia"],"game_id":440,"stv_port":27016,"stv_name":"Uncletopia | S√£o Paulo | 1 | All Maps | STV","players":null},{"server_id":143,"name":"Uncletopia | S√£o Paulo | 2 | All Maps","name_short":"sao-2","host":"sao-2.br.uncletopia.com","port":27015,"enabled":true,"region":"sa","cc":"br","latitude":-23.533773,"longitude":-46.62529,"reserved":0,"last_update":"0001-01-01T00:00:00Z","name_a2s":"Uncletopia | S√£o Paulo | 2 | All Maps","protocol":17,"map":"koth_viaduct","folder":"tf","game":"Team Fortress","app_id":440,"player_count":0,"max_players":24,"Bots":0,"server_type":"Dedicated","server_os":"Linux","password":true,"vac":true,"version":"7757534","steam_id":85568392924485349,"keywords":["cp","nocrits","nodmgspread","uncletopia"],"game_id":440,"stv_port":27016,"stv_name":"Uncletopia | S√£o Paulo | 2 | All Maps | STV","players":null},{"server_id":7,"name":"Uncletopia | Seattle | 1 | All Maps","name_short":"sea-1","host":"sea-1.us.uncletopia.com","port":27015,"enabled":true,"region":"us-west","cc":"us","latitude":47.608013,"longitude":-122.33517,"reserved":0,"last_update":"0001-01-01T00:00:00Z","name_a2s":"Uncletopia | Seattle | 1 | All Maps","protocol":17,"map":"pl_borneo","folder":"tf","game":"Team Fortress","app_id":440,"player_count":24,"max_players":24,"Bots":0,"server_type":"Dedicated","server_os":"Linux","password":true,"vac":true,"version":"7757534","steam_id":85568392924469997,"keywords":["nocrits","nodmgspread","payload","uncletopia"],"game_id":440,"stv_port":27016,"stv_name":"Uncletopia | Seattle | 1 | All Maps | STV","players":[{"user_id":99,"name":"PheebsyDeebsy","steam_id":76561198101509436,"connected_time":1617000000000,"state":"active","ping":73},{"user_id":70,"name":"Kedata","steam_id":76561198047750050,"connected_time":4224000000000,"state":"active","ping":102},{"user_id":111,"name":"trackpad gaming | f2p","steam_id":76561198840414371,"connected_time":518000000000,"state":"active","ping":45},{"user_id":104,"name":"Frank","steam_id":76561198126681511,"connected_time":938000000000,"state":"active","ping":81},{"user_id":91,"name":"nfseskimo","steam_id":76561198078745666,"connected_time":2064000000000,"state":"active","ping":45},{"user_id":89,"name":"squash","steam_id":76561198150281353,"connected_time":2167000000000,"state":"active","ping":57},{"user_id":88,"name":"QUEASYWHALE","steam_id":76561199107482851,"connected_time":2320000000000,"state":"active","ping":68},{"user_id":102,"name":"DIGGY","steam_id":76561198991238982,"connected_time":981000000000,"state":"active","ping":53},{"user_id":19,"name":"Clit Yeastwood","steam_id":76561199042672094,"connected_time":6472000000000,"state":"active","ping":72},{"user_id":103,"name":"shy guy","steam_id":76561198151246059,"connected_time":977000000000,"state":"active","ping":91},{"user_id":106,"name":"Wolverine Fingerblaster","steam_id":76561198095394582,"connected_time":551000000000,"state":"active","ping":122},{"user_id":92,"name":"Cancerous Pineapple","steam_id":76561198097307656,"connected_time":2038000000000,"state":"active","ping":76},{"user_id":119,"name":"SpykillerOnline","steam_id":76561198094050751,"connected_time":84000000000,"state":"active","ping":138},{"user_id":107,"name":"dANZYYG","steam_id":76561197968179862,"connected_time":548000000000,"state":"active","ping":103},{"user_id":113,"name":"ricardo","steam_id":76561198278519600,"connected_time":457000000000,"state":"active","ping":120},{"user_id":109,"name":"WaterWorks","steam_id":76561198801899310,"connected_time":533000000000,"state":"active","ping":77},{"user_id":116,"name":"‚ãÜ‚ú∞ùíÆùìÉùí∂ùíæùìÅùìà","steam_id":76561198102045762,"connected_time":169000000000,"state":"active","ping":136},{"user_id":117,"name":"lag","steam_id":76561197963872739,"connected_time":157000000000,"state":"active","ping":56},{"user_id":79,"name":"Morse","steam_id":76561198039944542,"connected_time":3754000000000,"state":"active","ping":57},{"user_id":101,"name":"https://en.wikipedia.org/","steam_id":76561198261326806,"connected_time":1599000000000,"state":"active","ping":72},{"user_id":105,"name":"www.epicsex.com/gay","steam_id":76561198131166135,"connected_time":676000000000,"state":"active","ping":44},{"user_id":94,"name":"Sergeant Joker #savetf2","steam_id":76561198854616604,"connected_time":1988000000000,"state":"active","ping":116},{"user_id":115,"name":"Ivan I","steam_id":76561198341781527,"connected_time":422000000000,"state":"active","ping":124},{"user_id":96,"name":"colondi","steam_id":76561199000786530,"connected_time":1905000000000,"state":"active","ping":82}]},{"server_id":119,"name":"Uncletopia | Seattle | 2 | All Maps","name_short":"sea-2","host":"sea-1.us.uncletopia.com","port":27025,"enabled":true,"region":"us-west","cc":"us","latitude":47.608013,"longitude":-122.33517,"reserved":0,"last_update":"0001-01-01T00:00:00Z","name_a2s":"Uncletopia | Seattle | 2 | All Maps","protocol":17,"map":"koth_viaduct","folder":"tf","game":"Team Fortress","app_id":440,"player_count":0,"max_players":24,"Bots":0,"server_type":"Dedicated","server_os":"Linux","password":true,"vac":true,"version":"7757534","steam_id":85568392924469998,"keywords":["cp","nocrits","nodmgspread","uncletopia"],"game_id":440,"stv_port":27026,"stv_name":"Uncletopia | Seattle | 2 | All Maps | STV","players":null},{"server_id":406,"name":"Uncletopia | Seattle | 3 | Stopwatch Beta","name_short":"sea-3","host":"sea-1.us.uncletopia.com","port":27035,"enabled":true,"region":"us-west","cc":"us","latitude":47.608013,"longitude":-122.33517,"reserved":0,"last_update":"0001-01-01T00:00:00Z","name_a2s":"Uncletopia | Seattle | 3 | Stopwatch Beta","protocol":17,"map":"cp_process_final","folder":"tf","game":"Team Fortress","app_id":440,"player_count":0,"max_players":24,"Bots":0,"server_type":"Dedicated","server_os":"Linux","password":true,"vac":true,"version":"7757534","steam_id":85568392924515217,"keywords":["cp","nocrits","nodmgspread","uncletopia"],"game_id":440,"stv_port":27036,"stv_name":"Uncletopia | Seattle | 3 | Stopwatch Beta | STV","players":null},{"server_id":17,"name":"Uncletopia | San Francisco | 1 | All Maps","name_short":"sfo-1","host":"sfo-1.us.uncletopia.com","port":27015,"enabled":true,"region":"us-west","cc":"us","latitude":37.77397,"longitude":-122.4313,"reserved":0,"last_update":"0001-01-01T00:00:00Z","name_a2s":"Uncletopia | San Francisco | 1 | All Maps","protocol":17,"map":"pl_borneo","folder":"tf","game":"Team Fortress","app_id":440,"player_count":23,"max_players":24,"Bots":0,"server_type":"Dedicated","server_os":"Linux","password":true,"vac":true,"version":"7757534","steam_id":85568392924469999,"keywords":["nocrits","nodmgspread","payload","uncletopia"],"game_id":440,"stv_port":27016,"stv_name":"Uncletopia | San Francisco | 1 | All Maps | STV","players":[{"user_id":293,"name":"Possible Time Traveler","steam_id":76561199053267042,"connected_time":149000000000,"state":"active","ping":126},{"user_id":290,"name":"Snicksnork18","steam_id":76561198074342600,"connected_time":298000000000,"state":"active","ping":62},{"user_id":250,"name":"the glooble","steam_id":76561199167035057,"connected_time":2400000000000,"state":"active","ping":47},{"user_id":291,"name":"Dzlink","steam_id":76561198390656783,"connected_time":265000000000,"state":"active","ping":59},{"user_id":294,"name":"toodles","steam_id":76561198025463883,"connected_time":144000000000,"state":"active","ping":76},{"user_id":257,"name":"raison d'√™tre","steam_id":76561198212421513,"connected_time":2036000000000,"state":"active","ping":60},{"user_id":292,"name":"Yeast","steam_id":76561198796747043,"connected_time":248000000000,"state":"active","ping":119},{"user_id":272,"name":"Phlogging Solly","steam_id":76561198020580071,"connected_time":1542000000000,"state":"active","ping":52},{"user_id":285,"name":"Papa Panda","steam_id":76561198159061475,"connected_time":549000000000,"state":"active","ping":60},{"user_id":286,"name":"jawnymac","steam_id":76561198179529599,"connected_time":513000000000,"state":"active","ping":47},{"user_id":281,"name":"junki","steam_id":76561198353456379,"connected_time":997000000000,"state":"active","ping":74},{"user_id":262,"name":"Grammaring","steam_id":76561198867366139,"connected_time":1876000000000,"state":"active","ping":71},{"user_id":280,"name":"pt","steam_id":76561198143023330,"connected_time":1081000000000,"state":"active","ping":56},{"user_id":245,"name":"Donut","steam_id":76561198087486078,"connected_time":2599000000000,"state":"active","ping":64},{"user_id":282,"name":"sagekiss","steam_id":76561198038831240,"connected_time":976000000000,"state":"active","ping":70},{"user_id":295,"name":"fudo myoo","steam_id":76561198456258164,"connected_time":121000000000,"state":"active","ping":104},{"user_id":287,"name":"Snaggletooth","steam_id":76561198043784995,"connected_time":395000000000,"state":"active","ping":75},{"user_id":268,"name":"MONKEY | videogamer1002","steam_id":76561198157110599,"connected_time":1659000000000,"state":"active","ping":116},{"user_id":275,"name":"Dargoos","steam_id":76561198366212046,"connected_time":1333000000000,"state":"active","ping":97},{"user_id":296,"name":"Scampy","steam_id":76561198001506924,"connected_time":105000000000,"state":"active","ping":75},{"user_id":152,"name":"Zodiac","steam_id":76561199034380287,"connected_time":7449000000000,"state":"active","ping":123},{"user_id":283,"name":"wAck","steam_id":76561198072385729,"connected_time":970000000000,"state":"active","ping":59},{"user_id":284,"name":"the man","steam_id":76561198389268114,"connected_time":596000000000,"state":"active","ping":92}]},{"server_id":18,"name":"Uncletopia | San Francisco | 2 | All Maps","name_short":"sfo-2","host":"sfo-1.us.uncletopia.com","port":27025,"enabled":true,"region":"us-west","cc":"us","latitude":37.77397,"longitude":-122.4313,"reserved":0,"last_update":"0001-01-01T00:00:00Z","name_a2s":"Uncletopia | San Francisco | 2 | All Maps","protocol":17,"map":"koth_cascade","folder":"tf","game":"Team Fortress","app_id":440,"player_count":0,"max_players":24,"Bots":0,"server_type":"Dedicated","server_os":"Linux","password":true,"vac":true,"version":"7757534","steam_id":85568392924470000,"keywords":["cp","nocrits","nodmgspread","uncletopia"],"game_id":440,"stv_port":27026,"stv_name":"Uncletopia | San Francisco | 2 | All Maps | STV","players":null},{"server_id":19,"name":"Uncletopia | San Francisco | 3 | Stopwatch Beta","name_short":"sfo-3","host":"sfo-1.us.uncletopia.com","port":27035,"enabled":true,"region":"us-west","cc":"us","latitude":37.77397,"longitude":-122.4313,"reserved":0,"last_update":"0001-01-01T00:00:00Z","name_a2s":"Uncletopia | San Francisco | 3 | Stopwatch Beta","protocol":17,"map":"workshop/koth_product_final.ugc454272353","folder":"tf","game":"Team Fortress","app_id":440,"player_count":0,"max_players":24,"Bots":0,"server_type":"Dedicated","server_os":"Linux","password":true,"vac":true,"version":"7757534","steam_id":85568392924742824,"keywords":["cp","nocrits","nodmgspread","uncletopia"],"game_id":440,"stv_port":27036,"stv_name":"Uncletopia | San Francisco | 3 | Stopwatch Beta | STV","players":null},{"server_id":20,"name":"Uncletopia | San Francisco | 4 | Community","name_short":"sfo-4","host":"sfo-1.us.uncletopia.com","port":27045,"enabled":true,"region":"us-west","cc":"us","latitude":37.77397,"longitude":-122.4313,"reserved":0,"last_update":"0001-01-01T00:00:00Z","name_a2s":"Uncletopia | San Francisco | 4 | Community","protocol":17,"map":"pl_frontier_final","folder":"tf","game":"Team Fortress","app_id":440,"player_count":0,"max_players":24,"Bots":0,"server_type":"Dedicated","server_os":"Linux","password":true,"vac":true,"version":"7757534","steam_id":85568392924742826,"keywords":["nocrits","nodmgspread","payload","uncletopia"],"game_id":440,"stv_port":27046,"stv_name":"Uncletopia | San Francisco | 4 | Community | STV","players":null},{"server_id":141,"name":"Uncletopia | Sydney | 1 | All Maps","name_short":"syd-1","host":"syd-1.au.uncletopia.com","port":27015,"enabled":true,"region":"au","cc":"au","latitude":-33.865143,"longitude":151.2099,"reserved":0,"last_update":"0001-01-01T00:00:00Z","name_a2s":"Uncletopia | Sydney | 1 | All Maps","protocol":17,"map":"pl_borneo","folder":"tf","game":"Team Fortress","app_id":440,"player_count":0,"max_players":24,"Bots":0,"server_type":"Dedicated","server_os":"Linux","password":true,"vac":true,"version":"7757534","steam_id":85568392924470001,"keywords":["nocrits","nodmgspread","payload","uncletopia"],"game_id":440,"stv_port":27016,"stv_name":"Uncletopia | Sydney | 1 | All Maps | STV","players":null},{"server_id":123,"name":"Uncletopia | Sydney | 2 | All Maps","name_short":"syd-2","host":"syd-1.au.uncletopia.com","port":27025,"enabled":true,"region":"au","cc":"au","latitude":-33.865143,"longitude":151.2099,"reserved":0,"last_update":"0001-01-01T00:00:00Z","name_a2s":"Uncletopia | Sydney | 2 | All Maps","protocol":17,"map":"cp_snakewater_final1","folder":"tf","game":"Team Fortress","app_id":440,"player_count":0,"max_players":24,"Bots":0,"server_type":"Dedicated","server_os":"Linux","password":true,"vac":true,"version":"7757534","steam_id":85568392924470002,"keywords":["cp","nocrits","nodmgspread","uncletopia"],"game_id":440,"stv_port":27026,"stv_name":"Uncletopia | Sydney | 2 | All Maps | STV","players":null},{"server_id":395,"name":"Uncletopia | Sydney | 3 | All Maps","name_short":"syd-3","host":"syd-1.au.uncletopia.com","port":27035,"enabled":true,"region":"au","cc":"au","latitude":-33.865143,"longitude":151.2099,"reserved":0,"last_update":"0001-01-01T00:00:00Z","name_a2s":"Uncletopia | Sydney | 3 | All Maps","protocol":17,"map":"pl_borneo","folder":"tf","game":"Team Fortress","app_id":440,"player_count":0,"max_players":24,"Bots":0,"server_type":"Dedicated","server_os":"Linux","password":true,"vac":true,"version":"7757534","steam_id":85568392925194467,"keywords":["nocrits","nodmgspread","payload","uncletopia"],"game_id":440,"stv_port":27036,"stv_name":"Uncletopia | Sydney | 3 | All Maps | STV","players":null},{"server_id":396,"name":"Uncletopia | Sydney | 4 | All Maps","name_short":"syd-4","host":"syd-1.au.uncletopia.com","port":27045,"enabled":true,"region":"au","cc":"au","latitude":-33.865143,"longitude":151.2099,"reserved":0,"last_update":"0001-01-01T00:00:00Z","name_a2s":"Uncletopia | Sydney | 4 | All Maps","protocol":17,"map":"cp_process_final","folder":"tf","game":"Team Fortress","app_id":440,"player_count":0,"max_players":24,"Bots":0,"server_type":"Dedicated","server_os":"Linux","password":true,"vac":true,"version":"7757534","steam_id":85568392925397958,"keywords":["cp","nocrits","nodmgspread","uncletopia"],"game_id":440,"stv_port":27046,"stv_name":"Uncletopia | Sydney | 4 | All Maps | STV","players":null},{"server_id":58,"name":"Uncletopia | Sydney | 5 | Stopwatch Beta","name_short":"syd-5","host":"syd-1.au.uncletopia.com","port":27055,"enabled":true,"region":"au","cc":"au","latitude":-33.865143,"longitude":151.2099,"reserved":0,"last_update":"0001-01-01T00:00:00Z","name_a2s":"Uncletopia | Sydney | 5 | Stopwatch Beta","protocol":17,"map":"koth_cascade","folder":"tf","game":"Team Fortress","app_id":440,"player_count":0,"max_players":24,"Bots":0,"server_type":"Dedicated","server_os":"Linux","password":true,"vac":true,"version":"7757534","steam_id":85568392925397959,"keywords":["cp","nocrits","nodmgspread","uncletopia"],"game_id":440,"stv_port":27056,"stv_name":"Uncletopia | Sydney | 5 | Stopwatch Beta | STV","players":null},{"server_id":59,"name":"Uncletopia | Sydney | 6 | Community","name_short":"syd-6","host":"syd-1.au.uncletopia.com","port":27065,"enabled":true,"region":"au","cc":"au","latitude":-33.865143,"longitude":151.2099,"reserved":0,"last_update":"0001-01-01T00:00:00Z","name_a2s":"Uncletopia | Sydney | 6 | Community","protocol":17,"map":"pl_badwater","folder":"tf","game":"Team Fortress","app_id":440,"player_count":0,"max_players":24,"Bots":0,"server_type":"Dedicated","server_os":"Linux","password":true,"vac":true,"version":"7757534","steam_id":85568392925397960,"keywords":["nocrits","nodmgspread","payload","uncletopia"],"game_id":440,"stv_port":27066,"stv_name":"Uncletopia | Sydney | 6 | Community | STV","players":null},{"server_id":49,"name":"Uncletopia | Warsaw | 1 | All Maps","name_short":"waw-1","host":"waw-1.pl.uncletopia.com","port":27015,"enabled":true,"region":"eu","cc":"pl","latitude":52.2297,"longitude":21.017532,"reserved":0,"last_update":"0001-01-01T00:00:00Z","name_a2s":"","protocol":0,"map":"","folder":"","game":"","app_id":0,"player_count":0,"max_players":0,"Bots":0,"server_type":"","server_os":"","password":false,"vac":false,"version":"","steam_id":0,"keywords":null,"game_id":0,"stv_port":0,"stv_name":"","players":null},{"server_id":50,"name":"Uncletopia | Warsaw | 2 | All Maps","name_short":"waw-2","host":"waw-1.pl.uncletopia.com","port":27025,"enabled":true,"region":"eu","cc":"pl","latitude":52.2297,"longitude":21.017532,"reserved":0,"last_update":"0001-01-01T00:00:00Z","name_a2s":"Uncletopia | Warsaw | 2 | All Maps","protocol":17,"map":"cp_altitude","folder":"tf","game":"Team Fortress","app_id":440,"player_count":0,"max_players":24,"Bots":0,"server_type":"Dedicated","server_os":"Linux","password":true,"vac":true,"version":"7757534","steam_id":85568392925397851,"keywords":["cp","nocrits","nodmgspread","uncletopia"],"game_id":440,"stv_port":27026,"stv_name":"Uncletopia | Warsaw | 2 | All Maps | STV","players":null},{"server_id":51,"name":"Uncletopia | Warsaw | 3 | All Maps","name_short":"waw-3","host":"waw-1.pl.uncletopia.com","port":27035,"enabled":true,"region":"eu","cc":"pl","latitude":52.2297,"longitude":21.017532,"reserved":0,"last_update":"0001-01-01T00:00:00Z","name_a2s":"Uncletopia | Warsaw | 3 | All Maps","protocol":17,"map":"koth_cascade","folder":"tf","game":"Team Fortress","app_id":440,"player_count":0,"max_players":24,"Bots":0,"server_type":"Dedicated","server_os":"Linux","password":true,"vac":true,"version":"7757534","steam_id":85568392925397852,"keywords":["cp","nocrits","nodmgspread","uncletopia"],"game_id":440,"stv_port":27036,"stv_name":"Uncletopia | Warsaw | 3 | All Maps | STV","players":null},{"server_id":52,"name":"Uncletopia | Warsaw | 4 | All Maps","name_short":"waw-4","host":"waw-1.pl.uncletopia.com","port":27045,"enabled":true,"region":"eu","cc":"pl","latitude":52.2297,"longitude":21.017532,"reserved":0,"last_update":"0001-01-01T00:00:00Z","name_a2s":"Uncletopia | Warsaw | 4 | All Maps","protocol":17,"map":"pl_upward","folder":"tf","game":"Team Fortress","app_id":440,"player_count":0,"max_players":24,"Bots":0,"server_type":"Dedicated","server_os":"Linux","password":true,"vac":true,"version":"7757534","steam_id":85568392925397853,"keywords":["nocrits","nodmgspread","payload","uncletopia"],"game_id":440,"stv_port":27046,"stv_name":"Uncletopia | Warsaw | 4 | All Maps | STV","players":null},{"server_id":53,"name":"Uncletopia | Warsaw | 5 | Stopwatch Beta","name_short":"waw-5","host":"waw-1.pl.uncletopia.com","port":27055,"enabled":true,"region":"eu","cc":"pl","latitude":52.2297,"longitude":21.017532,"reserved":0,"last_update":"0001-01-01T00:00:00Z","name_a2s":"Uncletopia | Warsaw | 5 | Stopwatch Beta","protocol":17,"map":"pl_pier","folder":"tf","game":"Team Fortress","app_id":440,"player_count":0,"max_players":24,"Bots":0,"server_type":"Dedicated","server_os":"Linux","password":true,"vac":true,"version":"7757534","steam_id":85568392925397854,"keywords":["nocrits","nodmgspread","payload","uncletopia"],"game_id":440,"stv_port":27056,"stv_name":"Uncletopia | Warsaw | 5 | Stopwatch Beta | STV","players":null},{"server_id":54,"name":"Uncletopia | Warsaw | 6 | Community","name_short":"waw-6","host":"waw-1.pl.uncletopia.com","port":27065,"enabled":true,"region":"eu","cc":"pl","latitude":52.2297,"longitude":21.017532,"reserved":0,"last_update":"0001-01-01T00:00:00Z","name_a2s":"Uncletopia | Warsaw | 6 | Community","protocol":17,"map":"koth_highpass","folder":"tf","game":"Team Fortress","app_id":440,"player_count":0,"max_players":24,"Bots":0,"server_type":"Dedicated","server_os":"Linux","password":true,"vac":true,"version":"7757534","steam_id":85568392925397856,"keywords":["cp","nocrits","nodmgspread","uncletopia"],"game_id":440,"stv_port":27066,"stv_name":"Uncletopia | Warsaw | 6 | Community | STV","players":null}]}