{"status":true,"message":"","result":[{"server_id":9,"name":"Uncletopia | Atlanta | 1 | All Maps","name_short":"atl-1","host":"atl-1.us.uncletopia.com","port":27015,"enabled":true,"region":"us-east","cc":"us","latitude":33.753746,"longitude":-84.38633,"reserved":0,"last_update":"0001-01-01T00:00:00Z","name_a2s":"Uncletopia | Atlanta | 1 | All Maps","protocol":17,"map":"koth_harvest_final","folder":"tf","game":"Team Fortress","app_id":440,"player_count":24,"max_players":24,"Bots":0,"server_type":"Dedicated","server_os":"Linux","password":true,"vac":true,"version":"7742253","steam_id":85568392924469982,"keywords":["cp","nocrits","nodmgspread","uncletopia"],"game_id":440,"stv_port":27016,"stv_name":"Uncletopia | Atlanta | 1 | All Maps | STV","players":[{"user_id":441,"name":"Kuddly Kay (She/Her)","steam_id":76561198353432576,"connected_time":1240000000000,"state":"active","ping":55},{"user_id":448,"name":"FroggoBoi","steam_id":76561199036762252,"connected_time":684000000000,"state":"active","ping":82},{"user_id":443,"name":"spunch","steam_id":76561199019136192,"connected_time":1077000000000,"state":"active","ping":60},{"user_id":421,"name":"FemboyNate","steam_id":76561198146636410,"connected_time":3167000000000,"state":"active","ping":60},{"user_id":445,"name":"bogginwater","steam_id":76561198155547142,"connected_time":765000000000,"state":"active","ping":55},{"user_id":434,"name":"Totouri","steam_id":76561198004229789,"connected_time":1550000000000,"state":"active","ping":82},{"user_id":431,"name":"shaderoses","steam_id":76561198070800500,"connected_time":2059000000000,"state":"active","ping":64},{"user_id":380,"name":"Clorthax","steam_id":76561198800676106,"connected_time":5639000000000,"state":"active","ping":62},{"user_id":430,"name":"Luucyf3r","steam_id":76561198141820085,"connected_time":2417000000000,"state":"active","ping":61},{"user_id":266,"name":"Motreir","steam_id":76561198151717946,"connected_time":15430000000000,"state":"active","ping":76},{"user_id":404,"name":"we do a little sleeping","steam_id":76561198354473513,"connected_time":5043000000000,"state":"active","ping":70},{"user_id":363,"name":"MaximumAce","steam_id":76561198359596849,"connected_time":6805000000000,"state":"active","ping":92},{"user_id":422,"name":"ATL1 | to4st","steam_id":76561198981009008,"connected_time":3136000000000,"state":"active","ping":68},{"user_id":444,"name":"Eins","steam_id":76561199030343810,"connected_time":1076000000000,"state":"active","ping":40},{"user_id":437,"name":"vordhosbn","steam_id":76561198148132163,"connected_time":1526000000000,"state":"active","ping":82},{"user_id":396,"name":"Fudgely","steam_id":76561198039425862,"connected_time":5239000000000,"state":"active","ping":67},{"user_id":447,"name":"battle clown","steam_id":76561198045788371,"connected_time":735000000000,"state":"active","ping":87},{"user_id":432,"name":"HarpyHour","steam_id":76561198156045988,"connected_time":1561000000000,"state":"active","ping":59},{"user_id":449,"name":"Rock guy","steam_id":76561199228153088,"connected_time":576000000000,"state":"active","ping":79},{"user_id":356,"name":"Alt","steam_id":76561197992591984,"connected_time":7446000000000,"state":"active","ping":87},{"user_id":400,"name":"quality_ch3ck","steam_id":76561198361132101,"connected_time":5137000000000,"state":"active","ping":87},{"user_id":415,"name":"usedhandle","steam_id":76561199095035476,"connected_time":4361000000000,"state":"active","ping":43},{"user_id":435,"name":"Obelisk","steam_id":76561198049416866,"connected_time":1549000000000,"state":"active","ping":94},{"user_id":440,"name":"Jin","steam_id":76561198119873148,"connected_time":1301000000000,"state":"active","ping":77}]},{"server_id":400,"name":"Uncletopia | Atlanta | 3 | Stopwatch Beta","name_short":"atl-3","host":"atl-1.us.uncletopia.com","port":27035,"enabled":true,"region":"us-east","cc":"us","latitude":33.753746,"longitude":-84.38633,"reserved":0,"last_update":"0001-01-01T00:00:00Z","name_a2s":"Uncletopia | Atlanta | 3 | Stopwatch Beta","protocol":17,"map":"pl_pier","folder":"tf","game":"Team Fortress","app_id":440,"player_count":0,"max_players":24,"Bots":0,"server_type":"Dedicated","server_os":"Linux","password":true,"vac":true,"version":"7742253","steam_id":85568392924515187,"keywords":["nocrits","nodmgspread","payload","uncletopia"],"game_id":440,"stv_port":27036,"stv_name":"Uncletopia | Atlanta | 3 | Stopwatch Beta | STV","players":null},{"server_id":401,"name":"Uncletopia | Atlanta | 4 | No Payload","name_short":"atl-4","host":"atl-1.us.uncletopia.com","port":27045,"enabled":true,"region":"us-east","cc":"us","latitude":33.753746,"longitude":-84.38633,"reserved":0,"last_update":"0001-01-01T00:00:00Z","name_a2s":"Uncletopia | Atlanta | 4 | No Payload","protocol":17,"map":"pl_pier","folder":"tf","game":"Team Fortress","app_id":440,"player_count":0,"max_players":24,"Bots":0,"server_type":"Dedicated","server_os":"Linux","password":true,"vac":true,"version":"7723704","steam_id":85568392924515188,"keywords":["nocrits","nodmgspread","payload","uncletopia"],"game_id":440,"stv_port":27046,"stv_name":"Uncletopia | Atlanta | 4 | No Payload | STV","players":null},{"server_id":2,"name":"Uncletopia | Chicago | 1 | All Maps","name_short":"chi-1","host":"chi-1.us.uncletopia.com","port":27015,"enabled":true,"region":"us-central","cc":"us","latitude":41.881832,"longitude":-87.62318,"reserved":0,"last_update":"0001-01-01T00:00:00Z","name_a2s":"Uncletopia | Chicago | 1 | All Maps","protocol":17,"map":"pl_badwater","folder":"tf","game":"Team Fortress","app_id":440,"player_count":24,"max_players":24,"Bots":0,"server_type":"Dedicated","server_os":"Linux","password":true,"vac":true,"version":"7742253","steam_id":85568392924469984,"keywords":["nocrits","nodmgspread","payload","uncletopia"],"game_id":440,"stv_port":27016,"stv_name":"Uncletopia | Chicago | 1 | All Maps | STV","players":[{"user_id":28,"name":"the deadliest pyroshark","steam_id":76561198374227766,"connected_time":17219000000000,"state":"active","ping":66},{"user_id":360,"name":"PrinceGrotle","steam_id":76561198206131603,"connected_time":331000000000,"state":"active","ping":73},{"user_id":341,"name":"Lawnmower","steam_id":76561198186680197,"connected_time":1808000000000,"state":"active","ping":93},{"user_id":344,"name":"dP | I'm in a Wookie Suit","steam_id":76561198083307644,"connected_time":1735000000000,"state":"active","ping":101},{"user_id":353,"name":"geoff","steam_id":76561198038448355,"connected_time":926000000000,"state":"active","ping":38},{"user_id":356,"name":"Qball","steam_id":76561198179016466,"connected_time":840000000000,"state":"active","ping":58},{"user_id":354,"name":"Typical Gentleman","steam_id":76561199229771413,"connected_time":921000000000,"state":"active","ping":84},{"user_id":332,"name":"Shirtless Animated Adam Sandler","steam_id":76561198045887994,"connected_time":3017000000000,"state":"active","ping":47},{"user_id":315,"name":"Falleax","steam_id":76561198021154908,"connected_time":4613000000000,"state":"active","ping":92},{"user_id":335,"name":"Venk","steam_id":76561198251131422,"connected_time":2796000000000,"state":"active","ping":61},{"user_id":362,"name":"harry","steam_id":76561198365118514,"connected_time":221000000000,"state":"active","ping":73},{"user_id":357,"name":"LJ PRODUCTIONS","steam_id":76561198061697475,"connected_time":821000000000,"state":"active","ping":58},{"user_id":358,"name":"Grunkle_Chubs","steam_id":76561198272017187,"connected_time":804000000000,"state":"active","ping":66},{"user_id":321,"name":"Doctor Sex","steam_id":76561198119503652,"connected_time":3915000000000,"state":"active","ping":62},{"user_id":320,"name":"TheJuiceCrew","steam_id":76561198109073254,"connected_time":4155000000000,"state":"active","ping":74},{"user_id":325,"name":"♥ Femboy♥Ventily ♥","steam_id":76561198157260335,"connected_time":3792000000000,"state":"active","ping":53},{"user_id":359,"name":"Toottoot","steam_id":76561197992404836,"connected_time":660000000000,"state":"active","ping":46},{"user_id":314,"name":"matchstick","steam_id":76561198190100027,"connected_time":4809000000000,"state":"active","ping":63},{"user_id":350,"name":"im thinkin arby's","steam_id":76561198083271257,"connected_time":1684000000000,"state":"active","ping":68},{"user_id":310,"name":"THRILLHO","steam_id":76561198371663047,"connected_time":5209000000000,"state":"active","ping":61},{"user_id":331,"name":"ุ","steam_id":76561198170624701,"connected_time":3216000000000,"state":"active","ping":91},{"user_id":114,"name":"Brown_Dream","steam_id":76561198975766145,"connected_time":11004000000000,"state":"active","ping":75},{"user_id":349,"name":"Portaldude626","steam_id":76561198954610452,"connected_time":1709000000000,"state":"active","ping":75},{"user_id":351,"name":"JackAth","steam_id":76561198125381462,"connected_time":1310000000000,"state":"active","ping":82}]},{"server_id":106,"name":"Uncletopia | Chicago | 2 | All Maps","name_short":"chi-2","host":"chi-1.us.uncletopia.com","port":27025,"enabled":true,"region":"us-central","cc":"us","latitude":41.881832,"longitude":-87.62318,"reserved":0,"last_update":"0001-01-01T00:00:00Z","name_a2s":"Uncletopia | Chicago | 2 | All Maps","protocol":17,"map":"pl_borneo","folder":"tf","game":"Team Fortress","app_id":440,"player_count":24,"max_players":24,"Bots":0,"server_type":"Dedicated","server_os":"Linux","password":true,"vac":true,"version":"7742253","steam_id":85568392924469985,"keywords":["nocrits","nodmgspread","payload","uncletopia"],"game_id":440,"stv_port":27026,"stv_name":"Uncletopia | Chicago | 2 | All Maps | STV","players":[{"user_id":352,"name":"Furry Saul Goodman","steam_id":76561198069580305,"connected_time":1221000000000,"state":"active","ping":45},{"user_id":343,"name":"watermelon","steam_id":76561198041770884,"connected_time":2712000000000,"state":"active","ping":108},{"user_id":308,"name":"RibRubz","steam_id":76561199024487700,"connected_time":4745000000000,"state":"active","ping":90},{"user_id":371,"name":"GreenApples","steam_id":76561198120559543,"connected_time":337000000000,"state":"active","ping":92},{"user_id":353,"name":"Metna ☁","steam_id":76561198092381079,"connected_time":1209000000000,"state":"active","ping":57},{"user_id":349,"name":"Takumi Fujiwara","steam_id":76561198146281101,"connected_time":1875000000000,"state":"active","ping":74},{"user_id":366,"name":"strikerisbad123","steam_id":76561199466866554,"connected_time":739000000000,"state":"active","ping":95},{"user_id":335,"name":"Huh?","steam_id":76561198119768703,"connected_time":2929000000000,"state":"active","ping":47},{"user_id":334,"name":"JFK GAMING","steam_id":76561198025593142,"connected_time":2946000000000,"state":"active","ping":63},{"user_id":336,"name":"Banana Patrick","steam_id":76561198258067237,"connected_time":2916000000000,"state":"active","ping":69},{"user_id":346,"name":"sootyquill","steam_id":76561198186883927,"connected_time":2313000000000,"state":"active","ping":91},{"user_id":364,"name":"spooky","steam_id":76561198122964663,"connected_time":889000000000,"state":"active","ping":68},{"user_id":360,"name":"astron","steam_id":76561198058546328,"connected_time":1026000000000,"state":"active","ping":74},{"user_id":370,"name":"Quentin","steam_id":76561198032941413,"connected_time":397000000000,"state":"active","ping":64},{"user_id":348,"name":"A Puppy","steam_id":76561198828184456,"connected_time":1939000000000,"state":"active","ping":59},{"user_id":338,"name":"kermitcreeper(ZAZA)","steam_id":76561199222829972,"connected_time":2838000000000,"state":"active","ping":49},{"user_id":356,"name":"Johnny Lawrence #JohnnyMaxxing","steam_id":76561199367141671,"connected_time":1145000000000,"state":"active","ping":74},{"user_id":368,"name":"HF | b1p","steam_id":76561198314642342,"connected_time":591000000000,"state":"active","ping":78},{"user_id":345,"name":"god approaches","steam_id":76561198081617990,"connected_time":2692000000000,"state":"active","ping":92},{"user_id":357,"name":"Hindmost","steam_id":76561199081837220,"connected_time":1139000000000,"state":"active","ping":123},{"user_id":358,"name":"wenshengqiu","steam_id":76561199048682062,"connected_time":1131000000000,"state":"active","ping":70},{"user_id":317,"name":"Afrodo The Scrub","steam_id":76561198138598907,"connected_time":4507000000000,"state":"active","ping":92},{"user_id":369,"name":"barbara","steam_id":76561198072417792,"connected_time":443000000000,"state":"active","ping":120},{"user_id":367,"name":"Eternal","steam_id":76561197990721868,"connected_time":687000000000,"state":"active","ping":84}]},{"server_id":402,"name":"Uncletopia | Chicago | 3 | All Maps","name_short":"chi-3","host":"chi-1.us.uncletopia.com","port":27035,"enabled":true,"region":"us-central","cc":"us","latitude":41.881832,"longitude":-87.62318,"reserved":0,"last_update":"0001-01-01T00:00:00Z","name_a2s":"Uncletopia | Chicago | 3 | All Maps","protocol":17,"map":"pl_barnblitz","folder":"tf","game":"Team Fortress","app_id":440,"player_count":24,"max_players":24,"Bots":0,"server_type":"Dedicated","server_os":"Linux","password":true,"vac":true,"version":"7742253","steam_id":85568392924515191,"keywords":["nocrits","nodmgspread","payload","uncletopia"],"game_id":440,"stv_port":27036,"stv_name":"Uncletopia | Chicago | 3 | All Maps | STV","players":[{"user_id":589,"name":"Fish","steam_id":76561198986516474,"connected_time":299000000000,"state":"active","ping":86},{"user_id":581,"name":"Zornplays","steam_id":76561199175292302,"connected_time":1320000000000,"state":"active","ping":139},{"user_id":586,"name":"cosmik","steam_id":76561198071193180,"connected_time":643000000000,"state":"active","ping":64},{"user_id":597,"name":"Reggievich","steam_id":76561198173252835,"connected_time":91000000000,"state":"active","ping":73},{"user_id":588,"name":"GC.mac","steam_id":76561198049685207,"connected_time":320000000000,"state":"active","ping":56},{"user_id":508,"name":"bane","steam_id":76561198196769297,"connected_time":6745000000000,"state":"active","ping":55},{"user_id":598,"name":"JellyParrot","steam_id":76561199190990163,"connected_time":84000000000,"state":"active","ping":77},{"user_id":562,"name":"I have bad news...","steam_id":76561198058956253,"connected_time":2619000000000,"state":"active","ping":84},{"user_id":582,"name":"The Super Mario Bros. Movie","steam_id":76561198871692156,"connected_time":1125000000000,"state":"active","ping":96},{"user_id":512,"name":"El Bondin","steam_id":76561198820792434,"connected_time":6379000000000,"state":"active","ping":101},{"user_id":563,"name":"Let","steam_id":76561198419345005,"connected_time":2609000000000,"state":"active","ping":141},{"user_id":503,"name":"Wild_Rumpus","steam_id":76561198066393719,"connected_time":7009000000000,"state":"active","ping":69},{"user_id":564,"name":"seven","steam_id":76561198979319783,"connected_time":2606000000000,"state":"active","ping":66},{"user_id":565,"name":"TheZombers","steam_id":76561199036266116,"connected_time":2601000000000,"state":"active","ping":120},{"user_id":583,"name":"Tier 3 Loba Simp","steam_id":76561198070157961,"connected_time":1125000000000,"state":"active","ping":86},{"user_id":577,"name":"Rornir","steam_id":76561198081829615,"connected_time":1848000000000,"state":"active","ping":42},{"user_id":528,"name":"Diesel","steam_id":76561198448815852,"connected_time":5076000000000,"state":"active","ping":82},{"user_id":587,"name":"Cyberdemic","steam_id":76561198158740691,"connected_time":545000000000,"state":"active","ping":138},{"user_id":573,"name":"Trickler","steam_id":76561198417067853,"connected_time":2331000000000,"state":"active","ping":66},{"user_id":594,"name":"megaupload.com","steam_id":76561198142327361,"connected_time":257000000000,"state":"active","ping":129},{"user_id":592,"name":"meppy","steam_id":76561198141359549,"connected_time":282000000000,"state":"active","ping":60},{"user_id":580,"name":"Eggineer Gaming™","steam_id":76561198850153403,"connected_time":1330000000000,"state":"active","ping":146},{"user_id":593,"name":"Fredrick","steam_id":76561197981419964,"connected_time":268000000000,"state":"active","ping":72},{"user_id":571,"name":"Heckteck","steam_id":76561199098393174,"connected_time":2459000000000,"state":"active","ping":84}]},{"server_id":403,"name":"Uncletopia | Chicago | 4 | All Maps","name_short":"chi-4","host":"chi-1.us.uncletopia.com","port":27045,"enabled":true,"region":"us-central","cc":"us","latitude":41.881832,"longitude":-87.62318,"reserved":0,"last_update":"0001-01-01T00:00:00Z","name_a2s":"Uncletopia | Chicago | 4 | All Maps","protocol":17,"map":"pl_frontier_final","folder":"tf","game":"Team Fortress","app_id":440,"player_count":24,"max_players":24,"Bots":0,"server_type":"Dedicated","server_os":"Linux","password":true,"vac":true,"version":"7742253","steam_id":85568392924515193,"keywords":["nocrits","nodmgspread","payload","uncletopia"],"game_id":440,"stv_port":27046,"stv_name":"Uncletopia | Chicago | 4 | All Maps | STV","players":[{"user_id":101,"name":"Zigadox","steam_id":76561198079813479,"connected_time":2039000000000,"state":"active","ping":81},{"user_id":58,"name":"THICC","steam_id":76561198273234133,"connected_time":6013000000000,"state":"active","ping":70},{"user_id":66,"name":"Owixan","steam_id":76561198074990070,"connected_time":5815000000000,"state":"active","ping":39},{"user_id":108,"name":"Dennis Reynolds","steam_id":76561199446865070,"connected_time":1471000000000,"state":"active","ping":68},{"user_id":98,"name":"Amogous Supreme","steam_id":76561198025476774,"connected_time":2131000000000,"state":"active","ping":105},{"user_id":117,"name":"Cheese Graffiti","steam_id":76561198046575913,"connected_time":1224000000000,"state":"active","ping":60},{"user_id":109,"name":"Ulrich Stern","steam_id":76561198101739682,"connected_time":1432000000000,"state":"active","ping":91},{"user_id":91,"name":"Grundle Thunder","steam_id":76561197960790338,"connected_time":3224000000000,"state":"active","ping":79},{"user_id":118,"name":"lil bro","steam_id":76561198031675881,"connected_time":1200000000000,"state":"active","ping":74},{"user_id":24,"name":"Anon","steam_id":76561198109740776,"connected_time":7181000000000,"state":"active","ping":126},{"user_id":25,"name":"Mario Trapped In a Piano","steam_id":76561198116765135,"connected_time":7178000000000,"state":"active","ping":89},{"user_id":107,"name":"Uncle","steam_id":76561197988647705,"connected_time":1487000000000,"state":"active","ping":52},{"user_id":110,"name":"original name","steam_id":76561199186288763,"connected_time":1417000000000,"state":"active","ping":118},{"user_id":111,"name":"PalChumFriend","steam_id":76561198049550699,"connected_time":1410000000000,"state":"active","ping":90},{"user_id":125,"name":"SilentFootba11","steam_id":76561199006570947,"connected_time":133000000000,"state":"active","ping":70},{"user_id":112,"name":"Hey Kid","steam_id":76561198087089023,"connected_time":1409000000000,"state":"active","ping":63},{"user_id":113,"name":"Twan (no vibes plz)","steam_id":76561197991064908,"connected_time":1364000000000,"state":"active","ping":73},{"user_id":120,"name":"gulch","steam_id":76561199227946025,"connected_time":424000000000,"state":"active","ping":83},{"user_id":64,"name":"YungKeet","steam_id":76561198293854963,"connected_time":5951000000000,"state":"active","ping":88},{"user_id":121,"name":"Im totally a hacker","steam_id":76561198888005736,"connected_time":391000000000,"state":"active","ping":75},{"user_id":114,"name":"scrapheap","steam_id":76561198202407087,"connected_time":1352000000000,"state":"active","ping":67},{"user_id":126,"name":"Scrumpy Main","steam_id":76561198146302597,"connected_time":101000000000,"state":"active","ping":77},{"user_id":122,"name":"NeoSporin","steam_id":76561199025115728,"connected_time":374000000000,"state":"active","ping":152},{"user_id":123,"name":"MrActionJaxon","steam_id":76561198093549908,"connected_time":338000000000,"state":"active","ping":87}]},{"server_id":36,"name":"Uncletopia | Chicago | 5 | All Maps","name_short":"chi-5","host":"chi-2.us.uncletopia.com","port":27015,"enabled":true,"region":"us-central","cc":"us","latitude":41.881832,"longitude":-87.62318,"reserved":0,"last_update":"0001-01-01T00:00:00Z","name_a2s":"Uncletopia | Chicago | 5 | All Maps","protocol":17,"map":"cp_dustbowl","folder":"tf","game":"Team Fortress","app_id":440,"player_count":24,"max_players":24,"Bots":0,"server_type":"Dedicated","server_os":"Linux","password":true,"vac":true,"version":"7742253","steam_id":85568392924866362,"keywords":["cp","nocrits","nodmgspread","uncletopia"],"game_id":440,"stv_port":27016,"stv_name":"Uncletopia | Chicago | 5 | All Maps | STV","players":[{"user_id":319,"name":"Grungus","steam_id":76561198076498818,"connected_time":1518000000000,"state":"active","ping":88},{"user_id":320,"name":"trappy","steam_id":76561198402801140,"connected_time":1485000000000,"state":"active","ping":62},{"user_id":270,"name":"Koolaid","steam_id":76561199200296010,"connected_time":4325000000000,"state":"active","ping":76},{"user_id":325,"name":"ScoutMoment420","steam_id":76561199316368867,"connected_time":1432000000000,"state":"active","ping":60},{"user_id":321,"name":"papersamurai","steam_id":76561198313608698,"connected_time":1478000000000,"state":"active","ping":54},{"user_id":322,"name":"CyDev","steam_id":76561198253072875,"connected_time":1468000000000,"state":"active","ping":83},{"user_id":323,"name":"Owl Pacino","steam_id":76561197979970666,"connected_time":1465000000000,"state":"active","ping":57},{"user_id":253,"name":"sckeeb","steam_id":76561198151064563,"connected_time":5712000000000,"state":"active","ping":85},{"user_id":277,"name":"dgarvich","steam_id":76561199229914228,"connected_time":4045000000000,"state":"active","ping":458},{"user_id":318,"name":"Koi","steam_id":76561198064411172,"connected_time":1796000000000,"state":"active","ping":59},{"user_id":294,"name":"really hot pocket","steam_id":76561198239297686,"connected_time":3119000000000,"state":"active","ping":59},{"user_id":332,"name":"NovaSc6ut","steam_id":76561198277163301,"connected_time":461000000000,"state":"active","ping":70},{"user_id":254,"name":"-|FG|- Hamilkar Barca","steam_id":76561198091666474,"connected_time":5699000000000,"state":"active","ping":67},{"user_id":265,"name":"BillButtLicker69","steam_id":76561198070119268,"connected_time":4571000000000,"state":"active","ping":120},{"user_id":262,"name":"Bibby","steam_id":76561198047237943,"connected_time":5554000000000,"state":"active","ping":73},{"user_id":328,"name":"Gaming on a 14 year old Mac","steam_id":76561198019476636,"connected_time":1192000000000,"state":"active","ping":74},{"user_id":329,"name":"Vladikr1","steam_id":76561198401495362,"connected_time":833000000000,"state":"active","ping":55},{"user_id":316,"name":"boomerangutang","steam_id":76561198151407214,"connected_time":2313000000000,"state":"active","ping":47},{"user_id":313,"name":"yomommasabitch","steam_id":76561198323217150,"connected_time":2626000000000,"state":"active","ping":74},{"user_id":305,"name":"Disambiguation","steam_id":76561198133963270,"connected_time":2924000000000,"state":"active","ping":60},{"user_id":324,"name":"ZE UBERMENSCH","steam_id":76561198061184951,"connected_time":1453000000000,"state":"active","ping":70},{"user_id":327,"name":"chiarraz","steam_id":76561198277439571,"connected_time":1242000000000,"state":"active","ping":67},{"user_id":297,"name":"Ender","steam_id":76561198819439451,"connected_time":3085000000000,"state":"active","ping":66},{"user_id":315,"name":"DiscoTraveler","steam_id":76561199240168088,"connected_time":2511000000000,"state":"active","ping":70}]},{"server_id":37,"name":"Uncletopia | Chicago | 6 | All Maps","name_short":"chi-6","host":"chi-2.us.uncletopia.com","port":27025,"enabled":true,"region":"us-central","cc":"us","latitude":41.881832,"longitude":-87.62318,"reserved":0,"last_update":"0001-01-01T00:00:00Z","name_a2s":"Uncletopia | Chicago | 6 | All Maps","protocol":17,"map":"pl_upward","folder":"tf","game":"Team Fortress","app_id":440,"player_count":24,"max_players":24,"Bots":0,"server_type":"Dedicated","server_os":"Linux","password":true,"vac":true,"version":"7742253","steam_id":85568392924866363,"keywords":["nocrits","nodmgspread","payload","uncletopia"],"game_id":440,"stv_port":27026,"stv_name":"Uncletopia | Chicago | 6 | All Maps | STV","players":[{"user_id":414,"name":"fat","steam_id":76561198101352327,"connected_time":172000000000,"state":"active","ping":60},{"user_id":389,"name":"KevCraft","steam_id":76561199000622939,"connected_time":1976000000000,"state":"active","ping":76},{"user_id":384,"name":"drainer daughter","steam_id":76561198413930183,"connected_time":2301000000000,"state":"active","ping":61},{"user_id":406,"name":"k dot","steam_id":76561199166411595,"connected_time":454000000000,"state":"active","ping":78},{"user_id":402,"name":"*literally heresy*","steam_id":76561198129718241,"connected_time":503000000000,"state":"active","ping":71},{"user_id":416,"name":"Pisser12434","steam_id":76561198835144780,"connected_time":64000000000,"state":"active","ping":73},{"user_id":408,"name":"Pep Seeman","steam_id":76561198038393007,"connected_time":426000000000,"state":"active","ping":130},{"user_id":393,"name":"Gen. Skull Krasher","steam_id":76561198045420823,"connected_time":1538000000000,"state":"active","ping":65},{"user_id":371,"name":"nscott70","steam_id":76561199379894807,"connected_time":2980000000000,"state":"active","ping":63},{"user_id":372,"name":"nalezinik","steam_id":76561198030026119,"connected_time":2902000000000,"state":"active","ping":63},{"user_id":357,"name":"glitchy","steam_id":76561199009135766,"connected_time":3388000000000,"state":"active","ping":40},{"user_id":405,"name":"Thurricane","steam_id":76561198410724666,"connected_time":489000000000,"state":"active","ping":67},{"user_id":383,"name":"Goldbug","steam_id":76561198025221202,"connected_time":2458000000000,"state":"active","ping":98},{"user_id":385,"name":"radicalPolio","steam_id":76561197961561855,"connected_time":2269000000000,"state":"active","ping":78},{"user_id":378,"name":"Seal","steam_id":76561197970204043,"connected_time":2781000000000,"state":"active","ping":90},{"user_id":363,"name":"DragonHeart","steam_id":76561198013245625,"connected_time":3242000000000,"state":"active","ping":84},{"user_id":364,"name":"white woman","steam_id":76561199116679777,"connected_time":3237000000000,"state":"active","ping":98},{"user_id":386,"name":"Nobody","steam_id":76561198286486517,"connected_time":2202000000000,"state":"active","ping":60},{"user_id":365,"name":"EatSomeBEES","steam_id":76561198047334307,"connected_time":3182000000000,"state":"active","ping":121},{"user_id":412,"name":"+155 social credit","steam_id":76561198101393625,"connected_time":292000000000,"state":"active","ping":75},{"user_id":392,"name":"dr peppah chug!","steam_id":76561198068835693,"connected_time":1603000000000,"state":"active","ping":93},{"user_id":390,"name":"Ras","steam_id":76561198123546775,"connected_time":1964000000000,"state":"active","ping":65},{"user_id":398,"name":"Why Kappa","steam_id":76561198374425955,"connected_time":725000000000,"state":"active","ping":71},{"user_id":413,"name":"Zymiren","steam_id":76561198054985471,"connected_time":292000000000,"state":"active","ping":113}]},{"server_id":38,"name":"Uncletopia | Chicago | 7 | Stopwatch Beta","name_short":"chi-7","host":"chi-2.us.uncletopia.com","port":27035,"enabled":true,"region":"us-central","cc":"us","latitude":41.881832,"longitude":-87.62318,"reserved":0,"last_update":"0001-01-01T00:00:00Z","name_a2s":"Uncletopia | Chicago | 7 | Stopwatch Beta","protocol":17,"map":"workshop/pl_barnblitz_pro7.ugc582280235","folder":"tf","game":"Team Fortress","app_id":440,"player_count":2,"max_players":24,"Bots":0,"server_type":"Dedicated","server_os":"Linux","password":true,"vac":true,"version":"7742253","steam_id":85568392924866364,"keywords":["nocrits","nodmgspread","payload","uncletopia"],"game_id":440,"stv_port":27036,"stv_name":"Uncletopia | Chicago | 7 | Stopwatch Beta | STV","players":[{"user_id":27,"name":"Droz misses shots","steam_id":76561198072555204,"connected_time":19000000000,"state":"spawning","ping":420},{"user_id":26,"name":"Hehe Fox","steam_id":76561199005613813,"connected_time":53000000000,"state":"active","ping":61}]},{"server_id":39,"name":"Uncletopia | Chicago | 8 | Community","name_short":"chi-8","host":"chi-2.us.uncletopia.com","port":27045,"enabled":true,"region":"us-central","cc":"us","latitude":41.881832,"longitude":-87.62318,"reserved":0,"last_update":"0001-01-01T00:00:00Z","name_a2s":"Uncletopia | Chicago | 8 | Community","protocol":17,"map":"koth_lakeside_final","folder":"tf","game":"Team Fortress","app_id":440,"player_count":0,"max_players":24,"Bots":0,"server_type":"Dedicated","server_os":"Linux","password":true,"vac":true,"version":"7742253","steam_id":85568392924866365,"keywords":["cp","nocrits","nodmgspread","uncletopia"],"game_id":440,"stv_port":27046,"stv_name":"Uncletopia | Chicago | 8 | Community | STV","players":null},{"server_id":8,"name":"Uncletopia | Dallas | 1 | All Maps","name_short":"dal-1","host":"dal-1.us.uncletopia.com","port":27015,"enabled":true,"region":"us-central","cc":"us","latitude":32.779167,"longitude":-96.80889,"reserved":0,"last_update":"0001-01-01T00:00:00Z","name_a2s":"Uncletopia | Dallas | 1 | All Maps","protocol":17,"map":"pl_swiftwater_final1","folder":"tf","game":"Team Fortress","app_id":440,"player_count":24,"max_players":24,"Bots":0,"server_type":"Dedicated","server_os":"Linux","password":true,"vac":true,"version":"7742253","steam_id":85568392924469986,"keywords":["nocrits","nodmgspread","payload","uncletopia"],"game_id":440,"stv_port":27016,"stv_name":"Uncletopia | Dallas | 1 | All Maps | STV","players":[{"user_id":266,"name":"Smitty Werbenjagermanjensen","steam_id":76561198065782439,"connected_time":1621000000000,"state":"active","ping":99},{"user_id":285,"name":"survivalist keeda","steam_id":76561198277979851,"connected_time":569000000000,"state":"active","ping":94},{"user_id":289,"name":"KohlManDingo","steam_id":76561198272063537,"connected_time":70000000000,"state":"active","ping":95},{"user_id":272,"name":"thebestman982","steam_id":76561199001698710,"connected_time":1120000000000,"state":"active","ping":70},{"user_id":268,"name":"B.A.S.E","steam_id":76561198065324447,"connected_time":1555000000000,"state":"active","ping":63},{"user_id":249,"name":"Salad","steam_id":76561198120907230,"connected_time":2488000000000,"state":"active","ping":94},{"user_id":260,"name":"shellaa","steam_id":76561198044124102,"connected_time":1816000000000,"state":"active","ping":43},{"user_id":213,"name":"Onyx","steam_id":76561198275349640,"connected_time":4925000000000,"state":"active","ping":76},{"user_id":261,"name":"Bri","steam_id":76561198089908485,"connected_time":1793000000000,"state":"active","ping":97},{"user_id":286,"name":"Barracuda","steam_id":76561198013022083,"connected_time":444000000000,"state":"active","ping":55},{"user_id":283,"name":"GooniOoni","steam_id":76561198102154561,"connected_time":743000000000,"state":"active","ping":90},{"user_id":264,"name":"Poo","steam_id":76561199229455856,"connected_time":1712000000000,"state":"active","ping":95},{"user_id":245,"name":"Yukon Cornelius","steam_id":76561198261512781,"connected_time":2711000000000,"state":"active","ping":88},{"user_id":275,"name":"› Panik the Cat","steam_id":76561198050301260,"connected_time":991000000000,"state":"active","ping":74},{"user_id":273,"name":"Grammer","steam_id":76561197977007845,"connected_time":1101000000000,"state":"active","ping":76},{"user_id":288,"name":"Tomato","steam_id":76561197996472649,"connected_time":242000000000,"state":"active","ping":91},{"user_id":207,"name":"godmode","steam_id":76561199245670274,"connected_time":5152000000000,"state":"active","ping":87},{"user_id":276,"name":"stop it","steam_id":76561198102681457,"connected_time":954000000000,"state":"active","ping":78},{"user_id":277,"name":"minumize","steam_id":76561198017539604,"connected_time":925000000000,"state":"active","ping":86},{"user_id":257,"name":"EduardoLopez2005","steam_id":76561198188481309,"connected_time":2364000000000,"state":"active","ping":89},{"user_id":284,"name":"Geloman","steam_id":76561198005501322,"connected_time":642000000000,"state":"active","ping":125},{"user_id":280,"name":"Toasty Gyro","steam_id":76561198001026643,"connected_time":896000000000,"state":"active","ping":70},{"user_id":265,"name":"IZISOO","steam_id":76561198970380577,"connected_time":1644000000000,"state":"active","ping":68},{"user_id":270,"name":"Fake21","steam_id":76561198282065071,"connected_time":1154000000000,"state":"active","ping":45}]},{"server_id":108,"name":"Uncletopia | Dallas | 2 | All Maps","name_short":"dal-2","host":"dal-1.us.uncletopia.com","port":27025,"enabled":true,"region":"us-central","cc":"us","latitude":32.779167,"longitude":-96.80889,"reserved":0,"last_update":"0001-01-01T00:00:00Z","name_a2s":"Uncletopia | Dallas | 2 | All Maps","protocol":17,"map":"koth_lakeside_final","folder":"tf","game":"Team Fortress","app_id":440,"player_count":21,"max_players":24,"Bots":0,"server_type":"Dedicated","server_os":"Linux","password":true,"vac":true,"version":"7742253","steam_id":85568392924469988,"keywords":["cp","nocrits","nodmgspread","uncletopia"],"game_id":440,"stv_port":27026,"stv_name":"Uncletopia | Dallas | 2 | All Maps | STV","players":[{"user_id":125,"name":"Zetta","steam_id":76561198045710113,"connected_time":1836000000000,"state":"active","ping":76},{"user_id":97,"name":"Vordt","steam_id":76561198040942866,"connected_time":3496000000000,"state":"active","ping":62},{"user_id":133,"name":"rainbowmaster25!","steam_id":76561199215255414,"connected_time":844000000000,"state":"active","ping":66},{"user_id":131,"name":"StarManMatt","steam_id":76561198125513574,"connected_time":871000000000,"state":"active","ping":83},{"user_id":100,"name":"Superbearhero","steam_id":76561198252350708,"connected_time":3105000000000,"state":"active","ping":41},{"user_id":89,"name":"☙ Corrupt ❧","steam_id":76561197977631915,"connected_time":4322000000000,"state":"active","ping":56},{"user_id":116,"name":"Esteban Delsin","steam_id":76561198433519639,"connected_time":2632000000000,"state":"active","ping":73},{"user_id":112,"name":"pan","steam_id":76561198093968095,"connected_time":2698000000000,"state":"active","ping":80},{"user_id":95,"name":"McAspie","steam_id":76561198079700167,"connected_time":3765000000000,"state":"active","ping":49},{"user_id":127,"name":"Project Dusk","steam_id":76561198193521149,"connected_time":1537000000000,"state":"active","ping":49},{"user_id":91,"name":"tyg","steam_id":76561198056246867,"connected_time":4262000000000,"state":"active","ping":79},{"user_id":134,"name":"HRT","steam_id":76561198013781132,"connected_time":808000000000,"state":"active","ping":75},{"user_id":113,"name":"lauren/","steam_id":76561198048745798,"connected_time":2680000000000,"state":"active","ping":60},{"user_id":78,"name":"Ⓑ⓪⓪ⓣⓨⓒⓐⓚⓔⓢ","steam_id":76561198088776421,"connected_time":4863000000000,"state":"active","ping":82},{"user_id":130,"name":"puffer","steam_id":76561199049164456,"connected_time":1108000000000,"state":"active","ping":97},{"user_id":136,"name":"number 1 pl_upward hater","steam_id":76561198143132686,"connected_time":463000000000,"state":"active","ping":69},{"user_id":132,"name":"☻","steam_id":76561198176618461,"connected_time":867000000000,"state":"active","ping":80},{"user_id":139,"name":"Bonesala","steam_id":76561199052450127,"connected_time":97000000000,"state":"spawning","ping":123},{"user_id":138,"name":"Yengozi","steam_id":76561198448764748,"connected_time":248000000000,"state":"active","ping":72},{"user_id":135,"name":"sayad","steam_id":76561198080897870,"connected_time":797000000000,"state":"active","ping":75},{"user_id":141,"name":"Groucho","steam_id":76561198331965129,"connected_time":42000000000,"state":"spawning","ping":94}]},{"server_id":5,"name":"Uncletopia | Frankfurt | 1 | All Maps","name_short":"frk-1","host":"frk-1.de.uncletopia.com","port":27015,"enabled":true,"region":"eu","cc":"de","latitude":50.110924,"longitude":8.682127,"reserved":0,"last_update":"0001-01-01T00:00:00Z","name_a2s":"Uncletopia | Frankfurt | 1 | All Maps","protocol":17,"map":"cp_process_final","folder":"tf","game":"Team Fortress","app_id":440,"player_count":24,"max_players":24,"Bots":0,"server_type":"Dedicated","server_os":"Linux","password":true,"vac":true,"version":"7742253","steam_id":85568392924469989,"keywords":["cp","nocrits","nodmgspread","uncletopia"],"game_id":440,"stv_port":27016,"stv_name":"Uncletopia | Frankfurt | 1 | All Maps | STV","players":[{"user_id":651,"name":"Klooskie","steam_id":76561198057011629,"connected_time":2992000000000,"state":"active","ping":60},{"user_id":675,"name":"Superiumentarius","steam_id":76561198081642249,"connected_time":1790000000000,"state":"active","ping":57},{"user_id":676,"name":"Volcyy","steam_id":76561198063979124,"connected_time":1768000000000,"state":"active","ping":33},{"user_id":673,"name":"Bilaterial Newt","steam_id":76561198074655679,"connected_time":2095000000000,"state":"active","ping":79},{"user_id":688,"name":"okyriosy","steam_id":76561198043848122,"connected_time":1336000000000,"state":"active","ping":75},{"user_id":660,"name":"George_Hunterman","steam_id":76561198408012399,"connected_time":2676000000000,"state":"active","ping":48},{"user_id":677,"name":"lkx","steam_id":76561198048250715,"connected_time":1764000000000,"state":"active","ping":49},{"user_id":644,"name":"Banana","steam_id":76561198155118706,"connected_time":3890000000000,"state":"active","ping":105},{"user_id":653,"name":"All eyez on me","steam_id":76561199125837881,"connected_time":2969000000000,"state":"active","ping":58},{"user_id":654,"name":"Welder","steam_id":76561198355300561,"connected_time":2962000000000,"state":"active","ping":67},{"user_id":692,"name":"weSt","steam_id":76561198000913325,"connected_time":899000000000,"state":"active","ping":62},{"user_id":678,"name":"j100j","steam_id":76561198338726444,"connected_time":1745000000000,"state":"active","ping":101},{"user_id":685,"name":"Andres Carolinho","steam_id":76561198049312442,"connected_time":1606000000000,"state":"active","ping":63},{"user_id":693,"name":"akakez","steam_id":76561198095432821,"connected_time":679000000000,"state":"active","ping":119},{"user_id":687,"name":"SIGMA BALLS","steam_id":76561198302623594,"connected_time":1389000000000,"state":"active","ping":93},{"user_id":670,"name":"very soft kitten eating spaghet","steam_id":76561198142183478,"connected_time":2163000000000,"state":"active","ping":82},{"user_id":683,"name":"alma","steam_id":76561198857712172,"connected_time":1628000000000,"state":"active","ping":62},{"user_id":684,"name":"Miss Bari","steam_id":76561198365286092,"connected_time":1618000000000,"state":"active","ping":50},{"user_id":694,"name":"nothing,nowhere.","steam_id":76561199016117890,"connected_time":183000000000,"state":"active","ping":84},{"user_id":667,"name":"General Antifascista","steam_id":76561198194714570,"connected_time":2341000000000,"state":"active","ping":45},{"user_id":674,"name":"kbbq","steam_id":76561198346638308,"connected_time":2072000000000,"state":"active","ping":60},{"user_id":669,"name":"Rudebwoyyy","steam_id":76561199387956486,"connected_time":2293000000000,"state":"active","ping":56},{"user_id":501,"name":"Cerberus","steam_id":76561198140442059,"connected_time":14412000000000,"state":"active","ping":55},{"user_id":690,"name":"SPONGE","steam_id":76561198040933472,"connected_time":1113000000000,"state":"active","ping":61}]},{"server_id":110,"name":"Uncletopia | Frankfurt | 2 | All Maps","name_short":"frk-2","host":"frk-1.de.uncletopia.com","port":27025,"enabled":true,"region":"eu","cc":"de","latitude":50.110924,"longitude":8.682127,"reserved":0,"last_update":"0001-01-01T00:00:00Z","name_a2s":"Uncletopia | Frankfurt | 2 | All Maps","protocol":17,"map":"cp_altitude","folder":"tf","game":"Team Fortress","app_id":440,"player_count":23,"max_players":24,"Bots":0,"server_type":"Dedicated","server_os":"Linux","password":true,"vac":true,"version":"7742253","steam_id":85568392924469990,"keywords":["cp","nocrits","nodmgspread","uncletopia"],"game_id":440,"stv_port":27026,"stv_name":"Uncletopia | Frankfurt | 2 | All Maps | STV","players":[{"user_id":601,"name":"Derpy","steam_id":76561198021158175,"connected_time":22000000000,"state":"active","ping":59},{"user_id":482,"name":"Doctor Charcoal","steam_id":76561198034568469,"connected_time":5838000000000,"state":"active","ping":151},{"user_id":591,"name":"Julez","steam_id":76561198045505082,"connected_time":1085000000000,"state":"active","ping":61},{"user_id":493,"name":"Rose-Marie","steam_id":76561198055611092,"connected_time":4829000000000,"state":"active","ping":55},{"user_id":524,"name":"DeKritteh","steam_id":76561198113945397,"connected_time":2890000000000,"state":"active","ping":78},{"user_id":465,"name":"ViciousVinnyD","steam_id":76561198053822329,"connected_time":7557000000000,"state":"active","ping":60},{"user_id":583,"name":"Talent","steam_id":76561198153880354,"connected_time":1476000000000,"state":"active","ping":54},{"user_id":494,"name":"cockwater","steam_id":76561198209101861,"connected_time":4815000000000,"state":"active","ping":70},{"user_id":523,"name":"Sylbar","steam_id":76561198065379590,"connected_time":2986000000000,"state":"active","ping":60},{"user_id":602,"name":"Stümpy","steam_id":76561198255904077,"connected_time":17000000000,"state":"active","ping":60},{"user_id":486,"name":"Kowalski","steam_id":76561198004218740,"connected_time":5612000000000,"state":"active","ping":73},{"user_id":593,"name":"TNE","steam_id":76561198996635737,"connected_time":1068000000000,"state":"active","ping":67},{"user_id":585,"name":"Čamuga⚜","steam_id":76561198324252599,"connected_time":1453000000000,"state":"active","ping":69},{"user_id":467,"name":"Dinges360","steam_id":76561198042032834,"connected_time":7550000000000,"state":"active","ping":46},{"user_id":586,"name":"BlueBlueFox","steam_id":76561198053817230,"connected_time":1393000000000,"state":"active","ping":75},{"user_id":597,"name":"silenk","steam_id":76561198367689055,"connected_time":676000000000,"state":"active","ping":63},{"user_id":595,"name":"combine","steam_id":76561198007909007,"connected_time":740000000000,"state":"active","ping":56},{"user_id":600,"name":"Waffel","steam_id":76561198137729291,"connected_time":96000000000,"state":"active","ping":90},{"user_id":596,"name":"Bizarro","steam_id":76561197983902578,"connected_time":729000000000,"state":"active","ping":74},{"user_id":598,"name":"Videogamer","steam_id":76561198106012909,"connected_time":667000000000,"state":"active","ping":62},{"user_id":588,"name":"F1-M","steam_id":76561198198409875,"connected_time":1375000000000,"state":"active","ping":125},{"user_id":558,"name":"SoupER","steam_id":76561198063056668,"connected_time":2081000000000,"state":"active","ping":58},{"user_id":513,"name":"★poyo★","steam_id":76561198150078959,"connected_time":4144000000000,"state":"active","ping":58}]},{"server_id":308,"name":"Uncletopia | Frankfurt | 3 | All Maps","name_short":"frk-3","host":"frk-1.de.uncletopia.com","port":27035,"enabled":true,"region":"eu","cc":"de","latitude":50.110924,"longitude":8.682127,"reserved":0,"last_update":"0001-01-01T00:00:00Z","name_a2s":"Uncletopia | Frankfurt | 3 | All Maps","protocol":17,"map":"cp_sunshine","folder":"tf","game":"Team Fortress","app_id":440,"player_count":5,"max_players":24,"Bots":0,"server_type":"Dedicated","server_os":"Linux","password":true,"vac":true,"version":"7742253","steam_id":85568392924504274,"keywords":["cp","nocrits","nodmgspread","uncletopia"],"game_id":440,"stv_port":27036,"stv_name":"Uncletopia | Frankfurt | 3 | All Maps | STV","players":[{"user_id":774,"name":"♡☠MORPHINE OVERDOSE☠♡","steam_id":76561198312877267,"connected_time":1344000000000,"state":"active","ping":77},{"user_id":775,"name":"KatTheCookiCat","steam_id":76561199054643392,"connected_time":1327000000000,"state":"active","ping":53},{"user_id":777,"name":"high roller bmb","steam_id":76561198029592773,"connected_time":1221000000000,"state":"active","ping":60},{"user_id":778,"name":"Thales gaming","steam_id":76561198154569703,"connected_time":852000000000,"state":"active","ping":75},{"user_id":779,"name":"LenKineUltraGaming","steam_id":76561199195447283,"connected_time":565000000000,"state":"active","ping":63}]},{"server_id":309,"name":"Uncletopia | Frankfurt | 4 | All Maps","name_short":"frk-4","host":"frk-1.de.uncletopia.com","port":27045,"enabled":true,"region":"eu","cc":"de","latitude":50.110924,"longitude":8.682127,"reserved":0,"last_update":"0001-01-01T00:00:00Z","name_a2s":"Uncletopia | Frankfurt | 4 | All Maps","protocol":17,"map":"cp_dustbowl","folder":"tf","game":"Team Fortress","app_id":440,"player_count":0,"max_players":24,"Bots":0,"server_type":"Dedicated","server_os":"Linux","password":true,"vac":true,"version":"7742253","steam_id":85568392924504275,"keywords":["cp","nocrits","nodmgspread","uncletopia"],"game_id":440,"stv_port":27046,"stv_name":"Uncletopia | Frankfurt | 4 | All Maps | STV","players":null},{"server_id":310,"name":"Uncletopia | Frankfurt | 5 | All Maps","name_short":"frk-5","host":"frk-1.de.uncletopia.com","port":27055,"enabled":true,"region":"eu","cc":"de","latitude":50.110924,"longitude":8.682127,"reserved":0,"last_update":"0001-01-01T00:00:00Z","name_a2s":"Uncletopia | Frankfurt | 5 | All Maps","protocol":17,"map":"pl_frontier_final","folder":"tf","game":"Team Fortress","app_id":440,"player_count":16,"max_players":24,"Bots":0,"server_type":"Dedicated","server_os":"Linux","password":true,"vac":true,"version":"7742253","steam_id":85568392924504277,"keywords":["nocrits","nodmgspread","payload","uncletopia"],"game_id":440,"stv_port":27056,"stv_name":"Uncletopia | Frankfurt | 5 | All Maps | STV","players":[{"user_id":735,"name":"Varin","steam_id":76561198872319542,"connected_time":4014000000000,"state":"active","ping":46},{"user_id":799,"name":"ender45","steam_id":76561198840955715,"connected_time":191000000000,"state":"active","ping":56},{"user_id":795,"name":"Торч","steam_id":76561198213991196,"connected_time":253000000000,"state":"active","ping":95},{"user_id":800,"name":"Snowmotion","steam_id":76561198075022454,"connected_time":170000000000,"state":"active","ping":51},{"user_id":726,"name":"Sneaky boi","steam_id":76561199195985387,"connected_time":4416000000000,"state":"active","ping":84},{"user_id":796,"name":"_benő_swag_^_^","steam_id":76561199117893688,"connected_time":238000000000,"state":"active","ping":89},{"user_id":801,"name":"Hentai Lord","steam_id":76561199030449654,"connected_time":99000000000,"state":"active","ping":51},{"user_id":774,"name":"Valfezant","steam_id":76561199063983797,"connected_time":2305000000000,"state":"active","ping":63},{"user_id":802,"name":"DNC (do not contact)","steam_id":76561198312487248,"connected_time":38000000000,"state":"active","ping":144},{"user_id":803,"name":"sirbush","steam_id":76561198308441724,"connected_time":33000000000,"state":"active","ping":56},{"user_id":804,"name":"htraB","steam_id":76561198043122677,"connected_time":11000000000,"state":"spawning","ping":61},{"user_id":756,"name":"Puboy","steam_id":76561197984617142,"connected_time":3376000000000,"state":"active","ping":54},{"user_id":792,"name":"RYDER","steam_id":76561197964454181,"connected_time":980000000000,"state":"active","ping":129},{"user_id":685,"name":"Goliath","steam_id":76561198088583638,"connected_time":5883000000000,"state":"active","ping":46},{"user_id":686,"name":"MrPOW","steam_id":76561197978597654,"connected_time":5869000000000,"state":"active","ping":62},{"user_id":791,"name":"gfjhsdf","steam_id":76561198136736426,"connected_time":1033000000000,"state":"active","ping":53}]},{"server_id":311,"name":"Uncletopia | Frankfurt | 6 | All Maps","name_short":"frk-6","host":"frk-1.de.uncletopia.com","port":27065,"enabled":true,"region":"eu","cc":"de","latitude":50.110924,"longitude":8.682127,"reserved":0,"last_update":"0001-01-01T00:00:00Z","name_a2s":"Uncletopia | Frankfurt | 6 | All Maps","protocol":17,"map":"koth_lakeside_final","folder":"tf","game":"Team Fortress","app_id":440,"player_count":0,"max_players":24,"Bots":0,"server_type":"Dedicated","server_os":"Linux","password":true,"vac":true,"version":"7742253","steam_id":85568392924504278,"keywords":["cp","nocrits","nodmgspread","uncletopia"],"game_id":440,"stv_port":27066,"stv_name":"Uncletopia | Frankfurt | 6 | All Maps | STV","players":null},{"server_id":23,"name":"Uncletopia | Frankfurt | 7 | Stopwatch Beta","name_short":"frk-7","host":"frk-1.de.uncletopia.com","port":27075,"enabled":true,"region":"eu","cc":"de","latitude":50.110924,"longitude":8.682127,"reserved":0,"last_update":"0001-01-01T00:00:00Z","name_a2s":"Uncletopia | Frankfurt | 7 | Stopwatch Beta","protocol":17,"map":"workshop/koth_clearcut_b15.ugc2107050255","folder":"tf","game":"Team Fortress","app_id":440,"player_count":0,"max_players":24,"Bots":0,"server_type":"Dedicated","server_os":"Linux","password":true,"vac":true,"version":"7742253","steam_id":85568392924742827,"keywords":["cp","nocrits","nodmgspread","uncletopia"],"game_id":440,"stv_port":27076,"stv_name":"Uncletopia | Frankfurt | 7 | Stopwatch Beta | STV","players":null},{"server_id":24,"name":"Uncletopia | Frankfurt | 8 | Community","name_short":"frk-8","host":"frk-1.de.uncletopia.com","port":27085,"enabled":true,"region":"eu","cc":"de","latitude":50.110924,"longitude":8.682127,"reserved":0,"last_update":"0001-01-01T00:00:00Z","name_a2s":"Uncletopia | Frankfurt | 8 | Community","protocol":17,"map":"workshop/koth_ashville_final.ugc2130459942","folder":"tf","game":"Team Fortress","app_id":440,"player_count":0,"max_players":24,"Bots":0,"server_type":"Dedicated","server_os":"Linux","password":true,"vac":true,"version":"7742253","steam_id":85568392924742828,"keywords":["cp","nocrits","nodmgspread","uncletopia"],"game_id":440,"stv_port":27086,"stv_name":"Uncletopia | Frankfurt | 8 | Community | STV","players":null},{"server_id":202,"name":"Uncletopia | Hong Kong | 1 | All Maps","name_short":"hgk-1","host":"hgk-1.hk.uncletopia.com","port":27015,"enabled":true,"region":"asia","cc":"hk","latitude":22.302711,"longitude":114.177216,"reserved":0,"last_update":"0001-01-01T00:00:00Z","name_a2s":"Uncletopia | Hong Kong | 1 | All Maps","protocol":17,"map":"pl_badwater","folder":"tf","game":"Team Fortress","app_id":440,"player_count":0,"max_players":24,"Bots":0,"server_type":"Dedicated","server_os":"Linux","password":true,"vac":true,"version":"7742253","steam_id":85568392924494504,"keywords":["nocrits","nodmgspread","payload","uncletopia"],"game_id":440,"stv_port":27016,"stv_name":"Uncletopia | Hong Kong | 1 | All Maps | STV","players":null},{"server_id":1,"name":"Uncletopia | Los Angeles | 1 | All Maps","name_short":"lax-1","host":"lax-1.us.uncletopia.com","port":27015,"enabled":true,"region":"us-west","cc":"us","latitude":33.94279,"longitude":-118.41004,"reserved":0,"last_update":"0001-01-01T00:00:00Z","name_a2s":"Uncletopia | Los Angeles | 1 | All Maps","protocol":17,"map":"pl_pier","folder":"tf","game":"Team Fortress","app_id":440,"player_count":4,"max_players":24,"Bots":0,"server_type":"Dedicated","server_os":"Linux","password":true,"vac":true,"version":"7742253","steam_id":85568392924469991,"keywords":["nocrits","nodmgspread","payload","uncletopia"],"game_id":440,"stv_port":27016,"stv_name":"Uncletopia | Los Angeles | 1 | All Maps | STV","players":[{"user_id":23,"name":"AmirKhaan","steam_id":76561198992403254,"connected_time":12000000000,"state":"active","ping":125},{"user_id":11,"name":"thisguy42424242","steam_id":76561199304282915,"connected_time":1458000000000,"state":"active","ping":52},{"user_id":17,"name":"rusty","steam_id":76561198236169088,"connected_time":569000000000,"state":"active","ping":62},{"user_id":19,"name":"car gas is yummy","steam_id":76561199045901994,"connected_time":403000000000,"state":"active","ping":58}]},{"server_id":112,"name":"Uncletopia | Los Angeles | 2 | All Maps","name_short":"lax-2","host":"lax-1.us.uncletopia.com","port":27025,"enabled":true,"region":"us-west","cc":"us","latitude":33.94279,"longitude":-118.41004,"reserved":0,"last_update":"0001-01-01T00:00:00Z","name_a2s":"Uncletopia | Los Angeles | 2 | All Maps","protocol":17,"map":"koth_lakeside_final","folder":"tf","game":"Team Fortress","app_id":440,"player_count":0,"max_players":24,"Bots":0,"server_type":"Dedicated","server_os":"Linux","password":true,"vac":true,"version":"7742253","steam_id":85568392924469992,"keywords":["cp","nocrits","nodmgspread","uncletopia"],"game_id":440,"stv_port":27026,"stv_name":"Uncletopia | Los Angeles | 2 | All Maps | STV","players":null},{"server_id":324,"name":"Uncletopia | Los Angeles | 3 | All Maps","name_short":"lax-3","host":"lax-1.us.uncletopia.com","port":27035,"enabled":true,"region":"us-west","cc":"us","latitude":33.94279,"longitude":-118.41004,"reserved":0,"last_update":"0001-01-01T00:00:00Z","name_a2s":"Uncletopia | Los Angeles | 3 | All Maps","protocol":17,"map":"pl_swiftwater_final1","folder":"tf","game":"Team Fortress","app_id":440,"player_count":24,"max_players":24,"Bots":0,"server_type":"Dedicated","server_os":"Linux","password":true,"vac":true,"version":"7742253","steam_id":85568392924510198,"keywords":["nocrits","nodmgspread","payload","uncletopia"],"game_id":440,"stv_port":27036,"stv_name":"Uncletopia | Los Angeles | 3 | All Maps | STV","players":[{"user_id":129,"name":"Left_otd","steam_id":76561198117190963,"connected_time":3678000000000,"state":"active","ping":63},{"user_id":121,"name":"coolbust carti","steam_id":76561198065384345,"connected_time":4146000000000,"state":"active","ping":49},{"user_id":159,"name":"Jon Snuh","steam_id":76561198075298635,"connected_time":1366000000000,"state":"active","ping":120},{"user_id":164,"name":"cup","steam_id":76561198121245586,"connected_time":1104000000000,"state":"active","ping":84},{"user_id":165,"name":"taylor swift","steam_id":76561198151135298,"connected_time":1099000000000,"state":"active","ping":31},{"user_id":127,"name":"Bubbasloosky","steam_id":76561198082227045,"connected_time":3938000000000,"state":"active","ping":76},{"user_id":166,"name":"CaptainGold1","steam_id":76561198104967772,"connected_time":792000000000,"state":"active","ping":77},{"user_id":116,"name":"chanoc","steam_id":76561198026734746,"connected_time":4441000000000,"state":"active","ping":59},{"user_id":162,"name":"Drilly22","steam_id":76561198068838338,"connected_time":1298000000000,"state":"active","ping":87},{"user_id":176,"name":"3mstar","steam_id":76561198825402464,"connected_time":12000000000,"state":"spawning","ping":132},{"user_id":174,"name":"wallgreens Now With Ketamine","steam_id":76561199006886644,"connected_time":356000000000,"state":"active","ping":59},{"user_id":173,"name":"Squigzy_","steam_id":76561198061696667,"connected_time":408000000000,"state":"active","ping":118},{"user_id":140,"name":"bansheerubber","steam_id":76561198042009362,"connected_time":3077000000000,"state":"active","ping":62},{"user_id":167,"name":"fifty shades of glizzy #bigmeat","steam_id":76561198825658971,"connected_time":769000000000,"state":"active","ping":46},{"user_id":168,"name":"Hans Burr","steam_id":76561197994592491,"connected_time":760000000000,"state":"active","ping":105},{"user_id":149,"name":"Taffy","steam_id":76561198276612538,"connected_time":1940000000000,"state":"active","ping":61},{"user_id":107,"name":"berserker_tf2 ttv","steam_id":76561198303464488,"connected_time":5130000000000,"state":"active","ping":62},{"user_id":169,"name":"SomeRandomCat","steam_id":76561199107044061,"connected_time":593000000000,"state":"active","ping":78},{"user_id":172,"name":"Tim the Enchanter","steam_id":76561197970503120,"connected_time":429000000000,"state":"active","ping":85},{"user_id":156,"name":"sadlaxx","steam_id":76561198061354919,"connected_time":1739000000000,"state":"active","ping":72},{"user_id":125,"name":"i ate atomic bomb","steam_id":76561198150406851,"connected_time":4018000000000,"state":"active","ping":60},{"user_id":150,"name":"shmeushmeu ttv","steam_id":76561198168064595,"connected_time":1940000000000,"state":"active","ping":62},{"user_id":126,"name":"blatgotyahat","steam_id":76561198186630357,"connected_time":4013000000000,"state":"active","ping":56},{"user_id":47,"name":"The Squid Gamer™","steam_id":76561198340621517,"connected_time":8422000000000,"state":"active","ping":80}]},{"server_id":25,"name":"Uncletopia | Los Angeles | 4 | Stopwatch Beta","name_short":"lax-4","host":"lax-1.us.uncletopia.com","port":27045,"enabled":true,"region":"us-west","cc":"us","latitude":33.94279,"longitude":-118.41004,"reserved":0,"last_update":"0001-01-01T00:00:00Z","name_a2s":"Uncletopia | Los Angeles | 4 | Stopwatch Beta","protocol":17,"map":"workshop/koth_clearcut_b15.ugc2107050255","folder":"tf","game":"Team Fortress","app_id":440,"player_count":0,"max_players":24,"Bots":0,"server_type":"Dedicated","server_os":"Linux","password":true,"vac":true,"version":"7742253","steam_id":85568392924510199,"keywords":["cp","nocrits","nodmgspread","uncletopia"],"game_id":440,"stv_port":27046,"stv_name":"Uncletopia | Los Angeles | 4 | Stopwatch Beta | STV","players":null},{"server_id":11,"name":"Uncletopia | London | 1 | All Maps","name_short":"lon-1","host":"lon-1.uk.uncletopia.com","port":27015,"enabled":true,"region":"eu","cc":"gb","latitude":51.509865,"longitude":-0.118092,"reserved":0,"last_update":"0001-01-01T00:00:00Z","name_a2s":"Uncletopia | London | 1 | All Maps","protocol":17,"map":"ctf_doublecross","folder":"tf","game":"Team Fortress","app_id":440,"player_count":23,"max_players":24,"Bots":0,"server_type":"Dedicated","server_os":"Linux","password":true,"vac":true,"version":"7742253","steam_id":85568392924367362,"keywords":["ctf","nocrits","nodmgspread","uncletopia"],"game_id":440,"stv_port":27016,"stv_name":"Uncletopia | London | 1 | All Maps | STV","players":[{"user_id":511,"name":"sora","steam_id":76561198096547662,"connected_time":11658000000000,"state":"active","ping":50},{"user_id":533,"name":"SOPHIIEE","steam_id":76561198443798981,"connected_time":9742000000000,"state":"active","ping":57},{"user_id":603,"name":"gnarly business","steam_id":76561198832688767,"connected_time":4305000000000,"state":"active","ping":46},{"user_id":636,"name":"Zedifo","steam_id":76561198044032070,"connected_time":1028000000000,"state":"active","ping":28},{"user_id":642,"name":"R A S M U S","steam_id":76561198279799226,"connected_time":20000000000,"state":"active","ping":70},{"user_id":616,"name":"Ruralchain","steam_id":76561198803915402,"connected_time":3042000000000,"state":"active","ping":51},{"user_id":582,"name":"Coac","steam_id":76561198085265740,"connected_time":6557000000000,"state":"active","ping":63},{"user_id":579,"name":"Zoran Snajper","steam_id":76561198312564061,"connected_time":6691000000000,"state":"active","ping":73},{"user_id":560,"name":"sigma female","steam_id":76561198298576765,"connected_time":8292000000000,"state":"active","ping":59},{"user_id":641,"name":"Lakrits Tomte","steam_id":76561199217645386,"connected_time":309000000000,"state":"active","ping":77},{"user_id":629,"name":"✪ J","steam_id":76561198094911581,"connected_time":1766000000000,"state":"active","ping":47},{"user_id":621,"name":"Malsi","steam_id":76561199061284165,"connected_time":2436000000000,"state":"active","ping":80},{"user_id":633,"name":"Cabbe","steam_id":76561198019915094,"connected_time":1260000000000,"state":"active","ping":70},{"user_id":622,"name":"Boil em mash em","steam_id":76561198026508026,"connected_time":2350000000000,"state":"active","ping":69},{"user_id":623,"name":"Sprottel","steam_id":76561198362958293,"connected_time":2306000000000,"state":"active","ping":47},{"user_id":598,"name":"jonesy","steam_id":76561198073975078,"connected_time":4815000000000,"state":"active","ping":49},{"user_id":640,"name":"Intern","steam_id":76561198062744679,"connected_time":449000000000,"state":"active","ping":74},{"user_id":639,"name":"alf","steam_id":76561198060249715,"connected_time":649000000000,"state":"active","ping":45},{"user_id":632,"name":"Scarlet","steam_id":76561198075966579,"connected_time":1375000000000,"state":"active","ping":36},{"user_id":613,"name":"EchoBN","steam_id":76561198287127380,"connected_time":3234000000000,"state":"active","ping":44},{"user_id":584,"name":"teddy","steam_id":76561198007436837,"connected_time":6400000000000,"state":"active","ping":51},{"user_id":615,"name":"r06u3","steam_id":76561198254099253,"connected_time":3217000000000,"state":"active","ping":177},{"user_id":597,"name":"Frazzles","steam_id":76561199228009586,"connected_time":4968000000000,"state":"active","ping":53}]},{"server_id":114,"name":"Uncletopia | London | 2 | All Maps","name_short":"lon-2","host":"lon-1.uk.uncletopia.com","port":27025,"enabled":true,"region":"eu","cc":"gb","latitude":51.509865,"longitude":-0.118092,"reserved":0,"last_update":"0001-01-01T00:00:00Z","name_a2s":"Uncletopia | London | 2 | All Maps","protocol":17,"map":"pl_snowycoast","folder":"tf","game":"Team Fortress","app_id":440,"player_count":24,"max_players":24,"Bots":0,"server_type":"Dedicated","server_os":"Linux","password":true,"vac":true,"version":"7742253","steam_id":85568392924470941,"keywords":["nocrits","nodmgspread","payload","uncletopia"],"game_id":440,"stv_port":27026,"stv_name":"Uncletopia | London | 2 | All Maps | STV","players":[{"user_id":898,"name":"Jeff","steam_id":76561198949174773,"connected_time":191000000000,"state":"active","ping":73},{"user_id":890,"name":"barni","steam_id":76561198170420173,"connected_time":944000000000,"state":"active","ping":74},{"user_id":880,"name":"balanced diet","steam_id":76561198240320806,"connected_time":2876000000000,"state":"active","ping":75},{"user_id":874,"name":"aspect","steam_id":76561198315032412,"connected_time":2978000000000,"state":"active","ping":71},{"user_id":891,"name":"Kurage","steam_id":76561198021221288,"connected_time":944000000000,"state":"active","ping":66},{"user_id":854,"name":"Condigium","steam_id":76561198838929185,"connected_time":4805000000000,"state":"active","ping":50},{"user_id":883,"name":"DelaNo","steam_id":76561199125086655,"connected_time":2164000000000,"state":"active","ping":46},{"user_id":894,"name":"★ sat1ra","steam_id":76561198011382701,"connected_time":908000000000,"state":"active","ping":77},{"user_id":887,"name":"Kolar","steam_id":76561198108583895,"connected_time":954000000000,"state":"active","ping":60},{"user_id":889,"name":"invis","steam_id":76561198120668070,"connected_time":950000000000,"state":"active","ping":72},{"user_id":897,"name":"ShoobyDooby","steam_id":76561198118473910,"connected_time":278000000000,"state":"active","ping":53},{"user_id":900,"name":"Mr_Pulse_","steam_id":76561198095001602,"connected_time":13000000000,"state":"active","ping":103},{"user_id":863,"name":"Pintarolas","steam_id":76561198124839451,"connected_time":4158000000000,"state":"active","ping":98},{"user_id":881,"name":"CaptainDefoe","steam_id":76561198003571104,"connected_time":2829000000000,"state":"active","ping":93},{"user_id":864,"name":"The Great G.B.A","steam_id":76561198002022998,"connected_time":3833000000000,"state":"active","ping":49},{"user_id":836,"name":"natalie","steam_id":76561198084507532,"connected_time":5844000000000,"state":"active","ping":75},{"user_id":868,"name":"Laiker","steam_id":76561198163560309,"connected_time":3750000000000,"state":"active","ping":60},{"user_id":869,"name":"TaiDni","steam_id":76561198087750392,"connected_time":3722000000000,"state":"active","ping":48},{"user_id":882,"name":"•stepbro•","steam_id":76561198119607160,"connected_time":2674000000000,"state":"active","ping":76},{"user_id":885,"name":"Eeveeon","steam_id":76561198292709299,"connected_time":1972000000000,"state":"active","ping":83},{"user_id":845,"name":"FireStorm","steam_id":76561198350478325,"connected_time":5611000000000,"state":"active","ping":42},{"user_id":872,"name":"The Alien","steam_id":76561198185817713,"connected_time":3719000000000,"state":"active","ping":155},{"user_id":860,"name":"Florence, the Talking Mailbox","steam_id":76561198129314173,"connected_time":4668000000000,"state":"active","ping":131},{"user_id":896,"name":"Zoolin","steam_id":76561198990207435,"connected_time":860000000000,"state":"active","ping":109}]},{"server_id":320,"name":"Uncletopia | London | 3 | All Maps","name_short":"lon-3","host":"lon-1.uk.uncletopia.com","port":27035,"enabled":true,"region":"eu","cc":"gb","latitude":51.509865,"longitude":-0.118092,"reserved":0,"last_update":"0001-01-01T00:00:00Z","name_a2s":"Uncletopia | London | 3 | All Maps","protocol":17,"map":"pl_snowycoast","folder":"tf","game":"Team Fortress","app_id":440,"player_count":24,"max_players":24,"Bots":0,"server_type":"Dedicated","server_os":"Linux","password":true,"vac":true,"version":"7742253","steam_id":85568392924510192,"keywords":["nocrits","nodmgspread","payload","uncletopia"],"game_id":440,"stv_port":27036,"stv_name":"Uncletopia | London | 3 | All Maps | STV","players":[{"user_id":509,"name":"Spetse","steam_id":76561197990649972,"connected_time":2823000000000,"state":"active","ping":92},{"user_id":457,"name":"Waffle","steam_id":76561198397024973,"connected_time":7234000000000,"state":"active","ping":38},{"user_id":492,"name":"|20BB)\u003eMach","steam_id":76561198952487564,"connected_time":4177000000000,"state":"active","ping":90},{"user_id":528,"name":"Heisenbones (real)","steam_id":76561198097519748,"connected_time":1110000000000,"state":"active","ping":41},{"user_id":523,"name":"Vi","steam_id":76561198036546142,"connected_time":1587000000000,"state":"active","ping":40},{"user_id":464,"name":"big heavy is heavy heavy","steam_id":76561198300059652,"connected_time":6083000000000,"state":"active","ping":62},{"user_id":529,"name":"FuneralDJ (semen demon)","steam_id":76561198105320071,"connected_time":1067000000000,"state":"active","ping":40},{"user_id":524,"name":"wtfnowy","steam_id":76561198325276848,"connected_time":1558000000000,"state":"active","ping":96},{"user_id":530,"name":"waffle toaster","steam_id":76561198799089628,"connected_time":1040000000000,"state":"active","ping":51},{"user_id":531,"name":"torn","steam_id":76561198223003236,"connected_time":1038000000000,"state":"active","ping":49},{"user_id":526,"name":"Shae","steam_id":76561199007574830,"connected_time":1193000000000,"state":"active","ping":57},{"user_id":506,"name":"YEEET","steam_id":76561198914938199,"connected_time":3335000000000,"state":"active","ping":90},{"user_id":522,"name":"2Fort Penguin","steam_id":76561197970114051,"connected_time":1992000000000,"state":"active","ping":45},{"user_id":532,"name":"Rickmans","steam_id":76561198063271935,"connected_time":1010000000000,"state":"active","ping":46},{"user_id":534,"name":"Flanpan","steam_id":76561198153969708,"connected_time":1002000000000,"state":"active","ping":55},{"user_id":535,"name":"DrFURE","steam_id":76561199092280788,"connected_time":994000000000,"state":"active","ping":107},{"user_id":537,"name":"troglodyke","steam_id":76561199400809482,"connected_time":990000000000,"state":"active","ping":57},{"user_id":460,"name":"N.","steam_id":76561198017274851,"connected_time":6355000000000,"state":"active","ping":44},{"user_id":521,"name":"Charon","steam_id":76561198061714753,"connected_time":2027000000000,"state":"active","ping":88},{"user_id":542,"name":"Terry","steam_id":76561198062444723,"connected_time":756000000000,"state":"active","ping":61},{"user_id":517,"name":"gagalak","steam_id":76561198089979108,"connected_time":2668000000000,"state":"active","ping":104},{"user_id":527,"name":"Angelo254","steam_id":76561198327226011,"connected_time":1169000000000,"state":"active","ping":74},{"user_id":540,"name":"Mr.NiceDouchebag","steam_id":76561198124489143,"connected_time":896000000000,"state":"active","ping":65},{"user_id":481,"name":"Tort","steam_id":76561198329646769,"connected_time":5369000000000,"state":"active","ping":48}]},{"server_id":321,"name":"Uncletopia | London | 4 | All Maps","name_short":"lon-4","host":"lon-1.uk.uncletopia.com","port":27045,"enabled":true,"region":"eu","cc":"gb","latitude":51.509865,"longitude":-0.118092,"reserved":0,"last_update":"0001-01-01T00:00:00Z","name_a2s":"Uncletopia | London | 4 | All Maps","protocol":17,"map":"cp_sunshine","folder":"tf","game":"Team Fortress","app_id":440,"player_count":1,"max_players":24,"Bots":0,"server_type":"Dedicated","server_os":"Linux","password":true,"vac":true,"version":"7742253","steam_id":85568392924510193,"keywords":["cp","nocrits","nodmgspread","uncletopia"],"game_id":440,"stv_port":27046,"stv_name":"Uncletopia | London | 4 | All Maps | STV","players":[{"user_id":465,"name":"strangely","steam_id":76561198030697131,"connected_time":94000000000,"state":"active","ping":23}]},{"server_id":21,"name":"Uncletopia | London | 5 | All Maps","name_short":"lon-5","host":"lon-1.uk.uncletopia.com","port":27055,"enabled":true,"region":"eu","cc":"gb","latitude":51.509865,"longitude":-0.118092,"reserved":0,"last_update":"0001-01-01T00:00:00Z","name_a2s":"Uncletopia | London | 5 | All Maps","protocol":17,"map":"pl_barnblitz","folder":"tf","game":"Team Fortress","app_id":440,"player_count":24,"max_players":24,"Bots":0,"server_type":"Dedicated","server_os":"Linux","password":true,"vac":true,"version":"7742253","steam_id":85568392924742829,"keywords":["nocrits","nodmgspread","payload","uncletopia"],"game_id":440,"stv_port":27056,"stv_name":"Uncletopia | London | 5 | All Maps | STV","players":[{"user_id":224,"name":"Blondie","steam_id":76561198080631634,"connected_time":2322000000000,"state":"active","ping":53},{"user_id":275,"name":"PLAM","steam_id":76561198120773404,"connected_time":594000000000,"state":"active","ping":69},{"user_id":225,"name":"femboy gaming","steam_id":76561198199789938,"connected_time":2147000000000,"state":"active","ping":46},{"user_id":279,"name":"Turencko.Danila","steam_id":76561199381190549,"connected_time":521000000000,"state":"active","ping":94},{"user_id":284,"name":"Zhong Xina","steam_id":76561198228064312,"connected_time":334000000000,"state":"active","ping":71},{"user_id":263,"name":"[FPC]Chrism14x","steam_id":76561198074285062,"connected_time":918000000000,"state":"active","ping":63},{"user_id":227,"name":"I SMOKE PCP","steam_id":76561198129866997,"connected_time":2126000000000,"state":"active","ping":137},{"user_id":278,"name":"Regan","steam_id":76561198100631086,"connected_time":540000000000,"state":"active","ping":44},{"user_id":281,"name":"alwayshornywhiteboy","steam_id":76561199214120675,"connected_time":468000000000,"state":"active","ping":116},{"user_id":265,"name":"vagos jhonny el sins","steam_id":76561198982787752,"connected_time":784000000000,"state":"active","ping":62},{"user_id":231,"name":"chirp","steam_id":76561198966345332,"connected_time":2047000000000,"state":"active","ping":44},{"user_id":285,"name":"Colgate","steam_id":76561198051925782,"connected_time":146000000000,"state":"active","ping":76},{"user_id":256,"name":"Aras","steam_id":76561198160394046,"connected_time":1211000000000,"state":"active","ping":112},{"user_id":266,"name":"Bart simpson","steam_id":76561198380666998,"connected_time":759000000000,"state":"active","ping":135},{"user_id":262,"name":"FoxY™","steam_id":76561198312867604,"connected_time":958000000000,"state":"active","ping":72},{"user_id":267,"name":"baked potato","steam_id":76561197986289273,"connected_time":748000000000,"state":"active","ping":66},{"user_id":274,"name":"The Fellow Feller","steam_id":76561198188864306,"connected_time":670000000000,"state":"active","ping":61},{"user_id":250,"name":"NinasGay","steam_id":76561198116715588,"connected_time":1452000000000,"state":"active","ping":49},{"user_id":258,"name":"sacha","steam_id":76561198098065932,"connected_time":1201000000000,"state":"active","ping":52},{"user_id":282,"name":"Ghost","steam_id":76561198110914180,"connected_time":465000000000,"state":"active","ping":97},{"user_id":259,"name":"Angels","steam_id":76561198253426373,"connected_time":1177000000000,"state":"active","ping":63},{"user_id":277,"name":"gjhkgfkjfh","steam_id":76561198031181349,"connected_time":572000000000,"state":"active","ping":74},{"user_id":271,"name":"18+","steam_id":76561199416857377,"connected_time":708000000000,"state":"active","ping":76},{"user_id":272,"name":"Sweetcheesus","steam_id":76561198022299033,"connected_time":703000000000,"state":"active","ping":61}]},{"server_id":22,"name":"Uncletopia | London | 6 | All Maps","name_short":"lon-6","host":"lon-1.uk.uncletopia.com","port":27065,"enabled":true,"region":"eu","cc":"gb","latitude":51.509865,"longitude":-0.118092,"reserved":0,"last_update":"0001-01-01T00:00:00Z","name_a2s":"Uncletopia | London | 6 | All Maps","protocol":17,"map":"ctf_landfall","folder":"tf","game":"Team Fortress","app_id":440,"player_count":8,"max_players":24,"Bots":0,"server_type":"Dedicated","server_os":"Linux","password":true,"vac":true,"version":"7742253","steam_id":85568392924742830,"keywords":["ctf","nocrits","nodmgspread","uncletopia"],"game_id":440,"stv_port":27066,"stv_name":"Uncletopia | London | 6 | All Maps | STV","players":[{"user_id":516,"name":"Dr. Le Quack","steam_id":76561197995711176,"connected_time":2776000000000,"state":"spawning","ping":92},{"user_id":523,"name":"Lewylow","steam_id":76561198005425686,"connected_time":1684000000000,"state":"spawning","ping":64},{"user_id":504,"name":"XDDRIMMER","steam_id":76561199435675799,"connected_time":3319000000000,"state":"spawning","ping":92},{"user_id":469,"name":"Syd","steam_id":76561198020515027,"connected_time":5347000000000,"state":"spawning","ping":100},{"user_id":528,"name":"arty","steam_id":76561198007971021,"connected_time":1282000000000,"state":"spawning","ping":74},{"user_id":520,"name":"Cloudberry","steam_id":76561198035612538,"connected_time":1987000000000,"state":"spawning","ping":76},{"user_id":513,"name":"Queen Jobber","steam_id":76561198044407572,"connected_time":3013000000000,"state":"spawning","ping":63},{"user_id":526,"name":"shinjii.","steam_id":76561198084708352,"connected_time":1632000000000,"state":"spawning","ping":132}]},{"server_id":40,"name":"Uncletopia | London | 7 | No Payload","name_short":"lon-7","host":"lon-1.uk.uncletopia.com","port":27075,"enabled":true,"region":"eu","cc":"gb","latitude":51.509865,"longitude":-0.118092,"reserved":0,"last_update":"0001-01-01T00:00:00Z","name_a2s":"Uncletopia | London | 7 | No Payload","protocol":17,"map":"koth_king","folder":"tf","game":"Team Fortress","app_id":440,"player_count":0,"max_players":24,"Bots":0,"server_type":"Dedicated","server_os":"Linux","password":true,"vac":true,"version":"7742253","steam_id":85568392924964314,"keywords":["cp","nocrits","nodmgspread","uncletopia"],"game_id":440,"stv_port":27076,"stv_name":"Uncletopia | London | 7 | No Payload | STV","players":null},{"server_id":41,"name":"Uncletopia | London | 8 | Community","name_short":"lon-8","host":"lon-1.uk.uncletopia.com","port":27085,"enabled":true,"region":"eu","cc":"gb","latitude":51.509865,"longitude":-0.118092,"reserved":0,"last_update":"0001-01-01T00:00:00Z","name_a2s":"Uncletopia | London | 8 | Community","protocol":17,"map":"workshop/koth_ashville_final.ugc2130459942","folder":"tf","game":"Team Fortress","app_id":440,"player_count":0,"max_players":24,"Bots":0,"server_type":"Dedicated","server_os":"Linux","password":true,"vac":true,"version":"7742253","steam_id":85568392924964315,"keywords":["cp","nocrits","nodmgspread","uncletopia"],"game_id":440,"stv_port":27086,"stv_name":"Uncletopia | London | 8 | Community | STV","players":null},{"server_id":300,"name":"Uncletopia | Montréal | 1 | All Maps","name_short":"mtl-1","host":"mtl-1.ca.uncletopia.com","port":27015,"enabled":true,"region":"us-east","cc":"ca","latitude":45.50889,"longitude":-73.56167,"reserved":0,"last_update":"0001-01-01T00:00:00Z","name_a2s":"Uncletopia | Montréal | 1 | All Maps","protocol":17,"map":"cp_dustbowl","folder":"tf","game":"Team Fortress","app_id":440,"player_count":19,"max_players":24,"Bots":0,"server_type":"Dedicated","server_os":"Linux","password":true,"vac":true,"version":"7742253","steam_id":85568392924500087,"keywords":["cp","nocrits","nodmgspread","uncletopia"],"game_id":440,"stv_port":27016,"stv_name":"Uncletopia | Montréal | 1 | All Maps | STV","players":[{"user_id":66,"name":"coolfalcon168","steam_id":76561198948665710,"connected_time":2538000000000,"state":"connecting","ping":65},{"user_id":62,"name":"Rugbmilk","steam_id":76561199389283507,"connected_time":2824000000000,"state":"connecting","ping":57},{"user_id":86,"name":"Winter the Witchie","steam_id":76561198151971178,"connected_time":2005000000000,"state":"connecting","ping":88},{"user_id":93,"name":"Bum","steam_id":76561198108372769,"connected_time":1828000000000,"state":"connecting","ping":138},{"user_id":112,"name":"Phupperbat","steam_id":76561198098441032,"connected_time":198000000000,"state":"connecting","ping":52},{"user_id":116,"name":"MyamE","steam_id":76561198133278462,"connected_time":8000000000,"state":"connecting","ping":99},{"user_id":77,"name":"BALLER","steam_id":76561198053046161,"connected_time":2181000000000,"state":"connecting","ping":84},{"user_id":46,"name":"Bee_Pirate","steam_id":76561199000599111,"connected_time":4040000000000,"state":"connecting","ping":82},{"user_id":54,"name":"Stormartillery","steam_id":76561198408982577,"connected_time":3274000000000,"state":"connecting","ping":83},{"user_id":58,"name":"drain.pablo.2005","steam_id":76561198303963691,"connected_time":3005000000000,"state":"connecting","ping":125},{"user_id":101,"name":"Finn","steam_id":76561198179960193,"connected_time":1293000000000,"state":"connecting","ping":154},{"user_id":102,"name":"Str1cts","steam_id":76561198869578271,"connected_time":1292000000000,"state":"connecting","ping":68},{"user_id":115,"name":"ASAC Schrader","steam_id":76561198127262473,"connected_time":102000000000,"state":"connecting","ping":61},{"user_id":87,"name":"caberknight tf2","steam_id":76561199273882768,"connected_time":2000000000000,"state":"connecting","ping":63},{"user_id":113,"name":"Only One Jhakobi","steam_id":76561197993641141,"connected_time":146000000000,"state":"connecting","ping":64},{"user_id":82,"name":"glert","steam_id":76561198808378733,"connected_time":2107000000000,"state":"connecting","ping":89},{"user_id":84,"name":"friendly brap","steam_id":76561199102540393,"connected_time":2042000000000,"state":"connecting","ping":63},{"user_id":109,"name":"Sensitive Shooter","steam_id":76561198041439581,"connected_time":907000000000,"state":"connecting","ping":94}]},{"server_id":301,"name":"Uncletopia | Montréal | 2 | All Maps","name_short":"mtl-2","host":"mtl-1.ca.uncletopia.com","port":27025,"enabled":true,"region":"us-east","cc":"ca","latitude":45.50889,"longitude":-73.56167,"reserved":0,"last_update":"0001-01-01T00:00:00Z","name_a2s":"Uncletopia | Montréal | 2 | All Maps","protocol":17,"map":"koth_highpass","folder":"tf","game":"Team Fortress","app_id":440,"player_count":0,"max_players":24,"Bots":0,"server_type":"Dedicated","server_os":"Linux","password":true,"vac":true,"version":"7742253","steam_id":85568392924500088,"keywords":["cp","nocrits","nodmgspread","uncletopia"],"game_id":440,"stv_port":27026,"stv_name":"Uncletopia | Montréal | 2 | All Maps | STV","players":null},{"server_id":302,"name":"Uncletopia | Montréal | 3 | All Maps","name_short":"mtl-3","host":"mtl-1.ca.uncletopia.com","port":27035,"enabled":true,"region":"us-east","cc":"ca","latitude":45.50889,"longitude":-73.56167,"reserved":0,"last_update":"0001-01-01T00:00:00Z","name_a2s":"Uncletopia | Montréal | 3 | All Maps","protocol":17,"map":"cp_mountainlab","folder":"tf","game":"Team Fortress","app_id":440,"player_count":0,"max_players":24,"Bots":0,"server_type":"Dedicated","server_os":"Linux","password":true,"vac":true,"version":"7742253","steam_id":85568392924500089,"keywords":["cp","nocrits","nodmgspread","uncletopia"],"game_id":440,"stv_port":27036,"stv_name":"Uncletopia | Montréal | 3 | All Maps | STV","players":null},{"server_id":303,"name":"Uncletopia | Montréal | 4 | No Payload","name_short":"mtl-4","host":"mtl-1.ca.uncletopia.com","port":27045,"enabled":true,"region":"us-east","cc":"ca","latitude":45.50889,"longitude":-73.56167,"reserved":0,"last_update":"0001-01-01T00:00:00Z","name_a2s":"Uncletopia | Montréal | 4 | No Payload","protocol":17,"map":"cp_snakewater_final1","folder":"tf","game":"Team Fortress","app_id":440,"player_count":0,"max_players":24,"Bots":0,"server_type":"Dedicated","server_os":"Linux","password":true,"vac":true,"version":"7742253","steam_id":85568392924500090,"keywords":["cp","nocrits","nodmgspread","uncletopia"],"game_id":440,"stv_port":27046,"stv_name":"Uncletopia | Montréal | 4 | No Payload | STV","players":null},{"server_id":13,"name":"Uncletopia | New York City | 1 | All Maps","name_short":"nyc-1","host":"nyc-1.us.uncletopia.com","port":27015,"enabled":true,"region":"us-east","cc":"us","latitude":40.73061,"longitude":-73.93524,"reserved":0,"last_update":"0001-01-01T00:00:00Z","name_a2s":"Uncletopia | New York City | 1 | All Maps","protocol":17,"map":"pl_pier","folder":"tf","game":"Team Fortress","app_id":440,"player_count":24,"max_players":24,"Bots":0,"server_type":"Dedicated","server_os":"Linux","password":true,"vac":true,"version":"7742253","steam_id":85568392924469993,"keywords":["nocrits","nodmgspread","payload","uncletopia"],"game_id":440,"stv_port":27016,"stv_name":"Uncletopia | New York City | 1 | All Maps | STV","players":[{"user_id":74,"name":"ItsZappyinthehouse","steam_id":76561198934068068,"connected_time":2079000000000,"state":"active","ping":77},{"user_id":73,"name":"timestew","steam_id":76561198367583372,"connected_time":2086000000000,"state":"active","ping":81},{"user_id":98,"name":"Tay1Qr","steam_id":76561198082809935,"connected_time":273000000000,"state":"active","ping":56},{"user_id":33,"name":"shadysessions","steam_id":76561198032464781,"connected_time":5512000000000,"state":"active","ping":63},{"user_id":38,"name":"Wahooka (Manrobics Instructor)","steam_id":76561197962240925,"connected_time":4401000000000,"state":"active","ping":45},{"user_id":99,"name":"ebbaxter13","steam_id":76561198839647688,"connected_time":212000000000,"state":"active","ping":55},{"user_id":72,"name":"Shaggy","steam_id":76561198203204934,"connected_time":2134000000000,"state":"active","ping":76},{"user_id":94,"name":"dr cock","steam_id":76561198124810219,"connected_time":1324000000000,"state":"active","ping":56},{"user_id":97,"name":"Don Quixote de La Mancha","steam_id":76561198322479866,"connected_time":354000000000,"state":"active","ping":45},{"user_id":100,"name":"Captain Barrel","steam_id":76561199061470542,"connected_time":210000000000,"state":"active","ping":68},{"user_id":68,"name":"Viokik","steam_id":76561198408846602,"connected_time":2990000000000,"state":"active","ping":61},{"user_id":101,"name":"Ziath","steam_id":76561198094009164,"connected_time":199000000000,"state":"active","ping":53},{"user_id":90,"name":"Caruso","steam_id":76561198053340414,"connected_time":1623000000000,"state":"active","ping":66},{"user_id":76,"name":"pasta","steam_id":76561198084719895,"connected_time":2074000000000,"state":"active","ping":73},{"user_id":96,"name":"SE X","steam_id":76561198094525829,"connected_time":362000000000,"state":"active","ping":52},{"user_id":102,"name":"wool","steam_id":76561198869689933,"connected_time":195000000000,"state":"active","ping":58},{"user_id":50,"name":"Bobbymcflapjack","steam_id":76561198082880604,"connected_time":3709000000000,"state":"active","ping":90},{"user_id":103,"name":"Dovid65","steam_id":76561199277530814,"connected_time":170000000000,"state":"active","ping":134},{"user_id":71,"name":"he","steam_id":76561199193320651,"connected_time":2378000000000,"state":"active","ping":68},{"user_id":104,"name":"KhorneBread ︻デ 一","steam_id":76561198097069958,"connected_time":158000000000,"state":"active","ping":59},{"user_id":105,"name":"Bother","steam_id":76561198336750909,"connected_time":141000000000,"state":"active","ping":40},{"user_id":93,"name":"Deputy Dolan","steam_id":76561198124176223,"connected_time":1359000000000,"state":"active","ping":77},{"user_id":107,"name":"[chef] iron","steam_id":76561197970888616,"connected_time":6000000000,"state":"spawning","ping":59},{"user_id":65,"name":"Lemonade Juice","steam_id":76561198402892608,"connected_time":3369000000000,"state":"active","ping":106}]},{"server_id":14,"name":"Uncletopia | New York City | 2 | All Maps","name_short":"nyc-2","host":"nyc-1.us.uncletopia.com","port":27025,"enabled":true,"region":"us-east","cc":"us","latitude":40.73061,"longitude":-73.93524,"reserved":0,"last_update":"0001-01-01T00:00:00Z","name_a2s":"Uncletopia | New York City | 2 | All Maps","protocol":17,"map":"pl_frontier_final","folder":"tf","game":"Team Fortress","app_id":440,"player_count":24,"max_players":24,"Bots":0,"server_type":"Dedicated","server_os":"Linux","password":true,"vac":true,"version":"7742253","steam_id":85568392924469994,"keywords":["nocrits","nodmgspread","payload","uncletopia"],"game_id":440,"stv_port":27026,"stv_name":"Uncletopia | New York City | 2 | All Maps | STV","players":[{"user_id":275,"name":"sauce","steam_id":76561198068430673,"connected_time":428000000000,"state":"active","ping":65},{"user_id":260,"name":"watchfull","steam_id":76561198433266742,"connected_time":970000000000,"state":"active","ping":122},{"user_id":281,"name":"Mister Boombastic","steam_id":76561198355442714,"connected_time":225000000000,"state":"active","ping":45},{"user_id":220,"name":"Filthy Acts at Reasonable Price","steam_id":76561198354615890,"connected_time":2760000000000,"state":"active","ping":82},{"user_id":257,"name":"Smiles","steam_id":76561198107197973,"connected_time":1021000000000,"state":"active","ping":87},{"user_id":223,"name":"Little Leo","steam_id":76561198018280180,"connected_time":2368000000000,"state":"active","ping":51},{"user_id":224,"name":"General","steam_id":76561198382198102,"connected_time":2344000000000,"state":"active","ping":59},{"user_id":186,"name":"MILF Gaming","steam_id":76561198155378170,"connected_time":5201000000000,"state":"active","ping":55},{"user_id":254,"name":"♥Phocae♥ (She/Her)","steam_id":76561199317584594,"connected_time":1248000000000,"state":"active","ping":62},{"user_id":283,"name":"The Land Admiral","steam_id":76561198159356609,"connected_time":174000000000,"state":"active","ping":49},{"user_id":278,"name":"JazzMuted","steam_id":76561197974184265,"connected_time":327000000000,"state":"active","ping":60},{"user_id":268,"name":"rainingmudkips","steam_id":76561198018010854,"connected_time":760000000000,"state":"active","ping":77},{"user_id":262,"name":"triangleman","steam_id":76561198972733542,"connected_time":926000000000,"state":"active","ping":72},{"user_id":210,"name":"Karma","steam_id":76561198030565234,"connected_time":3996000000000,"state":"active","ping":50},{"user_id":157,"name":"crippling fumo addiction","steam_id":76561198115874625,"connected_time":7520000000000,"state":"active","ping":55},{"user_id":263,"name":"Frankthetank64","steam_id":76561198362368253,"connected_time":913000000000,"state":"active","ping":56},{"user_id":237,"name":"Calamant","steam_id":76561198054650483,"connected_time":2087000000000,"state":"active","ping":55},{"user_id":264,"name":"Just-Some-Menace","steam_id":76561198152324397,"connected_time":862000000000,"state":"active","ping":72},{"user_id":274,"name":"Barry","steam_id":76561198371953939,"connected_time":522000000000,"state":"active","ping":60},{"user_id":280,"name":"haha","steam_id":76561198173047169,"connected_time":259000000000,"state":"active","ping":45},{"user_id":271,"name":"iLeMbeck","steam_id":76561198107096129,"connected_time":689000000000,"state":"active","ping":75},{"user_id":265,"name":"fnewland","steam_id":76561197986051713,"connected_time":851000000000,"state":"active","ping":80},{"user_id":282,"name":"Professor Peppermint","steam_id":76561198184017082,"connected_time":223000000000,"state":"active","ping":86},{"user_id":246,"name":"Duncan Idaho","steam_id":76561197988963861,"connected_time":1647000000000,"state":"active","ping":72}]},{"server_id":15,"name":"Uncletopia | New York City | 3 | Stopwatch Beta","name_short":"nyc-3","host":"nyc-1.us.uncletopia.com","port":27035,"enabled":true,"region":"us-east","cc":"us","latitude":40.73061,"longitude":-73.93524,"reserved":0,"last_update":"0001-01-01T00:00:00Z","name_a2s":"Uncletopia | New York City | 3 | Stopwatch Beta","protocol":17,"map":"workshop/koth_ashville_final.ugc2130459942","folder":"tf","game":"Team Fortress","app_id":440,"player_count":0,"max_players":24,"Bots":0,"server_type":"Dedicated","server_os":"Linux","password":true,"vac":true,"version":"7742253","steam_id":85568392924742820,"keywords":["cp","nocrits","nodmgspread","uncletopia"],"game_id":440,"stv_port":27036,"stv_name":"Uncletopia | New York City | 3 | Stopwatch Beta | STV","players":null},{"server_id":16,"name":"Uncletopia | New York City | 4 | Community","name_short":"nyc-4","host":"nyc-1.us.uncletopia.com","port":27045,"enabled":true,"region":"us-east","cc":"us","latitude":40.73061,"longitude":-73.93524,"reserved":0,"last_update":"0001-01-01T00:00:00Z","name_a2s":"Uncletopia | New York City | 4 | Community","protocol":17,"map":"koth_viaduct","folder":"tf","game":"Team Fortress","app_id":440,"player_count":2,"max_players":24,"Bots":0,"server_type":"Dedicated","server_os":"Linux","password":true,"vac":true,"version":"7742253","steam_id":85568392924742821,"keywords":["cp","nocrits","nodmgspread","uncletopia"],"game_id":440,"stv_port":27046,"stv_name":"Uncletopia | New York City | 4 | Community | STV","players":[{"user_id":6,"name":"sockman","steam_id":76561198306826566,"connected_time":283000000000,"state":"active","ping":104},{"user_id":8,"name":"Jim Teacher","steam_id":76561198246170448,"connected_time":6000000000,"state":"spawning","ping":70}]},{"server_id":142,"name":"Uncletopia | São Paulo | 1 | All Maps","name_short":"sao-1","host":"sao-1.br.uncletopia.com","port":27015,"enabled":true,"region":"sa","cc":"br","latitude":-23.533773,"longitude":-46.62529,"reserved":0,"last_update":"0001-01-01T00:00:00Z","name_a2s":"Uncletopia | São Paulo | 1 | All Maps","protocol":17,"map":"koth_highpass","folder":"tf","game":"Team Fortress","app_id":440,"player_count":0,"max_players":24,"Bots":0,"server_type":"Dedicated","server_os":"Linux","password":true,"vac":true,"version":"7742253","steam_id":85568392924469996,"keywords":["cp","nocrits","nodmgspread","uncletopia"],"game_id":440,"stv_port":27016,"stv_name":"Uncletopia | São Paulo | 1 | All Maps | STV","players":null},{"server_id":143,"name":"Uncletopia | São Paulo | 2 | All Maps","name_short":"sao-2","host":"sao-2.br.uncletopia.com","port":27015,"enabled":true,"region":"sa","cc":"br","latitude":-23.533773,"longitude":-46.62529,"reserved":0,"last_update":"0001-01-01T00:00:00Z","name_a2s":"Uncletopia | São Paulo | 2 | All Maps","protocol":17,"map":"koth_viaduct","folder":"tf","game":"Team Fortress","app_id":440,"player_count":0,"max_players":24,"Bots":0,"server_type":"Dedicated","server_os":"Linux","password":true,"vac":true,"version":"7742253","steam_id":85568392924485349,"keywords":["cp","nocrits","nodmgspread","uncletopia"],"game_id":440,"stv_port":27016,"stv_name":"Uncletopia | São Paulo | 2 | All Maps | STV","players":null},{"server_id":7,"name":"Uncletopia | Seattle | 1 | All Maps","name_short":"sea-1","host":"sea-1.us.uncletopia.com","port":27015,"enabled":true,"region":"us-west","cc":"us","latitude":47.608013,"longitude":-122.33517,"reserved":0,"last_update":"0001-01-01T00:00:00Z","name_a2s":"Uncletopia | Seattle | 1 | All Maps","protocol":17,"map":"pl_pier","folder":"tf","game":"Team Fortress","app_id":440,"player_count":24,"max_players":24,"Bots":0,"server_type":"Dedicated","server_os":"Linux","password":true,"vac":true,"version":"7742253","steam_id":85568392924469997,"keywords":["nocrits","nodmgspread","payload","uncletopia"],"game_id":440,"stv_port":27016,"stv_name":"Uncletopia | Seattle | 1 | All Maps | STV","players":[{"user_id":459,"name":"self sufficient kitten","steam_id":76561197960592612,"connected_time":4116000000000,"state":"active","ping":47},{"user_id":462,"name":"sexypringle","steam_id":76561198401282091,"connected_time":3611000000000,"state":"active","ping":56},{"user_id":408,"name":"Dimple","steam_id":76561198980324190,"connected_time":9080000000000,"state":"active","ping":53},{"user_id":460,"name":"BuchiRyu","steam_id":76561198137607311,"connected_time":3913000000000,"state":"active","ping":180},{"user_id":477,"name":"Disc0","steam_id":76561198067337267,"connected_time":1498000000000,"state":"active","ping":49},{"user_id":493,"name":"Yo","steam_id":76561198098462500,"connected_time":71000000000,"state":"active","ping":66},{"user_id":472,"name":"Hernandez$","steam_id":76561198019324588,"connected_time":1843000000000,"state":"active","ping":83},{"user_id":476,"name":"{BOOL} Guy Fier-mii","steam_id":76561198309846433,"connected_time":1535000000000,"state":"active","ping":48},{"user_id":494,"name":"🎄AndreaJingling🎄","steam_id":76561198198658783,"connected_time":70000000000,"state":"active","ping":55},{"user_id":478,"name":"The_Gilded_Warrior","steam_id":76561199055082197,"connected_time":1497000000000,"state":"active","ping":92},{"user_id":458,"name":"Sloppy Joe (Extra Sauce)","steam_id":76561198359703432,"connected_time":4146000000000,"state":"active","ping":77},{"user_id":489,"name":"j.black","steam_id":76561197974493959,"connected_time":424000000000,"state":"active","ping":122},{"user_id":483,"name":"KingTinkerer","steam_id":76561198226856548,"connected_time":1190000000000,"state":"active","ping":67},{"user_id":488,"name":"William P. Ennis","steam_id":76561198073464877,"connected_time":541000000000,"state":"active","ping":90},{"user_id":456,"name":"Aardappel","steam_id":76561198030894676,"connected_time":4400000000000,"state":"active","ping":60},{"user_id":323,"name":"Salmon","steam_id":76561198285883040,"connected_time":15337000000000,"state":"active","ping":53},{"user_id":491,"name":"gatorbelt","steam_id":76561198145784505,"connected_time":87000000000,"state":"active","ping":75},{"user_id":442,"name":"Fh","steam_id":76561198000903511,"connected_time":5818000000000,"state":"active","ping":60},{"user_id":484,"name":"lavender","steam_id":76561199069518286,"connected_time":1147000000000,"state":"active","ping":71},{"user_id":490,"name":"dragggg","steam_id":76561198222386220,"connected_time":121000000000,"state":"active","ping":45},{"user_id":481,"name":"domfoor22","steam_id":76561199445914774,"connected_time":1454000000000,"state":"active","ping":126},{"user_id":471,"name":"Jade","steam_id":76561198151596927,"connected_time":2679000000000,"state":"active","ping":111},{"user_id":450,"name":"Cheezbeargur","steam_id":76561198164702899,"connected_time":4679000000000,"state":"active","ping":64},{"user_id":492,"name":"weegeebad","steam_id":76561198280841437,"connected_time":87000000000,"state":"active","ping":109}]},{"server_id":119,"name":"Uncletopia | Seattle | 2 | All Maps","name_short":"sea-2","host":"sea-1.us.uncletopia.com","port":27025,"enabled":true,"region":"us-west","cc":"us","latitude":47.608013,"longitude":-122.33517,"reserved":0,"last_update":"0001-01-01T00:00:00Z","name_a2s":"Uncletopia | Seattle | 2 | All Maps","protocol":17,"map":"pl_frontier_final","folder":"tf","game":"Team Fortress","app_id":440,"player_count":0,"max_players":24,"Bots":0,"server_type":"Dedicated","server_os":"Linux","password":true,"vac":true,"version":"7742253","steam_id":85568392924469998,"keywords":["nocrits","nodmgspread","payload","uncletopia"],"game_id":440,"stv_port":27026,"stv_name":"Uncletopia | Seattle | 2 | All Maps | STV","players":null},{"server_id":406,"name":"Uncletopia | Seattle | 3 | Stopwatch Beta","name_short":"sea-3","host":"sea-1.us.uncletopia.com","port":27035,"enabled":true,"region":"us-west","cc":"us","latitude":47.608013,"longitude":-122.33517,"reserved":0,"last_update":"0001-01-01T00:00:00Z","name_a2s":"Uncletopia | Seattle | 3 | Stopwatch Beta","protocol":17,"map":"workshop/cp_reckoner_rc6.ugc674719999","folder":"tf","game":"Team Fortress","app_id":440,"player_count":24,"max_players":24,"Bots":0,"server_type":"Dedicated","server_os":"Linux","password":true,"vac":true,"version":"7742253","steam_id":85568392924515217,"keywords":["cp","nocrits","nodmgspread","uncletopia"],"game_id":440,"stv_port":27036,"stv_name":"Uncletopia | Seattle | 3 | Stopwatch Beta | STV","players":[{"user_id":4,"name":"Porytal","steam_id":76561198306101889,"connected_time":8221000000000,"state":"spawning","ping":108},{"user_id":14,"name":"girr","steam_id":76561198995114110,"connected_time":4050000000000,"state":"active","ping":60},{"user_id":54,"name":"TonyPepperoni","steam_id":76561198127761074,"connected_time":288000000000,"state":"active","ping":61},{"user_id":17,"name":"SunNc","steam_id":76561198097711843,"connected_time":3331000000000,"state":"active","ping":82},{"user_id":18,"name":"Jesus Loves You57","steam_id":76561199058833769,"connected_time":3100000000000,"state":"active","ping":96},{"user_id":43,"name":"AjProductions","steam_id":76561198217950125,"connected_time":1092000000000,"state":"active","ping":109},{"user_id":29,"name":"unerringCaprition (She/Her)","steam_id":76561198042528476,"connected_time":1820000000000,"state":"spawning","ping":208},{"user_id":55,"name":"*edgy name here*","steam_id":76561198028612613,"connected_time":237000000000,"state":"active","ping":62},{"user_id":51,"name":"FightyPNW","steam_id":76561198981808810,"connected_time":525000000000,"state":"active","ping":57},{"user_id":33,"name":"Orthros","steam_id":76561198164819613,"connected_time":1690000000000,"state":"active","ping":73},{"user_id":34,"name":"Alphielyer Heinie","steam_id":76561198097701931,"connected_time":1667000000000,"state":"active","ping":84},{"user_id":59,"name":"ThatShadowyGal","steam_id":76561198432113040,"connected_time":28000000000,"state":"active","ping":139},{"user_id":47,"name":"Nolan (Femboy)","steam_id":76561198082534795,"connected_time":782000000000,"state":"active","ping":108},{"user_id":50,"name":"AugustSkies","steam_id":76561198119544213,"connected_time":710000000000,"state":"active","ping":114},{"user_id":53,"name":"save frog","steam_id":76561198339604554,"connected_time":462000000000,"state":"spawning","ping":105},{"user_id":38,"name":"mdharsy","steam_id":76561198065831053,"connected_time":1366000000000,"state":"spawning","ping":277},{"user_id":60,"name":"viper","steam_id":76561198839942937,"connected_time":18000000000,"state":"spawning","ping":140},{"user_id":57,"name":"jamaican email scam business","steam_id":76561198035817862,"connected_time":225000000000,"state":"active","ping":96},{"user_id":44,"name":"Butterscotch","steam_id":76561198390846526,"connected_time":1003000000000,"state":"active","ping":65},{"user_id":58,"name":"bengineer","steam_id":76561198171912174,"connected_time":206000000000,"state":"active","ping":31},{"user_id":45,"name":"Shock'N'Lock","steam_id":76561198072583012,"connected_time":978000000000,"state":"active","ping":57},{"user_id":46,"name":"Bubblegum Tip","steam_id":76561198048131308,"connected_time":864000000000,"state":"active","ping":61},{"user_id":52,"name":"Professorstino","steam_id":76561199117907277,"connected_time":482000000000,"state":"active","ping":120},{"user_id":49,"name":"weewa","steam_id":76561198064876090,"connected_time":717000000000,"state":"active","ping":112}]},{"server_id":17,"name":"Uncletopia | San Francisco | 1 | All Maps","name_short":"sfo-1","host":"sfo-1.us.uncletopia.com","port":27015,"enabled":true,"region":"us-west","cc":"us","latitude":37.77397,"longitude":-122.4313,"reserved":0,"last_update":"0001-01-01T00:00:00Z","name_a2s":"Uncletopia | San Francisco | 1 | All Maps","protocol":17,"map":"pl_snowycoast","folder":"tf","game":"Team Fortress","app_id":440,"player_count":0,"max_players":24,"Bots":0,"server_type":"Dedicated","server_os":"Linux","password":true,"vac":true,"version":"7742253","steam_id":85568392924469999,"keywords":["nocrits","nodmgspread","payload","uncletopia"],"game_id":440,"stv_port":27016,"stv_name":"Uncletopia | San Francisco | 1 | All Maps | STV","players":null},{"server_id":18,"name":"Uncletopia | San Francisco | 2 | All Maps","name_short":"sfo-2","host":"sfo-1.us.uncletopia.com","port":27025,"enabled":true,"region":"us-west","cc":"us","latitude":37.77397,"longitude":-122.4313,"reserved":0,"last_update":"0001-01-01T00:00:00Z","name_a2s":"Uncletopia | San Francisco | 2 | All Maps","protocol":17,"map":"pl_swiftwater_final1","folder":"tf","game":"Team Fortress","app_id":440,"player_count":2,"max_players":24,"Bots":0,"server_type":"Dedicated","server_os":"Linux","password":true,"vac":true,"version":"7742253","steam_id":85568392924470000,"keywords":["nocrits","nodmgspread","payload","uncletopia"],"game_id":440,"stv_port":27026,"stv_name":"Uncletopia | San Francisco | 2 | All Maps | STV","players":[{"user_id":7,"name":"Rock Paper Scizzors \"God\"","steam_id":76561199176919819,"connected_time":571000000000,"state":"active","ping":181},{"user_id":8,"name":"Minecraftalex365","steam_id":76561198821706797,"connected_time":563000000000,"state":"active","ping":116}]},{"server_id":19,"name":"Uncletopia | San Francisco | 3 | Stopwatch Beta","name_short":"sfo-3","host":"sfo-1.us.uncletopia.com","port":27035,"enabled":true,"region":"us-west","cc":"us","latitude":37.77397,"longitude":-122.4313,"reserved":0,"last_update":"0001-01-01T00:00:00Z","name_a2s":"Uncletopia | San Francisco | 3 | Stopwatch Beta","protocol":17,"map":"workshop/cp_reckoner_rc6.ugc674719999","folder":"tf","game":"Team Fortress","app_id":440,"player_count":2,"max_players":24,"Bots":0,"server_type":"Dedicated","server_os":"Linux","password":true,"vac":true,"version":"7742253","steam_id":85568392924742824,"keywords":["cp","nocrits","nodmgspread","uncletopia"],"game_id":440,"stv_port":27036,"stv_name":"Uncletopia | San Francisco | 3 | Stopwatch Beta | STV","players":[{"user_id":6,"name":"Chickenwing","steam_id":76561199347103141,"connected_time":180000000000,"state":"active","ping":87},{"user_id":5,"name":"JamesR","steam_id":76561199436941161,"connected_time":201000000000,"state":"active","ping":91}]},{"server_id":20,"name":"Uncletopia | San Francisco | 4 | Community","name_short":"sfo-4","host":"sfo-1.us.uncletopia.com","port":27045,"enabled":true,"region":"us-west","cc":"us","latitude":37.77397,"longitude":-122.4313,"reserved":0,"last_update":"0001-01-01T00:00:00Z","name_a2s":"Uncletopia | San Francisco | 4 | Community","protocol":17,"map":"cp_dustbowl","folder":"tf","game":"Team Fortress","app_id":440,"player_count":0,"max_players":24,"Bots":0,"server_type":"Dedicated","server_os":"Linux","password":true,"vac":true,"version":"7742253","steam_id":85568392924742826,"keywords":["cp","nocrits","nodmgspread","uncletopia"],"game_id":440,"stv_port":27046,"stv_name":"Uncletopia | San Francisco | 4 | Community | STV","players":null},{"server_id":141,"name":"Uncletopia | Sydney | 1 | All Maps","name_short":"syd-1","host":"syd-1.au.uncletopia.com","port":27015,"enabled":true,"region":"au","cc":"au","latitude":-33.865143,"longitude":151.2099,"reserved":0,"last_update":"0001-01-01T00:00:00Z","name_a2s":"Uncletopia | Sydney | 1 | All Maps","protocol":17,"map":"koth_lakeside_final","folder":"tf","game":"Team Fortress","app_id":440,"player_count":0,"max_players":24,"Bots":0,"server_type":"Dedicated","server_os":"Linux","password":true,"vac":true,"version":"7742253","steam_id":85568392924470001,"keywords":["cp","nocrits","nodmgspread","uncletopia"],"game_id":440,"stv_port":27016,"stv_name":"Uncletopia | Sydney | 1 | All Maps | STV","players":null},{"server_id":123,"name":"Uncletopia | Sydney | 2 | All Maps","name_short":"syd-2","host":"syd-1.au.uncletopia.com","port":27025,"enabled":true,"region":"au","cc":"au","latitude":-33.865143,"longitude":151.2099,"reserved":0,"last_update":"0001-01-01T00:00:00Z","name_a2s":"Uncletopia | Sydney | 2 | All Maps","protocol":17,"map":"pl_swiftwater_final1","folder":"tf","game":"Team Fortress","app_id":440,"player_count":20,"max_players":24,"Bots":0,"server_type":"Dedicated","server_os":"Linux","password":true,"vac":true,"version":"7742253","steam_id":85568392924470002,"keywords":["nocrits","nodmgspread","payload","uncletopia"],"game_id":440,"stv_port":27026,"stv_name":"Uncletopia | Sydney | 2 | All Maps | STV","players":[{"user_id":78,"name":"zise lft pyro","steam_id":76561198079210881,"connected_time":736000000000,"state":"active","ping":51},{"user_id":64,"name":"suspicious_steven2011","steam_id":76561198043936328,"connected_time":2019000000000,"state":"active","ping":41},{"user_id":79,"name":"beth.cubitt","steam_id":76561198454733447,"connected_time":667000000000,"state":"active","ping":80},{"user_id":13,"name":"UnseenStroke","steam_id":76561198265303268,"connected_time":5563000000000,"state":"active","ping":53},{"user_id":85,"name":"hardcore weezer fan","steam_id":76561199024165411,"connected_time":245000000000,"state":"active","ping":43},{"user_id":37,"name":"squrrel","steam_id":76561198083429611,"connected_time":3684000000000,"state":"active","ping":78},{"user_id":68,"name":"Walter Hartwell White","steam_id":76561198819013527,"connected_time":1758000000000,"state":"active","ping":73},{"user_id":49,"name":"trash","steam_id":76561198110764631,"connected_time":2696000000000,"state":"active","ping":49},{"user_id":69,"name":"twitch.tv/realcuyt","steam_id":76561198184926846,"connected_time":1719000000000,"state":"active","ping":64},{"user_id":39,"name":"internetkittenz13","steam_id":76561198881042979,"connected_time":3659000000000,"state":"active","ping":79},{"user_id":70,"name":"blaze","steam_id":76561198241303512,"connected_time":1707000000000,"state":"active","ping":59},{"user_id":87,"name":"lunar","steam_id":76561198102469410,"connected_time":97000000000,"state":"active","ping":59},{"user_id":89,"name":"DChaos","steam_id":76561199046587690,"connected_time":57000000000,"state":"active","ping":271},{"user_id":80,"name":"Charikarp","steam_id":76561198132766743,"connected_time":641000000000,"state":"active","ping":92},{"user_id":90,"name":"Dog Tits","steam_id":76561198046757057,"connected_time":3000000000,"state":"spawning","ping":55},{"user_id":47,"name":"Zeal","steam_id":76561198060829393,"connected_time":2861000000000,"state":"active","ping":69},{"user_id":76,"name":"Shreds","steam_id":76561198190776095,"connected_time":1047000000000,"state":"active","ping":60},{"user_id":53,"name":"bla","steam_id":76561198119397414,"connected_time":2441000000000,"state":"active","ping":48},{"user_id":82,"name":"Flakey","steam_id":76561198021618682,"connected_time":564000000000,"state":"active","ping":60},{"user_id":84,"name":"Satiscat","steam_id":76561198966851786,"connected_time":520000000000,"state":"active","ping":48}]},{"server_id":395,"name":"Uncletopia | Sydney | 3 | All Maps","name_short":"syd-3","host":"syd-1.au.uncletopia.com","port":27035,"enabled":true,"region":"au","cc":"au","latitude":-33.865143,"longitude":151.2099,"reserved":0,"last_update":"0001-01-01T00:00:00Z","name_a2s":"Uncletopia | Sydney | 3 | All Maps","protocol":17,"map":"koth_viaduct","folder":"tf","game":"Team Fortress","app_id":440,"player_count":0,"max_players":24,"Bots":0,"server_type":"Dedicated","server_os":"Linux","password":true,"vac":true,"version":"7742253","steam_id":85568392925194467,"keywords":["cp","nocrits","nodmgspread","uncletopia"],"game_id":440,"stv_port":27036,"stv_name":"Uncletopia | Sydney | 3 | All Maps | STV","players":null},{"server_id":396,"name":"Uncletopia | Sydney | 4 | All Maps","name_short":"syd-4","host":"syd-1.au.uncletopia.com","port":27045,"enabled":true,"region":"au","cc":"au","latitude":-33.865143,"longitude":151.2099,"reserved":0,"last_update":"0001-01-01T00:00:00Z","name_a2s":"Uncletopia | Sydney | 4 | All Maps","protocol":17,"map":"pl_upward","folder":"tf","game":"Team Fortress","app_id":440,"player_count":0,"max_players":24,"Bots":0,"server_type":"Dedicated","server_os":"Linux","password":true,"vac":true,"version":"7742253","steam_id":85568392925397958,"keywords":["nocrits","nodmgspread","payload","uncletopia"],"game_id":440,"stv_port":27046,"stv_name":"Uncletopia | Sydney | 4 | All Maps | STV","players":null},{"server_id":58,"name":"Uncletopia | Sydney | 5 | Stopwatch Beta","name_short":"syd-5","host":"syd-1.au.uncletopia.com","port":27055,"enabled":true,"region":"au","cc":"au","latitude":-33.865143,"longitude":151.2099,"reserved":0,"last_update":"0001-01-01T00:00:00Z","name_a2s":"Uncletopia | Sydney | 5 | Stopwatch Beta","protocol":17,"map":"cp_sunshine","folder":"tf","game":"Team Fortress","app_id":440,"player_count":0,"max_players":24,"Bots":0,"server_type":"Dedicated","server_os":"Linux","password":true,"vac":true,"version":"7742253","steam_id":85568392925397959,"keywords":["cp","nocrits","nodmgspread","uncletopia"],"game_id":440,"stv_port":27056,"stv_name":"Uncletopia | Sydney | 5 | Stopwatch Beta | STV","players":null},{"server_id":59,"name":"Uncletopia | Sydney | 6 | Community","name_short":"syd-6","host":"syd-1.au.uncletopia.com","port":27065,"enabled":true,"region":"au","cc":"au","latitude":-33.865143,"longitude":151.2099,"reserved":0,"last_update":"0001-01-01T00:00:00Z","name_a2s":"Uncletopia | Sydney | 6 | Community","protocol":17,"map":"cp_dustbowl","folder":"tf","game":"Team Fortress","app_id":440,"player_count":0,"max_players":24,"Bots":0,"server_type":"Dedicated","server_os":"Linux","password":true,"vac":true,"version":"7742253","steam_id":85568392925397960,"keywords":["cp","nocrits","nodmgspread","uncletopia"],"game_id":440,"stv_port":27066,"stv_name":"Uncletopia | Sydney | 6 | Community | STV","players":null},{"server_id":49,"name":"Uncletopia | Warsaw | 1 | All Maps","name_short":"waw-1","host":"waw-1.pl.uncletopia.com","port":27015,"enabled":true,"region":"eu","cc":"pl","latitude":52.2297,"longitude":21.017532,"reserved":0,"last_update":"0001-01-01T00:00:00Z","name_a2s":"","protocol":0,"map":"","folder":"","game":"","app_id":0,"player_count":0,"max_players":0,"Bots":0,"server_type":"","server_os":"","password":false,"vac":false,"version":"","steam_id":0,"keywords":null,"game_id":0,"stv_port":0,"stv_name":"","players":null},{"server_id":50,"name":"Uncletopia | Warsaw | 2 | All Maps","name_short":"waw-2","host":"waw-1.pl.uncletopia.com","port":27025,"enabled":true,"region":"eu","cc":"pl","latitude":52.2297,"longitude":21.017532,"reserved":0,"last_update":"0001-01-01T00:00:00Z","name_a2s":"Uncletopia | Warsaw | 2 | All Maps","protocol":17,"map":"koth_viaduct","folder":"tf","game":"Team Fortress","app_id":440,"player_count":0,"max_players":24,"Bots":0,"server_type":"Dedicated","server_os":"Linux","password":true,"vac":true,"version":"7742253","steam_id":85568392925397851,"keywords":["cp","nocrits","nodmgspread","uncletopia"],"game_id":440,"stv_port":27026,"stv_name":"Uncletopia | Warsaw | 2 | All Maps | STV","players":null},{"server_id":51,"name":"Uncletopia | Warsaw | 3 | All Maps","name_short":"waw-3","host":"waw-1.pl.uncletopia.com","port":27035,"enabled":true,"region":"eu","cc":"pl","latitude":52.2297,"longitude":21.017532,"reserved":0,"last_update":"0001-01-01T00:00:00Z","name_a2s":"Uncletopia | Warsaw | 3 | All Maps","protocol":17,"map":"cp_steel","folder":"tf","game":"Team Fortress","app_id":440,"player_count":0,"max_players":24,"Bots":0,"server_type":"Dedicated","server_os":"Linux","password":true,"vac":true,"version":"7742253","steam_id":85568392925397852,"keywords":["cp","nocrits","nodmgspread","uncletopia"],"game_id":440,"stv_port":27036,"stv_name":"Uncletopia | Warsaw | 3 | All Maps | STV","players":null},{"server_id":52,"name":"Uncletopia | Warsaw | 4 | All Maps","name_short":"waw-4","host":"waw-1.pl.uncletopia.com","port":27045,"enabled":true,"region":"eu","cc":"pl","latitude":52.2297,"longitude":21.017532,"reserved":0,"last_update":"0001-01-01T00:00:00Z","name_a2s":"Uncletopia | Warsaw | 4 | All Maps","protocol":17,"map":"cp_snakewater_final1","folder":"tf","game":"Team Fortress","app_id":440,"player_count":0,"max_players":24,"Bots":0,"server_type":"Dedicated","server_os":"Linux","password":true,"vac":true,"version":"7742253","steam_id":85568392925397853,"keywords":["cp","nocrits","nodmgspread","uncletopia"],"game_id":440,"stv_port":27046,"stv_name":"Uncletopia | Warsaw | 4 | All Maps | STV","players":null},{"server_id":53,"name":"Uncletopia | Warsaw | 5 | Stopwatch Beta","name_short":"waw-5","host":"waw-1.pl.uncletopia.com","port":27055,"enabled":true,"region":"eu","cc":"pl","latitude":52.2297,"longitude":21.017532,"reserved":0,"last_update":"0001-01-01T00:00:00Z","name_a2s":"Uncletopia | Warsaw | 5 | Stopwatch Beta","protocol":17,"map":"pl_swiftwater_final1","folder":"tf","game":"Team Fortress","app_id":440,"player_count":0,"max_players":24,"Bots":0,"server_type":"Dedicated","server_os":"Linux","password":true,"vac":true,"version":"7742253","steam_id":85568392925397854,"keywords":["nocrits","nodmgspread","payload","uncletopia"],"game_id":440,"stv_port":27056,"stv_name":"Uncletopia | Warsaw | 5 | Stopwatch Beta | STV","players":null},{"server_id":54,"name":"Uncletopia | Warsaw | 6 | Community","name_short":"waw-6","host":"waw-1.pl.uncletopia.com","port":27065,"enabled":true,"region":"eu","cc":"pl","latitude":52.2297,"longitude":21.017532,"reserved":0,"last_update":"0001-01-01T00:00:00Z","name_a2s":"Uncletopia | Warsaw | 6 | Community","protocol":17,"map":"koth_highpass","folder":"tf","game":"Team Fortress","app_id":440,"player_count":0,"max_players":24,"Bots":0,"server_type":"Dedicated","server_os":"Linux","password":true,"vac":true,"version":"7742253","steam_id":85568392925397856,"keywords":["cp","nocrits","nodmgspread","uncletopia"],"game_id":440,"stv_port":27066,"stv_name":"Uncletopia | Warsaw | 6 | Community | STV","players":null}]}