{"status":true,"message":"","result":[{"server_id":9,"name":"Uncletopia | Atlanta | 1 | All Maps","name_short":"atl-1","host":"atl-1.us.uncletopia.com","port":27015,"enabled":true,"region":"us-east","cc":"us","latitude":33.753746,"longitude":-84.38633,"reserved":0,"last_update":"0001-01-01T00:00:00Z","name_a2s":"Uncletopia | Atlanta | 1 | All Maps","protocol":17,"map":"koth_nucleus","folder":"tf","game":"Team Fortress","app_id":440,"player_count":24,"max_players":24,"Bots":0,"server_type":"Dedicated","server_os":"Linux","password":true,"vac":true,"version":"7961495","steam_id":85568392924469982,"keywords":["cp","nocrits","nodmgspread","uncletopia"],"game_id":440,"stv_port":27016,"stv_name":"Uncletopia | Atlanta | 1 | All Maps | STV","players":null},{"server_id":104,"name":"Uncletopia | Atlanta | 2 | All Maps","name_short":"atl-2","host":"atl-1.us.uncletopia.com","port":27025,"enabled":true,"region":"us-east","cc":"us","latitude":33.753746,"longitude":-84.38633,"reserved":0,"last_update":"0001-01-01T00:00:00Z","name_a2s":"Uncletopia | Atlanta | 2 | All Maps","protocol":17,"map":"pl_frontier_final","folder":"tf","game":"Team Fortress","app_id":440,"player_count":22,"max_players":24,"Bots":0,"server_type":"Dedicated","server_os":"Linux","password":true,"vac":true,"version":"7961495","steam_id":85568392924469983,"keywords":["nocrits","nodmgspread","payload","uncletopia"],"game_id":440,"stv_port":27026,"stv_name":"Uncletopia | Atlanta | 2 | All Maps | STV","players":null},{"server_id":400,"name":"Uncletopia | Atlanta | 3 | Stopwatch","name_short":"atl-3","host":"atl-1.us.uncletopia.com","port":27035,"enabled":true,"region":"us-east","cc":"us","latitude":33.753746,"longitude":-84.38633,"reserved":0,"last_update":"0001-01-01T00:00:00Z","name_a2s":"Uncletopia | Atlanta | 3 | Stopwatch","protocol":17,"map":"koth_highpass","folder":"tf","game":"Team Fortress","app_id":440,"player_count":0,"max_players":24,"Bots":0,"server_type":"Dedicated","server_os":"Linux","password":true,"vac":true,"version":"7961495","steam_id":85568392924515187,"keywords":["cp","nocrits","nodmgspread","uncletopia"],"game_id":440,"stv_port":27036,"stv_name":"Uncletopia | Atlanta | 3 | Stopwatch | STV","players":null},{"server_id":401,"name":"Uncletopia | Atlanta | 4 | Community","name_short":"atl-4","host":"atl-1.us.uncletopia.com","port":27045,"enabled":true,"region":"us-east","cc":"us","latitude":33.753746,"longitude":-84.38633,"reserved":0,"last_update":"0001-01-01T00:00:00Z","name_a2s":"Uncletopia | Atlanta | 4 | Community","protocol":17,"map":"koth_product_final","folder":"tf","game":"Team Fortress","app_id":440,"player_count":0,"max_players":24,"Bots":0,"server_type":"Dedicated","server_os":"Linux","password":true,"vac":true,"version":"7961495","steam_id":85568392924515188,"keywords":["cp","nocrits","nodmgspread","uncletopia"],"game_id":440,"stv_port":27046,"stv_name":"Uncletopia | Atlanta | 4 | Community | STV","players":null},{"server_id":2,"name":"Uncletopia | Chicago | 1 | All Maps","name_short":"chi-1","host":"chi-1.us.uncletopia.com","port":27015,"enabled":true,"region":"us-central","cc":"us","latitude":41.881832,"longitude":-87.62318,"reserved":0,"last_update":"0001-01-01T00:00:00Z","name_a2s":"Uncletopia | Chicago | 1 | All Maps","protocol":17,"map":"pl_badwater","folder":"tf","game":"Team Fortress","app_id":440,"player_count":24,"max_players":24,"Bots":0,"server_type":"Dedicated","server_os":"Linux","password":true,"vac":true,"version":"7961495","steam_id":85568392924469984,"keywords":["nocrits","nodmgspread","payload","uncletopia"],"game_id":440,"stv_port":27016,"stv_name":"Uncletopia | Chicago | 1 | All Maps | STV","players":[{"user_id":621,"name":"loscemo","steam_id":76561197994884609,"connected_time":1369000000000,"state":"active","ping":66},{"user_id":610,"name":"Laogh Marbh","steam_id":76561198115240256,"connected_time":1905000000000,"state":"active","ping":54},{"user_id":617,"name":"edwinbrood","steam_id":76561198044848769,"connected_time":1653000000000,"state":"active","ping":64},{"user_id":602,"name":"Chilihuahua","steam_id":76561198004929152,"connected_time":2146000000000,"state":"active","ping":114},{"user_id":586,"name":"Heathcliff","steam_id":76561198044288534,"connected_time":3355000000000,"state":"active","ping":98},{"user_id":607,"name":"GamingJuice42","steam_id":76561198110469437,"connected_time":1953000000000,"state":"active","ping":59},{"user_id":623,"name":"SLEW OF DOGS","steam_id":76561197993237529,"connected_time":1020000000000,"state":"active","ping":77},{"user_id":627,"name":"Hot Dr. Pepper","steam_id":76561198004882085,"connected_time":193000000000,"state":"active","ping":63},{"user_id":612,"name":"Bewen","steam_id":76561198325334261,"connected_time":1876000000000,"state":"active","ping":61},{"user_id":587,"name":"Space Lizard","steam_id":76561198056798193,"connected_time":3317000000000,"state":"active","ping":73},{"user_id":592,"name":"Moss","steam_id":76561199122200727,"connected_time":2666000000000,"state":"active","ping":68},{"user_id":615,"name":"big steve","steam_id":76561199037050183,"connected_time":1670000000000,"state":"active","ping":89},{"user_id":605,"name":"Bee","steam_id":76561198074681324,"connected_time":2037000000000,"state":"active","ping":65},{"user_id":540,"name":"SPIRE_FAN","steam_id":76561198001486573,"connected_time":7519000000000,"state":"active","ping":69},{"user_id":616,"name":"your local forecast","steam_id":76561198042243083,"connected_time":1668000000000,"state":"active","ping":60},{"user_id":604,"name":"Ellis McGruber","steam_id":76561198060739536,"connected_time":2075000000000,"state":"active","ping":78},{"user_id":624,"name":"48","steam_id":76561198156422760,"connected_time":990000000000,"state":"active","ping":62},{"user_id":625,"name":"rice white","steam_id":76561198320732910,"connected_time":950000000000,"state":"active","ping":75},{"user_id":626,"name":"The Super Mario Bros. Movie","steam_id":76561198871692156,"connected_time":891000000000,"state":"active","ping":102},{"user_id":545,"name":"Swiftmend","steam_id":76561197995595692,"connected_time":5896000000000,"state":"active","ping":75},{"user_id":589,"name":"Hobo Ninja","steam_id":76561198029755261,"connected_time":3198000000000,"state":"active","ping":46},{"user_id":575,"name":"Catherine","steam_id":76561198125233120,"connected_time":4079000000000,"state":"active","ping":99},{"user_id":614,"name":"jayhong","steam_id":76561198046772832,"connected_time":1844000000000,"state":"active","ping":39},{"user_id":620,"name":"ATL1 Lavender","steam_id":76561198825997674,"connected_time":1490000000000,"state":"active","ping":75}]},{"server_id":106,"name":"Uncletopia | Chicago | 2 | All Maps","name_short":"chi-2","host":"chi-1.us.uncletopia.com","port":27025,"enabled":true,"region":"us-central","cc":"us","latitude":41.881832,"longitude":-87.62318,"reserved":0,"last_update":"0001-01-01T00:00:00Z","name_a2s":"Uncletopia | Chicago | 2 | All Maps","protocol":17,"map":"pl_upward","folder":"tf","game":"Team Fortress","app_id":440,"player_count":24,"max_players":24,"Bots":0,"server_type":"Dedicated","server_os":"Linux","password":true,"vac":true,"version":"7961495","steam_id":85568392924469985,"keywords":["nocrits","nodmgspread","payload","uncletopia"],"game_id":440,"stv_port":27026,"stv_name":"Uncletopia | Chicago | 2 | All Maps | STV","players":[{"user_id":458,"name":"kefkja","steam_id":76561198283963218,"connected_time":3284000000000,"state":"active","ping":46},{"user_id":485,"name":"K.O. Stradivarius","steam_id":76561198974913245,"connected_time":1626000000000,"state":"active","ping":70},{"user_id":482,"name":"Lydians","steam_id":76561198057985908,"connected_time":1830000000000,"state":"active","ping":72},{"user_id":498,"name":"Spookmaster","steam_id":76561198170041861,"connected_time":56000000000,"state":"active","ping":39},{"user_id":461,"name":"Deathor","steam_id":76561198072960817,"connected_time":3089000000000,"state":"active","ping":69},{"user_id":483,"name":"Bronze Age Furvert","steam_id":76561198859118263,"connected_time":1768000000000,"state":"active","ping":69},{"user_id":486,"name":"My 600 lbs gaming","steam_id":76561198027968822,"connected_time":1330000000000,"state":"active","ping":75},{"user_id":487,"name":"key ingredient","steam_id":76561198046055673,"connected_time":1015000000000,"state":"active","ping":78},{"user_id":463,"name":"cheeser","steam_id":76561198281772700,"connected_time":3083000000000,"state":"active","ping":62},{"user_id":474,"name":"3/4'' x 18'' industrial pipe","steam_id":76561198094042613,"connected_time":2088000000000,"state":"active","ping":67},{"user_id":489,"name":"Rusty","steam_id":76561198055585129,"connected_time":784000000000,"state":"active","ping":91},{"user_id":493,"name":"nomis","steam_id":76561198115367704,"connected_time":724000000000,"state":"active","ping":80},{"user_id":496,"name":"Arildis","steam_id":76561198123516977,"connected_time":569000000000,"state":"active","ping":67},{"user_id":459,"name":"‡πñ€£€úMagic","steam_id":76561199272962550,"connected_time":3117000000000,"state":"active","ping":72},{"user_id":455,"name":"igotmail","steam_id":76561198070631899,"connected_time":3591000000000,"state":"active","ping":60},{"user_id":466,"name":"WitheringLeo","steam_id":76561198046722918,"connected_time":3039000000000,"state":"active","ping":71},{"user_id":491,"name":"lorelius hogglefart","steam_id":76561198211781375,"connected_time":753000000000,"state":"active","ping":81},{"user_id":443,"name":"CherriKat","steam_id":76561198821297512,"connected_time":4653000000000,"state":"active","ping":103},{"user_id":465,"name":"19th Cowboy","steam_id":76561198166454148,"connected_time":3065000000000,"state":"active","ping":84},{"user_id":444,"name":"Sanuary","steam_id":76561198075597588,"connected_time":4578000000000,"state":"active","ping":57},{"user_id":497,"name":"Kremit the Frog","steam_id":76561198075985995,"connected_time":509000000000,"state":"active","ping":69},{"user_id":395,"name":"Sneerful","steam_id":76561198032663494,"connected_time":8190000000000,"state":"active","ping":75},{"user_id":468,"name":"ThePopularLoner3334","steam_id":76561198202436474,"connected_time":3028000000000,"state":"active","ping":61},{"user_id":495,"name":"gendermutt","steam_id":76561198152857317,"connected_time":600000000000,"state":"active","ping":46}]},{"server_id":402,"name":"Uncletopia | Chicago | 3 | All Maps","name_short":"chi-3","host":"chi-1.us.uncletopia.com","port":27035,"enabled":true,"region":"us-central","cc":"us","latitude":41.881832,"longitude":-87.62318,"reserved":0,"last_update":"0001-01-01T00:00:00Z","name_a2s":"Uncletopia | Chicago | 3 | All Maps","protocol":17,"map":"pl_upward","folder":"tf","game":"Team Fortress","app_id":440,"player_count":24,"max_players":24,"Bots":0,"server_type":"Dedicated","server_os":"Linux","password":true,"vac":true,"version":"7961495","steam_id":85568392924515191,"keywords":["nocrits","nodmgspread","payload","uncletopia"],"game_id":440,"stv_port":27036,"stv_name":"Uncletopia | Chicago | 3 | All Maps | STV","players":[{"user_id":656,"name":"pinky","steam_id":76561199109784776,"connected_time":919000000000,"state":"active","ping":53},{"user_id":667,"name":"Zenüåô","steam_id":76561199243487866,"connected_time":705000000000,"state":"active","ping":157},{"user_id":629,"name":"Pluto","steam_id":76561198338593690,"connected_time":2805000000000,"state":"active","ping":77},{"user_id":660,"name":"wow!!!!!!! headshot!!!!!!!","steam_id":76561198007878675,"connected_time":805000000000,"state":"active","ping":155},{"user_id":661,"name":"passion, kindness","steam_id":76561199008884088,"connected_time":767000000000,"state":"active","ping":87},{"user_id":648,"name":"Tired","steam_id":76561198072620682,"connected_time":1242000000000,"state":"active","ping":75},{"user_id":631,"name":"Hunt0rb","steam_id":76561198120527608,"connected_time":2754000000000,"state":"active","ping":58},{"user_id":633,"name":"chikmslaad","steam_id":76561198871478705,"connected_time":2720000000000,"state":"active","ping":71},{"user_id":649,"name":"laaghice","steam_id":76561198274021552,"connected_time":1236000000000,"state":"active","ping":73},{"user_id":634,"name":"Jousty","steam_id":76561199162677853,"connected_time":2714000000000,"state":"active","ping":89},{"user_id":659,"name":"bluchene","steam_id":76561198161508347,"connected_time":820000000000,"state":"active","ping":56},{"user_id":662,"name":"Kasimir","steam_id":76561198013840333,"connected_time":750000000000,"state":"active","ping":86},{"user_id":671,"name":"JetZ","steam_id":76561199122488957,"connected_time":376000000000,"state":"active","ping":56},{"user_id":646,"name":"Withered Bonnie (Real)","steam_id":76561198423310113,"connected_time":1313000000000,"state":"active","ping":78},{"user_id":664,"name":"RuinLucky","steam_id":76561199481172481,"connected_time":738000000000,"state":"active","ping":95},{"user_id":672,"name":"Â≠´Â≠ê","steam_id":76561198083112681,"connected_time":39000000000,"state":"active","ping":47},{"user_id":666,"name":"local man","steam_id":76561198074946673,"connected_time":728000000000,"state":"active","ping":59},{"user_id":640,"name":"StormyBoyo","steam_id":76561198273482774,"connected_time":2622000000000,"state":"active","ping":88},{"user_id":651,"name":"CyborgHexapus4","steam_id":76561198160335724,"connected_time":1218000000000,"state":"active","ping":111},{"user_id":668,"name":"viagra addict","steam_id":76561198017705248,"connected_time":697000000000,"state":"active","ping":45},{"user_id":652,"name":"Mongoose","steam_id":76561198020361641,"connected_time":1216000000000,"state":"active","ping":113},{"user_id":653,"name":"Natsuki the Scunt","steam_id":76561199175922684,"connected_time":1210000000000,"state":"active","ping":113},{"user_id":669,"name":"Pork Tenderloin","steam_id":76561198138663842,"connected_time":691000000000,"state":"active","ping":49},{"user_id":670,"name":"[S]Mr. X [No Monitor]","steam_id":76561197963746035,"connected_time":689000000000,"state":"active","ping":120}]},{"server_id":403,"name":"Uncletopia | Chicago | 4 | All Maps","name_short":"chi-4","host":"chi-1.us.uncletopia.com","port":27045,"enabled":true,"region":"us-central","cc":"us","latitude":41.881832,"longitude":-87.62318,"reserved":0,"last_update":"0001-01-01T00:00:00Z","name_a2s":"Uncletopia | Chicago | 4 | All Maps","protocol":17,"map":"cp_process_final","folder":"tf","game":"Team Fortress","app_id":440,"player_count":18,"max_players":24,"Bots":0,"server_type":"Dedicated","server_os":"Linux","password":true,"vac":true,"version":"7961495","steam_id":85568392924515193,"keywords":["cp","nocrits","nodmgspread","uncletopia"],"game_id":440,"stv_port":27046,"stv_name":"Uncletopia | Chicago | 4 | All Maps | STV","players":[{"user_id":640,"name":"leeeeeeeeeeeeeeeeeeeeeeeeeee","steam_id":76561199083322731,"connected_time":1380000000000,"state":"active","ping":83},{"user_id":651,"name":"Gibs Degrossi","steam_id":76561198066152609,"connected_time":127000000000,"state":"active","ping":45},{"user_id":652,"name":"Jill","steam_id":76561198097398193,"connected_time":117000000000,"state":"active","ping":90},{"user_id":653,"name":"cheetaz","steam_id":76561198224614084,"connected_time":89000000000,"state":"active","ping":60},{"user_id":595,"name":"Space‚≠êTaffy","steam_id":76561198002271720,"connected_time":5939000000000,"state":"active","ping":64},{"user_id":644,"name":"mrappledumb","steam_id":76561199133590774,"connected_time":1319000000000,"state":"active","ping":74},{"user_id":632,"name":"darkerogamer","steam_id":76561198341101156,"connected_time":1573000000000,"state":"active","ping":115},{"user_id":654,"name":"Thequirka (regular trackpad use","steam_id":76561198968058652,"connected_time":45000000000,"state":"active","ping":94},{"user_id":620,"name":"EpicNGamerz","steam_id":76561198304292582,"connected_time":3964000000000,"state":"active","ping":119},{"user_id":629,"name":"HannibalTheCannibal","steam_id":76561198193673982,"connected_time":1663000000000,"state":"active","ping":55},{"user_id":655,"name":"Obama Bin Laden","steam_id":76561198384890927,"connected_time":22000000000,"state":"active","ping":83},{"user_id":634,"name":"Egg","steam_id":76561198028157625,"connected_time":1490000000000,"state":"active","ping":75},{"user_id":656,"name":"Taker4699","steam_id":76561198131172214,"connected_time":12000000000,"state":"active","ping":66},{"user_id":646,"name":"BrendenMad","steam_id":76561198031250581,"connected_time":1010000000000,"state":"active","ping":50},{"user_id":657,"name":"Toaster","steam_id":76561198009115603,"connected_time":0,"state":"spawning","ping":14},{"user_id":628,"name":"could you care less?","steam_id":76561199122183697,"connected_time":1902000000000,"state":"active","ping":62},{"user_id":647,"name":"zcqyqcz","steam_id":76561198358006442,"connected_time":976000000000,"state":"active","ping":167},{"user_id":649,"name":"Shitsack the Indomitable","steam_id":76561198408159536,"connected_time":769000000000,"state":"active","ping":46}]},{"server_id":36,"name":"Uncletopia | Chicago | 5 | All Maps","name_short":"chi-5","host":"chi-2.us.uncletopia.com","port":27015,"enabled":true,"region":"us-central","cc":"us","latitude":41.881832,"longitude":-87.62318,"reserved":0,"last_update":"0001-01-01T00:00:00Z","name_a2s":"Uncletopia | Chicago | 5 | All Maps","protocol":17,"map":"koth_highpass","folder":"tf","game":"Team Fortress","app_id":440,"player_count":23,"max_players":24,"Bots":0,"server_type":"Dedicated","server_os":"Linux","password":true,"vac":true,"version":"7961495","steam_id":85568392924866362,"keywords":["cp","nocrits","nodmgspread","uncletopia"],"game_id":440,"stv_port":27016,"stv_name":"Uncletopia | Chicago | 5 | All Maps | STV","players":[{"user_id":331,"name":"Toaster","steam_id":76561199275830628,"connected_time":2784000000000,"state":"active","ping":101},{"user_id":332,"name":"-W3E- grim10465","steam_id":76561198045698581,"connected_time":2760000000000,"state":"active","ping":45},{"user_id":357,"name":"fear_the-penguins","steam_id":76561199013292217,"connected_time":1059000000000,"state":"active","ping":72},{"user_id":359,"name":"Urbanzpinapple","steam_id":76561198115426938,"connected_time":869000000000,"state":"active","ping":81},{"user_id":353,"name":"Blue Eyes Ace Dragon.","steam_id":76561198048214237,"connected_time":1260000000000,"state":"active","ping":60},{"user_id":360,"name":"LincolnShio_","steam_id":76561198831123552,"connected_time":842000000000,"state":"active","ping":55},{"user_id":361,"name":"Ridley","steam_id":76561198248615662,"connected_time":670000000000,"state":"active","ping":120},{"user_id":356,"name":"flame","steam_id":76561198079321914,"connected_time":1080000000000,"state":"active","ping":96},{"user_id":362,"name":"pigswill","steam_id":76561197999081865,"connected_time":657000000000,"state":"active","ping":90},{"user_id":365,"name":"Andrew","steam_id":76561198070615190,"connected_time":593000000000,"state":"active","ping":60},{"user_id":325,"name":"caca sniffer","steam_id":76561199099914725,"connected_time":4171000000000,"state":"active","ping":94},{"user_id":363,"name":"I stole your catchphrase","steam_id":76561198053465042,"connected_time":647000000000,"state":"active","ping":74},{"user_id":290,"name":"Shagbark","steam_id":76561198173447342,"connected_time":6862000000000,"state":"active","ping":82},{"user_id":346,"name":"N00SE","steam_id":76561198211473307,"connected_time":2082000000000,"state":"active","ping":62},{"user_id":364,"name":"Baron Tec","steam_id":76561198043781392,"connected_time":625000000000,"state":"active","ping":84},{"user_id":367,"name":"NUt","steam_id":76561198031007966,"connected_time":166000000000,"state":"active","ping":75},{"user_id":350,"name":"Reality Loser","steam_id":76561198001541433,"connected_time":1947000000000,"state":"active","ping":60},{"user_id":302,"name":"ignoble","steam_id":76561198040084437,"connected_time":5740000000000,"state":"active","ping":45},{"user_id":341,"name":"Lain","steam_id":76561198029303534,"connected_time":2553000000000,"state":"active","ping":63},{"user_id":366,"name":"Mr. DeLarge","steam_id":76561198336820066,"connected_time":586000000000,"state":"active","ping":112},{"user_id":328,"name":"Fuzzy","steam_id":76561198113445043,"connected_time":3229000000000,"state":"active","ping":70},{"user_id":337,"name":"YellowJello","steam_id":76561198165626677,"connected_time":2681000000000,"state":"active","ping":61},{"user_id":351,"name":"aaron","steam_id":76561198113364714,"connected_time":1947000000000,"state":"active","ping":61}]},{"server_id":37,"name":"Uncletopia | Chicago | 6 | All Maps","name_short":"chi-6","host":"chi-2.us.uncletopia.com","port":27025,"enabled":true,"region":"us-central","cc":"us","latitude":41.881832,"longitude":-87.62318,"reserved":0,"last_update":"0001-01-01T00:00:00Z","name_a2s":"Uncletopia | Chicago | 6 | All Maps","protocol":17,"map":"koth_lakeside_final","folder":"tf","game":"Team Fortress","app_id":440,"player_count":24,"max_players":24,"Bots":0,"server_type":"Dedicated","server_os":"Linux","password":true,"vac":true,"version":"7961495","steam_id":85568392924866363,"keywords":["cp","nocrits","nodmgspread","uncletopia"],"game_id":440,"stv_port":27026,"stv_name":"Uncletopia | Chicago | 6 | All Maps | STV","players":[{"user_id":560,"name":"zeplinnn","steam_id":76561198301300987,"connected_time":3002000000000,"state":"active","ping":90},{"user_id":600,"name":"Jack","steam_id":76561198254716942,"connected_time":622000000000,"state":"active","ping":64},{"user_id":599,"name":"marsupial superstar","steam_id":76561198102148550,"connected_time":662000000000,"state":"active","ping":94},{"user_id":591,"name":"Sir Arthur Wellesley","steam_id":76561198073344614,"connected_time":1268000000000,"state":"active","ping":80},{"user_id":586,"name":"screaming internally","steam_id":76561198838223023,"connected_time":1406000000000,"state":"active","ping":50},{"user_id":607,"name":"Xyverle","steam_id":76561198799726415,"connected_time":433000000000,"state":"active","ping":60},{"user_id":564,"name":"Pontifex","steam_id":76561198013016489,"connected_time":2937000000000,"state":"active","ping":85},{"user_id":587,"name":"Mutants23","steam_id":76561199202458765,"connected_time":1396000000000,"state":"active","ping":104},{"user_id":588,"name":"RexCreeper456","steam_id":76561199319578396,"connected_time":1328000000000,"state":"active","ping":64},{"user_id":609,"name":"sadboyz","steam_id":76561198868600487,"connected_time":216000000000,"state":"active","ping":155},{"user_id":511,"name":"kirbo","steam_id":76561199404157971,"connected_time":6667000000000,"state":"active","ping":88},{"user_id":589,"name":"mini","steam_id":76561198064214000,"connected_time":1324000000000,"state":"active","ping":69},{"user_id":580,"name":"Mongoose88","steam_id":76561197961442445,"connected_time":1688000000000,"state":"active","ping":69},{"user_id":590,"name":"count tokeula","steam_id":76561198305796131,"connected_time":1319000000000,"state":"active","ping":47},{"user_id":579,"name":"gaming gerald","steam_id":76561198011707083,"connected_time":1847000000000,"state":"active","ping":58},{"user_id":594,"name":"Your Alcoholic Dad","steam_id":76561198214494745,"connected_time":954000000000,"state":"active","ping":53},{"user_id":602,"name":"Psionara","steam_id":76561198211684263,"connected_time":577000000000,"state":"active","ping":107},{"user_id":567,"name":"DigitalWizard","steam_id":76561198085936715,"connected_time":2918000000000,"state":"active","ping":73},{"user_id":593,"name":"Tohru","steam_id":76561198139393876,"connected_time":1228000000000,"state":"active","ping":76},{"user_id":603,"name":"Rat King (Deposed)","steam_id":76561198271907916,"connected_time":557000000000,"state":"active","ping":55},{"user_id":604,"name":"bocky","steam_id":76561198096088301,"connected_time":553000000000,"state":"active","ping":75},{"user_id":605,"name":"Lots0","steam_id":76561198043143145,"connected_time":542000000000,"state":"active","ping":91},{"user_id":577,"name":"stick","steam_id":76561198049489094,"connected_time":2316000000000,"state":"active","ping":60},{"user_id":522,"name":"GreekGoat_Coffee","steam_id":76561198129331088,"connected_time":6427000000000,"state":"active","ping":45}]},{"server_id":38,"name":"Uncletopia | Chicago | 7 | Stopwatch","name_short":"chi-7","host":"chi-2.us.uncletopia.com","port":27035,"enabled":true,"region":"us-central","cc":"us","latitude":41.881832,"longitude":-87.62318,"reserved":0,"last_update":"0001-01-01T00:00:00Z","name_a2s":"Uncletopia | Chicago | 7 | Stopwatch","protocol":17,"map":"workshop/koth_ashville_final.ugc2130459942","folder":"tf","game":"Team Fortress","app_id":440,"player_count":0,"max_players":24,"Bots":0,"server_type":"Dedicated","server_os":"Linux","password":true,"vac":true,"version":"7961495","steam_id":85568392924866364,"keywords":["cp","nocrits","nodmgspread","uncletopia"],"game_id":440,"stv_port":27036,"stv_name":"Uncletopia | Chicago | 7 | Stopwatch | STV","players":null},{"server_id":39,"name":"Uncletopia | Chicago | 8 | Community","name_short":"chi-8","host":"chi-2.us.uncletopia.com","port":27045,"enabled":true,"region":"us-central","cc":"us","latitude":41.881832,"longitude":-87.62318,"reserved":0,"last_update":"0001-01-01T00:00:00Z","name_a2s":"Uncletopia | Chicago | 8 | Community","protocol":17,"map":"workshop/pl_highwood_b13.ugc1769496557","folder":"tf","game":"Team Fortress","app_id":440,"player_count":24,"max_players":24,"Bots":0,"server_type":"Dedicated","server_os":"Linux","password":true,"vac":true,"version":"7961495","steam_id":85568392924866365,"keywords":["nocrits","nodmgspread","payload","uncletopia"],"game_id":440,"stv_port":27046,"stv_name":"Uncletopia | Chicago | 8 | Community | STV","players":[{"user_id":122,"name":"Induce Salt","steam_id":76561198116645978,"connected_time":1101000000000,"state":"active","ping":55},{"user_id":103,"name":"stoppit","steam_id":76561198353292787,"connected_time":2643000000000,"state":"active","ping":74},{"user_id":116,"name":"Carvhana","steam_id":76561198142629517,"connected_time":1753000000000,"state":"active","ping":71},{"user_id":90,"name":"new york city pizza rat","steam_id":76561198202589758,"connected_time":3543000000000,"state":"active","ping":72},{"user_id":114,"name":"A Big Rat","steam_id":76561197990853987,"connected_time":2012000000000,"state":"active","ping":61},{"user_id":126,"name":"JerkHisJimmy","steam_id":76561198226749652,"connected_time":653000000000,"state":"active","ping":86},{"user_id":105,"name":"name","steam_id":76561199218194540,"connected_time":2546000000000,"state":"active","ping":71},{"user_id":44,"name":"Plot Armor Blacksmith","steam_id":76561198083345384,"connected_time":6039000000000,"state":"active","ping":94},{"user_id":45,"name":"Bob the Minion","steam_id":76561197972389354,"connected_time":6035000000000,"state":"active","ping":76},{"user_id":124,"name":"ItchyDani3l","steam_id":76561197982264658,"connected_time":1063000000000,"state":"active","ping":86},{"user_id":125,"name":"Cooler Ye","steam_id":76561198068830312,"connected_time":672000000000,"state":"active","ping":54},{"user_id":127,"name":"Lordkeiichi","steam_id":76561198011239395,"connected_time":425000000000,"state":"active","ping":74},{"user_id":111,"name":"Danmar33","steam_id":76561198056453091,"connected_time":2080000000000,"state":"active","ping":58},{"user_id":128,"name":"Ace Chromatica","steam_id":76561198042211131,"connected_time":407000000000,"state":"active","ping":59},{"user_id":102,"name":"Obama F. Kennedy","steam_id":76561198282499318,"connected_time":2896000000000,"state":"active","ping":74},{"user_id":115,"name":"Rein | Comms  Open","steam_id":76561198300340427,"connected_time":1835000000000,"state":"active","ping":66},{"user_id":56,"name":"Meh","steam_id":76561198078187920,"connected_time":5817000000000,"state":"active","ping":89},{"user_id":109,"name":"smuffy","steam_id":76561198091459506,"connected_time":2411000000000,"state":"active","ping":67},{"user_id":113,"name":"Mossy","steam_id":76561198156401277,"connected_time":2042000000000,"state":"active","ping":81},{"user_id":97,"name":"yamme","steam_id":76561198117849124,"connected_time":3161000000000,"state":"active","ping":105},{"user_id":65,"name":"frank","steam_id":76561198137777483,"connected_time":5573000000000,"state":"active","ping":67},{"user_id":118,"name":"wise","steam_id":76561198030066204,"connected_time":1696000000000,"state":"active","ping":55},{"user_id":119,"name":"Rez LeRoux","steam_id":76561198451503538,"connected_time":1668000000000,"state":"active","ping":83},{"user_id":121,"name":"Fitts1099","steam_id":76561198044986906,"connected_time":1446000000000,"state":"active","ping":48}]},{"server_id":8,"name":"Uncletopia | Dallas | 1 | All Maps","name_short":"dal-1","host":"dal-1.us.uncletopia.com","port":27015,"enabled":true,"region":"us-central","cc":"us","latitude":32.779167,"longitude":-96.80889,"reserved":0,"last_update":"0001-01-01T00:00:00Z","name_a2s":"Uncletopia | Dallas | 1 | All Maps","protocol":17,"map":"pl_borneo","folder":"tf","game":"Team Fortress","app_id":440,"player_count":24,"max_players":24,"Bots":0,"server_type":"Dedicated","server_os":"Linux","password":true,"vac":true,"version":"7961495","steam_id":85568392924469986,"keywords":["nocrits","nodmgspread","payload","uncletopia"],"game_id":440,"stv_port":27016,"stv_name":"Uncletopia | Dallas | 1 | All Maps | STV","players":[{"user_id":735,"name":"Ballista","steam_id":76561197983182562,"connected_time":216000000000,"state":"active","ping":52},{"user_id":729,"name":"bl√•haj enjoyer","steam_id":76561198132803810,"connected_time":295000000000,"state":"active","ping":61},{"user_id":736,"name":"Kramer's Apology (Full Video)","steam_id":76561198009339435,"connected_time":183000000000,"state":"active","ping":52},{"user_id":720,"name":"Manic","steam_id":76561198128149670,"connected_time":951000000000,"state":"active","ping":46},{"user_id":701,"name":"Kipados","steam_id":76561197997147319,"connected_time":2102000000000,"state":"active","ping":88},{"user_id":727,"name":"Da Policia","steam_id":76561198012762789,"connected_time":616000000000,"state":"active","ping":45},{"user_id":716,"name":"5yt LFB","steam_id":76561198041643833,"connected_time":1024000000000,"state":"active","ping":64},{"user_id":672,"name":"A Straw","steam_id":76561199367935846,"connected_time":5133000000000,"state":"active","ping":71},{"user_id":737,"name":"turnsley runnenteldat","steam_id":76561197979921291,"connected_time":86000000000,"state":"active","ping":46},{"user_id":676,"name":"Moonflower ‚ú¶","steam_id":76561198191782483,"connected_time":4689000000000,"state":"active","ping":48},{"user_id":721,"name":"Tetris Speedrunner","steam_id":76561198984917566,"connected_time":950000000000,"state":"active","ping":59},{"user_id":738,"name":"Frank Cilantro LFB","steam_id":76561198120789856,"connected_time":63000000000,"state":"active","ping":80},{"user_id":722,"name":"Joe Camel","steam_id":76561198205531739,"connected_time":911000000000,"state":"active","ping":137},{"user_id":718,"name":"deimos","steam_id":76561198148357768,"connected_time":1000000000000,"state":"active","ping":79},{"user_id":723,"name":"Noot Noot","steam_id":76561198352370391,"connected_time":910000000000,"state":"active","ping":146},{"user_id":707,"name":"slurpee #„Å´„ÇÉ","steam_id":76561197990257202,"connected_time":1676000000000,"state":"active","ping":64},{"user_id":714,"name":"Business Casual","steam_id":76561198298516557,"connected_time":1090000000000,"state":"active","ping":73},{"user_id":739,"name":"Dr Nefario","steam_id":76561198254646194,"connected_time":40000000000,"state":"active","ping":87},{"user_id":724,"name":"dumbest girl alive","steam_id":76561198062263639,"connected_time":908000000000,"state":"active","ping":56},{"user_id":740,"name":"sora","steam_id":76561198094256973,"connected_time":1000000000,"state":"spawning","ping":50},{"user_id":665,"name":"Motreir","steam_id":76561198151717946,"connected_time":5422000000000,"state":"active","ping":87},{"user_id":725,"name":"DeckofDragons","steam_id":76561198057398213,"connected_time":885000000000,"state":"active","ping":75},{"user_id":711,"name":"BamBam","steam_id":76561198063110026,"connected_time":1536000000000,"state":"active","ping":77},{"user_id":734,"name":"ZILICON","steam_id":76561199044705592,"connected_time":243000000000,"state":"active","ping":124}]},{"server_id":108,"name":"Uncletopia | Dallas | 2 | All Maps","name_short":"dal-2","host":"dal-1.us.uncletopia.com","port":27025,"enabled":true,"region":"us-central","cc":"us","latitude":32.779167,"longitude":-96.80889,"reserved":0,"last_update":"0001-01-01T00:00:00Z","name_a2s":"Uncletopia | Dallas | 2 | All Maps","protocol":17,"map":"cp_dustbowl","folder":"tf","game":"Team Fortress","app_id":440,"player_count":22,"max_players":24,"Bots":0,"server_type":"Dedicated","server_os":"Linux","password":true,"vac":true,"version":"7961495","steam_id":85568392924469988,"keywords":["cp","nocrits","nodmgspread","uncletopia"],"game_id":440,"stv_port":27026,"stv_name":"Uncletopia | Dallas | 2 | All Maps | STV","players":[{"user_id":498,"name":"Charlie","steam_id":76561198798127908,"connected_time":1101000000000,"state":"active","ping":93},{"user_id":505,"name":"Shaso1008","steam_id":76561198111957006,"connected_time":2000000000,"state":"spawning","ping":78},{"user_id":461,"name":"TrashPanda (she/her)","steam_id":76561198447864095,"connected_time":3950000000000,"state":"active","ping":61},{"user_id":430,"name":"Ember The Femboy","steam_id":76561198139630565,"connected_time":5500000000000,"state":"active","ping":169},{"user_id":493,"name":"Nah im fine","steam_id":76561199108830372,"connected_time":1202000000000,"state":"active","ping":91},{"user_id":495,"name":"Pim","steam_id":76561198046050375,"connected_time":1175000000000,"state":"active","ping":113},{"user_id":471,"name":"Fatal","steam_id":76561198061407587,"connected_time":2318000000000,"state":"active","ping":62},{"user_id":475,"name":"Panda Loser","steam_id":76561198828745176,"connected_time":2248000000000,"state":"active","ping":103},{"user_id":476,"name":"BigPimpin","steam_id":76561198119549348,"connected_time":2246000000000,"state":"active","ping":48},{"user_id":452,"name":"Sex","steam_id":76561198818620540,"connected_time":4479000000000,"state":"active","ping":59},{"user_id":477,"name":"Blade Racer","steam_id":76561198155896703,"connected_time":2237000000000,"state":"active","ping":78},{"user_id":478,"name":"CBreezyyyyBaby","steam_id":76561199093523987,"connected_time":2227000000000,"state":"active","ping":73},{"user_id":502,"name":"chesterwnimitz","steam_id":76561198062664377,"connected_time":388000000000,"state":"active","ping":83},{"user_id":488,"name":"Ralis","steam_id":76561198040398748,"connected_time":1748000000000,"state":"active","ping":81},{"user_id":464,"name":"Karubi","steam_id":76561197984788751,"connected_time":3554000000000,"state":"active","ping":110},{"user_id":501,"name":"Engideer","steam_id":76561198145733164,"connected_time":709000000000,"state":"active","ping":47},{"user_id":499,"name":"Brian Family","steam_id":76561199129969202,"connected_time":798000000000,"state":"active","ping":86},{"user_id":463,"name":"Kenku","steam_id":76561199086762926,"connected_time":3618000000000,"state":"active","ping":91},{"user_id":410,"name":"skegeton","steam_id":76561198095581099,"connected_time":8014000000000,"state":"active","ping":53},{"user_id":503,"name":"Lord Garrard","steam_id":76561198212184303,"connected_time":194000000000,"state":"active","ping":55},{"user_id":466,"name":"Translucent‡´Æ‚Çç ‚Ä¢ ·¥• ‚Ä¢","steam_id":76561199212057076,"connected_time":3499000000000,"state":"active","ping":79},{"user_id":489,"name":"Treelos","steam_id":76561198054796003,"connected_time":1733000000000,"state":"active","ping":71}]},{"server_id":404,"name":"Uncletopia | Dallas | 3 | All Maps","name_short":"dal-3","host":"dal-1.us.uncletopia.com","port":27035,"enabled":true,"region":"us-central","cc":"us","latitude":32.779167,"longitude":-96.80889,"reserved":0,"last_update":"0001-01-01T00:00:00Z","name_a2s":"Uncletopia | Dallas | 3 | All Maps","protocol":17,"map":"pl_pier","folder":"tf","game":"Team Fortress","app_id":440,"player_count":24,"max_players":24,"Bots":0,"server_type":"Dedicated","server_os":"Linux","password":true,"vac":true,"version":"7961495","steam_id":85568392924515219,"keywords":["nocrits","nodmgspread","payload","uncletopia"],"game_id":440,"stv_port":27036,"stv_name":"Uncletopia | Dallas | 3 | All Maps | STV","players":[{"user_id":449,"name":"HiddenWenis","steam_id":76561198055459784,"connected_time":3806000000000,"state":"active","ping":116},{"user_id":491,"name":"BehindYou","steam_id":76561198987222560,"connected_time":567000000000,"state":"active","ping":67},{"user_id":410,"name":"Pippermint","steam_id":76561198292091925,"connected_time":6721000000000,"state":"active","ping":74},{"user_id":490,"name":"Dimension Reduction","steam_id":76561198067369336,"connected_time":785000000000,"state":"active","ping":47},{"user_id":433,"name":"Nammu","steam_id":76561198067778161,"connected_time":4733000000000,"state":"active","ping":95},{"user_id":435,"name":"Omniash","steam_id":76561198091994987,"connected_time":4663000000000,"state":"active","ping":89},{"user_id":456,"name":"haisel","steam_id":76561199001918194,"connected_time":3659000000000,"state":"active","ping":87},{"user_id":487,"name":"Dr. W0lv","steam_id":76561198129237487,"connected_time":857000000000,"state":"active","ping":57},{"user_id":465,"name":"Streetwise","steam_id":76561197971684268,"connected_time":3386000000000,"state":"active","ping":121},{"user_id":454,"name":"Lavender","steam_id":76561198142770666,"connected_time":3690000000000,"state":"active","ping":54},{"user_id":467,"name":"Rusty_Cheech","steam_id":76561198808236778,"connected_time":3262000000000,"state":"active","ping":104},{"user_id":457,"name":"intek","steam_id":76561198052705291,"connected_time":3653000000000,"state":"active","ping":93},{"user_id":429,"name":"SilverLife25","steam_id":76561198392015722,"connected_time":4862000000000,"state":"active","ping":50},{"user_id":471,"name":"Prof. Shittington","steam_id":76561198135137213,"connected_time":3061000000000,"state":"active","ping":53},{"user_id":481,"name":"uheggwhite","steam_id":76561199199795741,"connected_time":1621000000000,"state":"active","ping":59},{"user_id":485,"name":"Kamin","steam_id":76561198255299559,"connected_time":998000000000,"state":"active","ping":71},{"user_id":488,"name":"zz.","steam_id":76561198077970399,"connected_time":837000000000,"state":"active","ping":66},{"user_id":492,"name":"vacachimuela","steam_id":76561198297332421,"connected_time":413000000000,"state":"active","ping":130},{"user_id":461,"name":"Shitty Pilot","steam_id":76561198042723469,"connected_time":3625000000000,"state":"active","ping":65},{"user_id":480,"name":"jxh300","steam_id":76561199196579894,"connected_time":1654000000000,"state":"active","ping":97},{"user_id":431,"name":"JtsRes","steam_id":76561197994809241,"connected_time":4775000000000,"state":"active","ping":62},{"user_id":463,"name":"rAnch","steam_id":76561198024562587,"connected_time":3422000000000,"state":"active","ping":45},{"user_id":489,"name":"Dee","steam_id":76561199000786530,"connected_time":833000000000,"state":"active","ping":88},{"user_id":479,"name":"Aurora_Ranger101","steam_id":76561198212436504,"connected_time":1955000000000,"state":"active","ping":85}]},{"server_id":405,"name":"Uncletopia | Dallas | 4 | Community","name_short":"dal-4","host":"dal-1.us.uncletopia.com","port":27045,"enabled":true,"region":"us-central","cc":"us","latitude":32.779167,"longitude":-96.80889,"reserved":0,"last_update":"0001-01-01T00:00:00Z","name_a2s":"Uncletopia | Dallas | 4 | Community","protocol":17,"map":"workshop/cp_kalinka_rc6a.ugc1272700588","folder":"tf","game":"Team Fortress","app_id":440,"player_count":23,"max_players":24,"Bots":0,"server_type":"Dedicated","server_os":"Linux","password":true,"vac":true,"version":"7961495","steam_id":85568392924515220,"keywords":["cp","nocrits","nodmgspread","uncletopia"],"game_id":440,"stv_port":27046,"stv_name":"Uncletopia | Dallas | 4 | Community | STV","players":[{"user_id":379,"name":"Mayo Monkey","steam_id":76561198090023039,"connected_time":1712000000000,"state":"active","ping":97},{"user_id":344,"name":"remanedur","steam_id":76561198059459507,"connected_time":5105000000000,"state":"active","ping":108},{"user_id":369,"name":"Goose","steam_id":76561198245716618,"connected_time":3103000000000,"state":"active","ping":98},{"user_id":342,"name":"atlas","steam_id":76561198116768948,"connected_time":5185000000000,"state":"active","ping":93},{"user_id":405,"name":"Dad Sex","steam_id":76561198060994080,"connected_time":87000000000,"state":"active","ping":90},{"user_id":333,"name":"thai","steam_id":76561198052462287,"connected_time":6028000000000,"state":"active","ping":100},{"user_id":399,"name":"The Great Eagle Scourge of 1822","steam_id":76561198325086209,"connected_time":168000000000,"state":"active","ping":86},{"user_id":393,"name":"An Engineer","steam_id":76561198110381643,"connected_time":773000000000,"state":"active","ping":46},{"user_id":317,"name":"mattack374","steam_id":76561199497083665,"connected_time":6502000000000,"state":"active","ping":109},{"user_id":381,"name":"doobie the hutt","steam_id":76561198088873640,"connected_time":1622000000000,"state":"active","ping":109},{"user_id":400,"name":"Jag","steam_id":76561198001220471,"connected_time":155000000000,"state":"active","ping":58},{"user_id":401,"name":"Alteraxia","steam_id":76561198213333961,"connected_time":152000000000,"state":"active","ping":71},{"user_id":291,"name":"cycoone","steam_id":76561198059745285,"connected_time":8781000000000,"state":"active","ping":85},{"user_id":390,"name":"joachym","steam_id":76561198428579761,"connected_time":1052000000000,"state":"active","ping":190},{"user_id":370,"name":"Pal","steam_id":76561198079657093,"connected_time":3080000000000,"state":"active","ping":45},{"user_id":397,"name":"Bleat","steam_id":76561198138678917,"connected_time":370000000000,"state":"active","ping":136},{"user_id":394,"name":"MC_Labs15","steam_id":76561198184017082,"connected_time":689000000000,"state":"active","ping":62},{"user_id":335,"name":"Viennetta","steam_id":76561198044088335,"connected_time":5960000000000,"state":"active","ping":83},{"user_id":315,"name":"Stultus","steam_id":76561198115116367,"connected_time":6663000000000,"state":"active","ping":94},{"user_id":396,"name":"OuterEos","steam_id":76561198151557939,"connected_time":552000000000,"state":"active","ping":74},{"user_id":403,"name":"Big Man Lard","steam_id":76561198069074737,"connected_time":125000000000,"state":"active","ping":88},{"user_id":398,"name":"fucking idiot","steam_id":76561198158152966,"connected_time":257000000000,"state":"active","ping":186},{"user_id":404,"name":"Azteck","steam_id":76561198073841466,"connected_time":123000000000,"state":"active","ping":64}]},{"server_id":5,"name":"Uncletopia | Frankfurt | 1 | All Maps","name_short":"frk-1","host":"frk-1.de.uncletopia.com","port":27015,"enabled":true,"region":"eu","cc":"de","latitude":50.110924,"longitude":8.682127,"reserved":0,"last_update":"0001-01-01T00:00:00Z","name_a2s":"Uncletopia | Frankfurt | 1 | All Maps","protocol":17,"map":"koth_badlands","folder":"tf","game":"Team Fortress","app_id":440,"player_count":0,"max_players":24,"Bots":0,"server_type":"Dedicated","server_os":"Linux","password":true,"vac":true,"version":"7961495","steam_id":85568392924469989,"keywords":["cp","nocrits","nodmgspread","uncletopia"],"game_id":440,"stv_port":27016,"stv_name":"Uncletopia | Frankfurt | 1 | All Maps | STV","players":null},{"server_id":110,"name":"Uncletopia | Frankfurt | 2 | All Maps","name_short":"frk-2","host":"frk-1.de.uncletopia.com","port":27025,"enabled":true,"region":"eu","cc":"de","latitude":50.110924,"longitude":8.682127,"reserved":0,"last_update":"0001-01-01T00:00:00Z","name_a2s":"Uncletopia | Frankfurt | 2 | All Maps","protocol":17,"map":"pl_frontier_final","folder":"tf","game":"Team Fortress","app_id":440,"player_count":0,"max_players":24,"Bots":0,"server_type":"Dedicated","server_os":"Linux","password":true,"vac":true,"version":"7961495","steam_id":85568392924469990,"keywords":["nocrits","nodmgspread","payload","uncletopia"],"game_id":440,"stv_port":27026,"stv_name":"Uncletopia | Frankfurt | 2 | All Maps | STV","players":null},{"server_id":308,"name":"Uncletopia | Frankfurt | 3 | All Maps","name_short":"frk-3","host":"frk-1.de.uncletopia.com","port":27035,"enabled":true,"region":"eu","cc":"de","latitude":50.110924,"longitude":8.682127,"reserved":0,"last_update":"0001-01-01T00:00:00Z","name_a2s":"Uncletopia | Frankfurt | 3 | All Maps","protocol":17,"map":"cp_well","folder":"tf","game":"Team Fortress","app_id":440,"player_count":0,"max_players":24,"Bots":0,"server_type":"Dedicated","server_os":"Linux","password":true,"vac":true,"version":"7961495","steam_id":85568392924504274,"keywords":["cp","nocrits","nodmgspread","uncletopia"],"game_id":440,"stv_port":27036,"stv_name":"Uncletopia | Frankfurt | 3 | All Maps | STV","players":null},{"server_id":309,"name":"Uncletopia | Frankfurt | 4 | All Maps","name_short":"frk-4","host":"frk-1.de.uncletopia.com","port":27045,"enabled":true,"region":"eu","cc":"de","latitude":50.110924,"longitude":8.682127,"reserved":0,"last_update":"0001-01-01T00:00:00Z","name_a2s":"Uncletopia | Frankfurt | 4 | All Maps","protocol":17,"map":"pl_upward","folder":"tf","game":"Team Fortress","app_id":440,"player_count":0,"max_players":24,"Bots":0,"server_type":"Dedicated","server_os":"Linux","password":true,"vac":true,"version":"7961495","steam_id":85568392924504275,"keywords":["nocrits","nodmgspread","payload","uncletopia"],"game_id":440,"stv_port":27046,"stv_name":"Uncletopia | Frankfurt | 4 | All Maps | STV","players":null},{"server_id":310,"name":"Uncletopia | Frankfurt | 5 | All Maps","name_short":"frk-5","host":"frk-1.de.uncletopia.com","port":27055,"enabled":true,"region":"eu","cc":"de","latitude":50.110924,"longitude":8.682127,"reserved":0,"last_update":"0001-01-01T00:00:00Z","name_a2s":"Uncletopia | Frankfurt | 5 | All Maps","protocol":17,"map":"koth_cascade","folder":"tf","game":"Team Fortress","app_id":440,"player_count":0,"max_players":24,"Bots":0,"server_type":"Dedicated","server_os":"Linux","password":true,"vac":true,"version":"7961495","steam_id":85568392924504277,"keywords":["cp","nocrits","nodmgspread","uncletopia"],"game_id":440,"stv_port":27056,"stv_name":"Uncletopia | Frankfurt | 5 | All Maps | STV","players":null},{"server_id":311,"name":"Uncletopia | Frankfurt | 6 | All Maps","name_short":"frk-6","host":"frk-1.de.uncletopia.com","port":27065,"enabled":true,"region":"eu","cc":"de","latitude":50.110924,"longitude":8.682127,"reserved":0,"last_update":"0001-01-01T00:00:00Z","name_a2s":"Uncletopia | Frankfurt | 6 | All Maps","protocol":17,"map":"cp_snakewater_final1","folder":"tf","game":"Team Fortress","app_id":440,"player_count":0,"max_players":24,"Bots":0,"server_type":"Dedicated","server_os":"Linux","password":true,"vac":true,"version":"7961495","steam_id":85568392924504278,"keywords":["cp","nocrits","nodmgspread","uncletopia"],"game_id":440,"stv_port":27066,"stv_name":"Uncletopia | Frankfurt | 6 | All Maps | STV","players":null},{"server_id":23,"name":"Uncletopia | Frankfurt | 7 | Stopwatch","name_short":"frk-7","host":"frk-1.de.uncletopia.com","port":27075,"enabled":true,"region":"eu","cc":"de","latitude":50.110924,"longitude":8.682127,"reserved":0,"last_update":"0001-01-01T00:00:00Z","name_a2s":"Uncletopia | Frankfurt | 7 | Stopwatch","protocol":17,"map":"workshop/pl_summercoast_rc8e.ugc1761528829","folder":"tf","game":"Team Fortress","app_id":440,"player_count":0,"max_players":24,"Bots":0,"server_type":"Dedicated","server_os":"Linux","password":true,"vac":true,"version":"7961495","steam_id":85568392924742827,"keywords":["nocrits","nodmgspread","payload","uncletopia"],"game_id":440,"stv_port":27076,"stv_name":"Uncletopia | Frankfurt | 7 | Stopwatch | STV","players":null},{"server_id":24,"name":"Uncletopia | Frankfurt | 8 | Community","name_short":"frk-8","host":"frk-1.de.uncletopia.com","port":27085,"enabled":true,"region":"eu","cc":"de","latitude":50.110924,"longitude":8.682127,"reserved":0,"last_update":"0001-01-01T00:00:00Z","name_a2s":"Uncletopia | Frankfurt | 8 | Community","protocol":17,"map":"workshop/pl_emerge_rc2.ugc888027758","folder":"tf","game":"Team Fortress","app_id":440,"player_count":0,"max_players":24,"Bots":0,"server_type":"Dedicated","server_os":"Linux","password":true,"vac":true,"version":"7961495","steam_id":85568392924742828,"keywords":["nocrits","nodmgspread","payload","uncletopia"],"game_id":440,"stv_port":27086,"stv_name":"Uncletopia | Frankfurt | 8 | Community | STV","players":null},{"server_id":202,"name":"Uncletopia | Hong Kong | 1 | All Maps","name_short":"hgk-1","host":"hgk-1.hk.uncletopia.com","port":27015,"enabled":true,"region":"asia","cc":"hk","latitude":22.302711,"longitude":114.177216,"reserved":0,"last_update":"0001-01-01T00:00:00Z","name_a2s":"Uncletopia | Hong Kong | 1 | All Maps","protocol":17,"map":"pl_upward","folder":"tf","game":"Team Fortress","app_id":440,"player_count":0,"max_players":24,"Bots":0,"server_type":"Dedicated","server_os":"Linux","password":true,"vac":true,"version":"7961495","steam_id":85568392924494504,"keywords":["nocrits","nodmgspread","payload","uncletopia"],"game_id":440,"stv_port":27016,"stv_name":"Uncletopia | Hong Kong | 1 | All Maps | STV","players":null},{"server_id":1,"name":"Uncletopia | Los Angeles | 1 | All Maps","name_short":"lax-1","host":"lax-1.us.uncletopia.com","port":27015,"enabled":true,"region":"us-west","cc":"us","latitude":33.94279,"longitude":-118.41004,"reserved":0,"last_update":"0001-01-01T00:00:00Z","name_a2s":"Uncletopia | Los Angeles | 1 | All Maps","protocol":17,"map":"pl_swiftwater_final1","folder":"tf","game":"Team Fortress","app_id":440,"player_count":24,"max_players":24,"Bots":0,"server_type":"Dedicated","server_os":"Linux","password":true,"vac":true,"version":"7961495","steam_id":85568392924469991,"keywords":["nocrits","nodmgspread","payload","uncletopia"],"game_id":440,"stv_port":27016,"stv_name":"Uncletopia | Los Angeles | 1 | All Maps | STV","players":[{"user_id":500,"name":"Verult (doesn't)Trade","steam_id":76561199018000017,"connected_time":2842000000000,"state":"active","ping":43},{"user_id":525,"name":"snek","steam_id":76561198124848994,"connected_time":518000000000,"state":"active","ping":74},{"user_id":506,"name":"azureglxy","steam_id":76561198861388315,"connected_time":2378000000000,"state":"active","ping":34},{"user_id":488,"name":"Jimmy","steam_id":76561198857959855,"connected_time":3836000000000,"state":"active","ping":43},{"user_id":512,"name":"Link_Starr","steam_id":76561198133884015,"connected_time":1915000000000,"state":"active","ping":55},{"user_id":524,"name":"puffer","steam_id":76561199049164456,"connected_time":699000000000,"state":"active","ping":78},{"user_id":426,"name":"Frebresio","steam_id":76561198353493333,"connected_time":7772000000000,"state":"active","ping":51},{"user_id":515,"name":"jungus","steam_id":76561198129862008,"connected_time":1418000000000,"state":"active","ping":48},{"user_id":519,"name":"Rerecrosz","steam_id":76561198043677171,"connected_time":1288000000000,"state":"active","ping":86},{"user_id":526,"name":"Pah-Wraith Gul Dukat","steam_id":76561198033918106,"connected_time":502000000000,"state":"active","ping":52},{"user_id":523,"name":"Saddam","steam_id":76561197985725267,"connected_time":726000000000,"state":"active","ping":94},{"user_id":496,"name":"Delta-Metto 01","steam_id":76561198971167660,"connected_time":3156000000000,"state":"active","ping":110},{"user_id":508,"name":"Dongus","steam_id":76561197979056451,"connected_time":2365000000000,"state":"active","ping":76},{"user_id":514,"name":"glip glep","steam_id":76561198999431215,"connected_time":1568000000000,"state":"active","ping":109},{"user_id":513,"name":"DarkMewMew","steam_id":76561199471715552,"connected_time":1907000000000,"state":"active","ping":174},{"user_id":510,"name":"Cactus‚Ñ¢ ‚ô•","steam_id":76561198036441270,"connected_time":2309000000000,"state":"active","ping":74},{"user_id":416,"name":"self sufficient kitten","steam_id":76561197960592612,"connected_time":7935000000000,"state":"active","ping":74},{"user_id":511,"name":"JACK BRUNO","steam_id":76561198027957690,"connected_time":2293000000000,"state":"active","ping":68},{"user_id":415,"name":"‚ù§ Ashley ‚ù§","steam_id":76561198056428303,"connected_time":7971000000000,"state":"active","ping":47},{"user_id":482,"name":"Medical Maiden","steam_id":76561199110836055,"connected_time":4481000000000,"state":"active","ping":71},{"user_id":521,"name":"coffee veins","steam_id":76561198044004639,"connected_time":1222000000000,"state":"active","ping":81},{"user_id":527,"name":"Ralph Kramden (Slim Charles)","steam_id":76561197981687895,"connected_time":461000000000,"state":"active","ping":63},{"user_id":433,"name":"Spread Joy, Not Hate","steam_id":76561198053117503,"connected_time":7468000000000,"state":"active","ping":92},{"user_id":502,"name":"werolat","steam_id":76561197960544784,"connected_time":2747000000000,"state":"active","ping":79}]},{"server_id":112,"name":"Uncletopia | Los Angeles | 2 | All Maps","name_short":"lax-2","host":"lax-1.us.uncletopia.com","port":27025,"enabled":true,"region":"us-west","cc":"us","latitude":33.94279,"longitude":-118.41004,"reserved":0,"last_update":"0001-01-01T00:00:00Z","name_a2s":"Uncletopia | Los Angeles | 2 | All Maps","protocol":17,"map":"koth_lakeside_final","folder":"tf","game":"Team Fortress","app_id":440,"player_count":0,"max_players":24,"Bots":0,"server_type":"Dedicated","server_os":"Linux","password":true,"vac":true,"version":"7961495","steam_id":85568392924469992,"keywords":["cp","nocrits","nodmgspread","uncletopia"],"game_id":440,"stv_port":27026,"stv_name":"Uncletopia | Los Angeles | 2 | All Maps | STV","players":null},{"server_id":324,"name":"Uncletopia | Los Angeles | 3 | All Maps","name_short":"lax-3","host":"lax-1.us.uncletopia.com","port":27035,"enabled":true,"region":"us-west","cc":"us","latitude":33.94279,"longitude":-118.41004,"reserved":0,"last_update":"0001-01-01T00:00:00Z","name_a2s":"Uncletopia | Los Angeles | 3 | All Maps","protocol":17,"map":"pl_barnblitz","folder":"tf","game":"Team Fortress","app_id":440,"player_count":24,"max_players":24,"Bots":0,"server_type":"Dedicated","server_os":"Linux","password":true,"vac":true,"version":"7961495","steam_id":85568392924510198,"keywords":["nocrits","nodmgspread","payload","uncletopia"],"game_id":440,"stv_port":27036,"stv_name":"Uncletopia | Los Angeles | 3 | All Maps | STV","players":[{"user_id":362,"name":"schneiderkid8","steam_id":76561198374005899,"connected_time":5613000000000,"state":"active","ping":65},{"user_id":414,"name":"Simonator","steam_id":76561198242718444,"connected_time":2312000000000,"state":"active","ping":72},{"user_id":452,"name":"ronald","steam_id":76561197960691622,"connected_time":50000000000,"state":"active","ping":67},{"user_id":439,"name":"Monki","steam_id":76561198964210411,"connected_time":771000000000,"state":"active","ping":56},{"user_id":376,"name":"Velgrauder","steam_id":76561198848526938,"connected_time":4735000000000,"state":"active","ping":83},{"user_id":430,"name":"Alchemist","steam_id":76561198094238189,"connected_time":1270000000000,"state":"active","ping":55},{"user_id":441,"name":"bengineer","steam_id":76561198171912174,"connected_time":729000000000,"state":"active","ping":78},{"user_id":396,"name":"brotalium","steam_id":76561198055439054,"connected_time":3515000000000,"state":"active","ping":116},{"user_id":413,"name":"Jimbobmeboy","steam_id":76561198148317197,"connected_time":2351000000000,"state":"active","ping":72},{"user_id":447,"name":"don't get mad","steam_id":76561198064662875,"connected_time":628000000000,"state":"active","ping":51},{"user_id":421,"name":"Pyrotek‚Å¥","steam_id":76561198072747672,"connected_time":1651000000000,"state":"active","ping":42},{"user_id":451,"name":"Silvermace","steam_id":76561198090696843,"connected_time":296000000000,"state":"active","ping":46},{"user_id":448,"name":"ii_BlooMoon","steam_id":76561199100597391,"connected_time":529000000000,"state":"active","ping":56},{"user_id":449,"name":"hog cranker","steam_id":76561198073587145,"connected_time":497000000000,"state":"active","ping":115},{"user_id":434,"name":"Dog Deodorant","steam_id":76561199225832228,"connected_time":1089000000000,"state":"active","ping":43},{"user_id":389,"name":"[‚òØ] randomshagz*","steam_id":76561197968666646,"connected_time":4024000000000,"state":"active","ping":69},{"user_id":445,"name":"what's all the hubbub, puff?","steam_id":76561198068257774,"connected_time":658000000000,"state":"active","ping":71},{"user_id":423,"name":"Altruisticailuridae","steam_id":76561198335295596,"connected_time":1602000000000,"state":"active","ping":58},{"user_id":446,"name":"cheesebro","steam_id":76561198002072852,"connected_time":656000000000,"state":"active","ping":48},{"user_id":431,"name":"bmx bike","steam_id":76561198207881077,"connected_time":1247000000000,"state":"active","ping":91},{"user_id":416,"name":"Owl_eyes","steam_id":76561198066199203,"connected_time":2196000000000,"state":"active","ping":63},{"user_id":436,"name":"Kris-The Moss Eater","steam_id":76561198060061139,"connected_time":1046000000000,"state":"active","ping":55},{"user_id":415,"name":"gold","steam_id":76561199085827238,"connected_time":2219000000000,"state":"active","ping":67},{"user_id":437,"name":"Irkagiga","steam_id":76561198804348197,"connected_time":1046000000000,"state":"active","ping":139}]},{"server_id":25,"name":"Uncletopia | Los Angeles | 4 | Stopwatch","name_short":"lax-4","host":"lax-1.us.uncletopia.com","port":27045,"enabled":true,"region":"us-west","cc":"us","latitude":33.94279,"longitude":-118.41004,"reserved":0,"last_update":"0001-01-01T00:00:00Z","name_a2s":"Uncletopia | Los Angeles | 4 | Stopwatch","protocol":17,"map":"pl_barnblitz","folder":"tf","game":"Team Fortress","app_id":440,"player_count":0,"max_players":24,"Bots":0,"server_type":"Dedicated","server_os":"Linux","password":true,"vac":true,"version":"7961495","steam_id":85568392924510199,"keywords":["nocrits","nodmgspread","payload","uncletopia"],"game_id":440,"stv_port":27046,"stv_name":"Uncletopia | Los Angeles | 4 | Stopwatch | STV","players":null},{"server_id":11,"name":"Uncletopia | London | 1 | All Maps","name_short":"lon-1","host":"lon-1.uk.uncletopia.com","port":27015,"enabled":true,"region":"eu","cc":"gb","latitude":51.509865,"longitude":-0.118092,"reserved":0,"last_update":"0001-01-01T00:00:00Z","name_a2s":"Uncletopia | London | 1 | All Maps","protocol":17,"map":"pl_swiftwater_final1","folder":"tf","game":"Team Fortress","app_id":440,"player_count":17,"max_players":24,"Bots":0,"server_type":"Dedicated","server_os":"Linux","password":true,"vac":true,"version":"7961495","steam_id":85568392924367362,"keywords":["nocrits","nodmgspread","payload","uncletopia"],"game_id":440,"stv_port":27016,"stv_name":"Uncletopia | London | 1 | All Maps | STV","players":[{"user_id":973,"name":"Ganasti","steam_id":76561198382925185,"connected_time":937000000000,"state":"active","ping":84},{"user_id":960,"name":"Arkainiel Silver","steam_id":76561198188302519,"connected_time":1863000000000,"state":"active","ping":59},{"user_id":956,"name":"DDUUCCKK","steam_id":76561198141953050,"connected_time":2321000000000,"state":"active","ping":59},{"user_id":983,"name":"Femboy Enjoyer","steam_id":76561198389548524,"connected_time":52000000000,"state":"active","ping":66},{"user_id":966,"name":"hammertime","steam_id":76561199097714393,"connected_time":1267000000000,"state":"active","ping":149},{"user_id":984,"name":"EatSomeBEES","steam_id":76561198047334307,"connected_time":36000000000,"state":"active","ping":222},{"user_id":951,"name":"incoming","steam_id":76561199138214818,"connected_time":2884000000000,"state":"active","ping":90},{"user_id":964,"name":"TheDemoKnight","steam_id":76561198035168657,"connected_time":1622000000000,"state":"active","ping":69},{"user_id":929,"name":"noseb","steam_id":76561199480942903,"connected_time":3597000000000,"state":"active","ping":70},{"user_id":977,"name":"Collisto","steam_id":76561198023609460,"connected_time":659000000000,"state":"active","ping":78},{"user_id":974,"name":"Dragonman","steam_id":76561199182014123,"connected_time":897000000000,"state":"active","ping":89},{"user_id":971,"name":"Worm","steam_id":76561198296497176,"connected_time":1185000000000,"state":"active","ping":48},{"user_id":976,"name":"Myh","steam_id":76561198152265316,"connected_time":705000000000,"state":"active","ping":44},{"user_id":938,"name":"heuji","steam_id":76561197971067828,"connected_time":3596000000000,"state":"active","ping":46},{"user_id":979,"name":"Vivian From Paper Mario","steam_id":76561198077624205,"connected_time":639000000000,"state":"active","ping":75},{"user_id":980,"name":"Emaen","steam_id":76561198093983380,"connected_time":615000000000,"state":"active","ping":46},{"user_id":955,"name":"SolidSalt","steam_id":76561198334789026,"connected_time":2495000000000,"state":"active","ping":44}]},{"server_id":114,"name":"Uncletopia | London | 2 | All Maps","name_short":"lon-2","host":"lon-1.uk.uncletopia.com","port":27025,"enabled":true,"region":"eu","cc":"gb","latitude":51.509865,"longitude":-0.118092,"reserved":0,"last_update":"0001-01-01T00:00:00Z","name_a2s":"Uncletopia | London | 2 | All Maps","protocol":17,"map":"cp_altitude","folder":"tf","game":"Team Fortress","app_id":440,"player_count":0,"max_players":24,"Bots":0,"server_type":"Dedicated","server_os":"Linux","password":true,"vac":true,"version":"7961495","steam_id":85568392924470941,"keywords":["cp","nocrits","nodmgspread","uncletopia"],"game_id":440,"stv_port":27026,"stv_name":"Uncletopia | London | 2 | All Maps | STV","players":null},{"server_id":320,"name":"Uncletopia | London | 3 | All Maps","name_short":"lon-3","host":"lon-1.uk.uncletopia.com","port":27035,"enabled":true,"region":"eu","cc":"gb","latitude":51.509865,"longitude":-0.118092,"reserved":0,"last_update":"0001-01-01T00:00:00Z","name_a2s":"Uncletopia | London | 3 | All Maps","protocol":17,"map":"pl_swiftwater_final1","folder":"tf","game":"Team Fortress","app_id":440,"player_count":0,"max_players":24,"Bots":0,"server_type":"Dedicated","server_os":"Linux","password":true,"vac":true,"version":"7961495","steam_id":85568392924510192,"keywords":["nocrits","nodmgspread","payload","uncletopia"],"game_id":440,"stv_port":27036,"stv_name":"Uncletopia | London | 3 | All Maps | STV","players":null},{"server_id":321,"name":"Uncletopia | London | 4 | All Maps","name_short":"lon-4","host":"lon-1.uk.uncletopia.com","port":27045,"enabled":true,"region":"eu","cc":"gb","latitude":51.509865,"longitude":-0.118092,"reserved":0,"last_update":"0001-01-01T00:00:00Z","name_a2s":"Uncletopia | London | 4 | All Maps","protocol":17,"map":"pl_pier","folder":"tf","game":"Team Fortress","app_id":440,"player_count":0,"max_players":24,"Bots":0,"server_type":"Dedicated","server_os":"Linux","password":true,"vac":true,"version":"7961495","steam_id":85568392924510193,"keywords":["nocrits","nodmgspread","payload","uncletopia"],"game_id":440,"stv_port":27046,"stv_name":"Uncletopia | London | 4 | All Maps | STV","players":null},{"server_id":21,"name":"Uncletopia | London | 5 | All Maps","name_short":"lon-5","host":"lon-1.uk.uncletopia.com","port":27055,"enabled":true,"region":"eu","cc":"gb","latitude":51.509865,"longitude":-0.118092,"reserved":0,"last_update":"0001-01-01T00:00:00Z","name_a2s":"Uncletopia | London | 5 | All Maps","protocol":17,"map":"koth_cascade","folder":"tf","game":"Team Fortress","app_id":440,"player_count":0,"max_players":24,"Bots":0,"server_type":"Dedicated","server_os":"Linux","password":true,"vac":true,"version":"7961495","steam_id":85568392924742829,"keywords":["cp","nocrits","nodmgspread","uncletopia"],"game_id":440,"stv_port":27056,"stv_name":"Uncletopia | London | 5 | All Maps | STV","players":null},{"server_id":22,"name":"Uncletopia | London | 6 | All Maps","name_short":"lon-6","host":"lon-1.uk.uncletopia.com","port":27065,"enabled":true,"region":"eu","cc":"gb","latitude":51.509865,"longitude":-0.118092,"reserved":0,"last_update":"0001-01-01T00:00:00Z","name_a2s":"Uncletopia | London | 6 | All Maps","protocol":17,"map":"cp_altitude","folder":"tf","game":"Team Fortress","app_id":440,"player_count":0,"max_players":24,"Bots":0,"server_type":"Dedicated","server_os":"Linux","password":true,"vac":true,"version":"7961495","steam_id":85568392924742830,"keywords":["cp","nocrits","nodmgspread","uncletopia"],"game_id":440,"stv_port":27066,"stv_name":"Uncletopia | London | 6 | All Maps | STV","players":null},{"server_id":40,"name":"Uncletopia | London | 7 | Stopwatch","name_short":"lon-7","host":"lon-1.uk.uncletopia.com","port":27075,"enabled":true,"region":"eu","cc":"gb","latitude":51.509865,"longitude":-0.118092,"reserved":0,"last_update":"0001-01-01T00:00:00Z","name_a2s":"Uncletopia | London | 7 | Stopwatch","protocol":17,"map":"workshop/pl_badwater_pro_v12.ugc2142942074","folder":"tf","game":"Team Fortress","app_id":440,"player_count":0,"max_players":24,"Bots":0,"server_type":"Dedicated","server_os":"Linux","password":true,"vac":true,"version":"7961495","steam_id":85568392924964314,"keywords":["nocrits","nodmgspread","payload","uncletopia"],"game_id":440,"stv_port":27076,"stv_name":"Uncletopia | London | 7 | Stopwatch | STV","players":null},{"server_id":41,"name":"Uncletopia | London | 8 | Community","name_short":"lon-8","host":"lon-1.uk.uncletopia.com","port":27085,"enabled":true,"region":"eu","cc":"gb","latitude":51.509865,"longitude":-0.118092,"reserved":0,"last_update":"0001-01-01T00:00:00Z","name_a2s":"Uncletopia | London | 8 | Community","protocol":17,"map":"workshop/koth_synthetic_rc6a.ugc1549817316","folder":"tf","game":"Team Fortress","app_id":440,"player_count":0,"max_players":24,"Bots":0,"server_type":"Dedicated","server_os":"Linux","password":true,"vac":true,"version":"7961495","steam_id":85568392924964315,"keywords":["cp","nocrits","nodmgspread","uncletopia"],"game_id":440,"stv_port":27086,"stv_name":"Uncletopia | London | 8 | Community | STV","players":null},{"server_id":300,"name":"Uncletopia | Montr√©al | 1 | All Maps","name_short":"mtl-1","host":"mtl-1.ca.uncletopia.com","port":27015,"enabled":true,"region":"us-east","cc":"ca","latitude":45.50889,"longitude":-73.56167,"reserved":0,"last_update":"0001-01-01T00:00:00Z","name_a2s":"","protocol":0,"map":"","folder":"","game":"","app_id":0,"player_count":24,"max_players":0,"Bots":0,"server_type":"","server_os":"","password":false,"vac":false,"version":"","steam_id":0,"keywords":null,"game_id":0,"stv_port":0,"stv_name":"","players":[{"user_id":456,"name":"cool beans (dang greg)","steam_id":76561198321591685,"connected_time":1413000000000,"state":"active","ping":95},{"user_id":436,"name":"some tree","steam_id":76561198166093346,"connected_time":3675000000000,"state":"active","ping":40},{"user_id":403,"name":"Seek \u0026 Destroy","steam_id":76561199153776236,"connected_time":5805000000000,"state":"active","ping":77},{"user_id":426,"name":"Christophe","steam_id":76561198116640007,"connected_time":5041000000000,"state":"active","ping":148},{"user_id":376,"name":"vanta","steam_id":76561198084317504,"connected_time":8590000000000,"state":"active","ping":45},{"user_id":449,"name":"Tuff","steam_id":76561198038521103,"connected_time":2441000000000,"state":"active","ping":66},{"user_id":470,"name":"bones malones","steam_id":76561198148622991,"connected_time":296000000000,"state":"active","ping":70},{"user_id":450,"name":"eipi","steam_id":76561199084492097,"connected_time":2221000000000,"state":"active","ping":38},{"user_id":471,"name":"HalfDead","steam_id":76561198049700226,"connected_time":262000000000,"state":"active","ping":63},{"user_id":451,"name":"SoundKitKiller","steam_id":76561198053535873,"connected_time":2189000000000,"state":"active","ping":60},{"user_id":474,"name":"Koishi","steam_id":76561198054541054,"connected_time":223000000000,"state":"active","ping":49},{"user_id":458,"name":"Just washed","steam_id":76561199030160932,"connected_time":1366000000000,"state":"active","ping":118},{"user_id":465,"name":"butchersnake","steam_id":76561198162618469,"connected_time":900000000000,"state":"active","ping":55},{"user_id":466,"name":"Tummy","steam_id":76561198045654910,"connected_time":776000000000,"state":"active","ping":110},{"user_id":472,"name":"pl_chicago","steam_id":76561198055626638,"connected_time":256000000000,"state":"active","ping":75},{"user_id":448,"name":"Jdulton","steam_id":76561198116243617,"connected_time":2599000000000,"state":"active","ping":74},{"user_id":473,"name":"StarLinyn","steam_id":76561199014398138,"connected_time":249000000000,"state":"active","ping":109},{"user_id":447,"name":"luigi","steam_id":76561198056261066,"connected_time":2687000000000,"state":"active","ping":59},{"user_id":460,"name":"Dog Goggles","steam_id":76561197995233692,"connected_time":1334000000000,"state":"active","ping":67},{"user_id":452,"name":"BeansFan1997","steam_id":76561198045754085,"connected_time":2157000000000,"state":"active","ping":60},{"user_id":468,"name":"Sporp","steam_id":76561197987957133,"connected_time":501000000000,"state":"active","ping":76},{"user_id":389,"name":"Yep","steam_id":76561198041437251,"connected_time":7575000000000,"state":"active","ping":60},{"user_id":440,"name":"Dr. Professor PJ, Ph.D","steam_id":76561198004429398,"connected_time":3350000000000,"state":"active","ping":66},{"user_id":425,"name":"Dr. Pl0x","steam_id":76561198040785401,"connected_time":5083000000000,"state":"active","ping":108}]},{"server_id":301,"name":"Uncletopia | Montr√©al | 2 | ???","name_short":"mtl-2","host":"mtl-1.ca.uncletopia.com","port":27025,"enabled":true,"region":"us-east","cc":"ca","latitude":45.50889,"longitude":-73.56167,"reserved":0,"last_update":"0001-01-01T00:00:00Z","name_a2s":"","protocol":0,"map":"","folder":"","game":"","app_id":0,"player_count":0,"max_players":0,"Bots":0,"server_type":"","server_os":"","password":false,"vac":false,"version":"","steam_id":0,"keywords":null,"game_id":0,"stv_port":0,"stv_name":"","players":null},{"server_id":13,"name":"Uncletopia | New York City | 1 | All Maps","name_short":"nyc-1","host":"nyc-1.us.uncletopia.com","port":27015,"enabled":true,"region":"us-east","cc":"us","latitude":40.73061,"longitude":-73.93524,"reserved":0,"last_update":"0001-01-01T00:00:00Z","name_a2s":"Uncletopia | New York City | 1 | All Maps","protocol":17,"map":"pl_upward","folder":"tf","game":"Team Fortress","app_id":440,"player_count":24,"max_players":24,"Bots":0,"server_type":"Dedicated","server_os":"Linux","password":true,"vac":true,"version":"7961495","steam_id":85568392924469993,"keywords":["nocrits","nodmgspread","payload","uncletopia"],"game_id":440,"stv_port":27016,"stv_name":"Uncletopia | New York City | 1 | All Maps | STV","players":[{"user_id":631,"name":"on that zaza?","steam_id":76561198038713198,"connected_time":103000000000,"state":"active","ping":51},{"user_id":629,"name":"pat","steam_id":76561198327703300,"connected_time":314000000000,"state":"active","ping":50},{"user_id":636,"name":"Shanks","steam_id":76561199038321449,"connected_time":33000000000,"state":"active","ping":171},{"user_id":586,"name":"dad playing in between naps","steam_id":76561198009425458,"connected_time":6011000000000,"state":"active","ping":81},{"user_id":615,"name":"popfulmail","steam_id":76561198865971290,"connected_time":3116000000000,"state":"active","ping":92},{"user_id":618,"name":"retinz","steam_id":76561198135563495,"connected_time":2817000000000,"state":"active","ping":53},{"user_id":626,"name":"Herdez Hot Salsa","steam_id":76561197991740906,"connected_time":2070000000000,"state":"active","ping":70},{"user_id":617,"name":"lfty","steam_id":76561198283841707,"connected_time":2947000000000,"state":"active","ping":53},{"user_id":622,"name":"guy","steam_id":76561198079925551,"connected_time":2694000000000,"state":"active","ping":59},{"user_id":601,"name":"PieSpie","steam_id":76561198054531169,"connected_time":4795000000000,"state":"active","ping":92},{"user_id":628,"name":"The Helpful Mute","steam_id":76561198078359985,"connected_time":1149000000000,"state":"active","ping":69},{"user_id":619,"name":"Broadway Rose","steam_id":76561198046083342,"connected_time":2813000000000,"state":"active","ping":38},{"user_id":576,"name":"Berb","steam_id":76561198193911899,"connected_time":6311000000000,"state":"active","ping":125},{"user_id":621,"name":"bert","steam_id":76561198167927756,"connected_time":2750000000000,"state":"active","ping":93},{"user_id":574,"name":"Dankchicn","steam_id":76561199288196207,"connected_time":6340000000000,"state":"active","ping":101},{"user_id":632,"name":"‰Ω†Â•Ω","steam_id":76561198873043242,"connected_time":100000000000,"state":"active","ping":140},{"user_id":604,"name":"ndvr","steam_id":76561199379200102,"connected_time":3882000000000,"state":"active","ping":40},{"user_id":575,"name":"Riltreks","steam_id":76561198800482183,"connected_time":6335000000000,"state":"active","ping":100},{"user_id":605,"name":"Yuzu","steam_id":76561198417913035,"connected_time":3396000000000,"state":"active","ping":71},{"user_id":633,"name":"Kirbo","steam_id":76561199185303303,"connected_time":85000000000,"state":"connecting","ping":0},{"user_id":603,"name":"Bee_Pirate","steam_id":76561199000599111,"connected_time":4753000000000,"state":"active","ping":62},{"user_id":613,"name":"Lt. Hindsight","steam_id":76561198197744967,"connected_time":3315000000000,"state":"active","ping":57},{"user_id":602,"name":"[NAME-REDACTED]","steam_id":76561198035682975,"connected_time":4778000000000,"state":"active","ping":53},{"user_id":634,"name":"BlazingBuizel7","steam_id":76561199026199596,"connected_time":82000000000,"state":"active","ping":60}]},{"server_id":14,"name":"Uncletopia | New York City | 2 | All Maps","name_short":"nyc-2","host":"nyc-1.us.uncletopia.com","port":27025,"enabled":true,"region":"us-east","cc":"us","latitude":40.73061,"longitude":-73.93524,"reserved":0,"last_update":"0001-01-01T00:00:00Z","name_a2s":"Uncletopia | New York City | 2 | All Maps","protocol":17,"map":"pl_borneo","folder":"tf","game":"Team Fortress","app_id":440,"player_count":24,"max_players":24,"Bots":0,"server_type":"Dedicated","server_os":"Linux","password":true,"vac":true,"version":"7961495","steam_id":85568392924469994,"keywords":["nocrits","nodmgspread","payload","uncletopia"],"game_id":440,"stv_port":27026,"stv_name":"Uncletopia | New York City | 2 | All Maps | STV","players":[{"user_id":568,"name":"Braamklauw","steam_id":76561198283287697,"connected_time":8187000000000,"state":"active","ping":151},{"user_id":659,"name":"hashmap","steam_id":76561198043794014,"connected_time":1951000000000,"state":"active","ping":61},{"user_id":626,"name":"Peepster","steam_id":76561198297854733,"connected_time":4693000000000,"state":"active","ping":85},{"user_id":603,"name":"Pozyomka","steam_id":76561198086331015,"connected_time":5997000000000,"state":"active","ping":34},{"user_id":602,"name":"milk","steam_id":76561198813251405,"connected_time":6008000000000,"state":"active","ping":54},{"user_id":667,"name":"METAL FINGERS - Coltsfoot Leaf.","steam_id":76561198294013916,"connected_time":1543000000000,"state":"active","ping":48},{"user_id":654,"name":"Dot.","steam_id":76561198149463984,"connected_time":2485000000000,"state":"active","ping":37},{"user_id":671,"name":"A Puppy","steam_id":76561198828184456,"connected_time":1269000000000,"state":"active","ping":47},{"user_id":652,"name":"Lumi","steam_id":76561198089978036,"connected_time":2846000000000,"state":"active","ping":56},{"user_id":660,"name":"fazecumshot69","steam_id":76561199248475270,"connected_time":1939000000000,"state":"active","ping":71},{"user_id":650,"name":"space man","steam_id":76561198066333670,"connected_time":3252000000000,"state":"active","ping":59},{"user_id":661,"name":"menonamed","steam_id":76561198199564382,"connected_time":1921000000000,"state":"active","ping":57},{"user_id":672,"name":"v@$#","steam_id":76561198102681457,"connected_time":1225000000000,"state":"active","ping":76},{"user_id":678,"name":"High School Nudical","steam_id":76561198172120615,"connected_time":520000000000,"state":"active","ping":33},{"user_id":673,"name":"S-pin","steam_id":76561198195599518,"connected_time":1095000000000,"state":"active","ping":77},{"user_id":636,"name":"flappyflap2","steam_id":76561198285048973,"connected_time":4229000000000,"state":"active","ping":44},{"user_id":679,"name":"Osteo-Oligarch","steam_id":76561198164731896,"connected_time":322000000000,"state":"active","ping":81},{"user_id":644,"name":"she","steam_id":76561197994492154,"connected_time":3613000000000,"state":"active","ping":146},{"user_id":665,"name":"buppy (red panda)","steam_id":76561198354284591,"connected_time":1846000000000,"state":"active","ping":68},{"user_id":666,"name":"Clavicle Man","steam_id":76561198035007057,"connected_time":1778000000000,"state":"active","ping":134},{"user_id":657,"name":"saurhead","steam_id":76561198132937722,"connected_time":2416000000000,"state":"active","ping":45},{"user_id":640,"name":"Coop","steam_id":76561198042839356,"connected_time":4117000000000,"state":"active","ping":71},{"user_id":643,"name":"Sir Quacksalot","steam_id":76561198048942777,"connected_time":3654000000000,"state":"active","ping":95},{"user_id":680,"name":"Matlock","steam_id":76561198012092071,"connected_time":121000000000,"state":"active","ping":61}]},{"server_id":15,"name":"Uncletopia | New York City | 3 | Stopwatch","name_short":"nyc-3","host":"nyc-1.us.uncletopia.com","port":27035,"enabled":true,"region":"us-east","cc":"us","latitude":40.73061,"longitude":-73.93524,"reserved":0,"last_update":"0001-01-01T00:00:00Z","name_a2s":"Uncletopia | New York City | 3 | Stopwatch","protocol":17,"map":"cp_snakewater_final1","folder":"tf","game":"Team Fortress","app_id":440,"player_count":9,"max_players":24,"Bots":0,"server_type":"Dedicated","server_os":"Linux","password":true,"vac":true,"version":"7961495","steam_id":85568392924742820,"keywords":["cp","nocrits","nodmgspread","uncletopia"],"game_id":440,"stv_port":27036,"stv_name":"Uncletopia | New York City | 3 | Stopwatch | STV","players":[{"user_id":697,"name":"Inevitable","steam_id":76561198210050169,"connected_time":329000000000,"state":"active","ping":38},{"user_id":698,"name":"sloth (be nice im cringe)","steam_id":76561198047098172,"connected_time":245000000000,"state":"active","ping":61},{"user_id":670,"name":"‚ô• mastercoms ‚ô•","steam_id":76561198046110893,"connected_time":2512000000000,"state":"active","ping":45},{"user_id":691,"name":"Spicey","steam_id":76561198039548756,"connected_time":1342000000000,"state":"active","ping":58},{"user_id":671,"name":"‚ô• alixei! ‚ô•","steam_id":76561198014557455,"connected_time":2508000000000,"state":"active","ping":81},{"user_id":699,"name":"majorbobfunction","steam_id":76561198042464632,"connected_time":180000000000,"state":"active","ping":74},{"user_id":683,"name":"AutisticMOFO","steam_id":76561198428723559,"connected_time":2090000000000,"state":"active","ping":49},{"user_id":594,"name":"pnut","steam_id":76561198043862737,"connected_time":7425000000000,"state":"active","ping":37},{"user_id":680,"name":"Vaude","steam_id":76561198369187511,"connected_time":2274000000000,"state":"active","ping":52}]},{"server_id":16,"name":"Uncletopia | New York City | 4 | Community","name_short":"nyc-4","host":"nyc-1.us.uncletopia.com","port":27045,"enabled":true,"region":"us-east","cc":"us","latitude":40.73061,"longitude":-73.93524,"reserved":0,"last_update":"0001-01-01T00:00:00Z","name_a2s":"Uncletopia | New York City | 4 | Community","protocol":17,"map":"workshop/cp_fulgur_rc2a.ugc2068252300","folder":"tf","game":"Team Fortress","app_id":440,"player_count":8,"max_players":24,"Bots":0,"server_type":"Dedicated","server_os":"Linux","password":true,"vac":true,"version":"7961495","steam_id":85568392924742821,"keywords":["cp","nocrits","nodmgspread","uncletopia"],"game_id":440,"stv_port":27046,"stv_name":"Uncletopia | New York City | 4 | Community | STV","players":[{"user_id":53,"name":"jyp","steam_id":76561198208382525,"connected_time":2198000000000,"state":"active","ping":68},{"user_id":65,"name":"NotAfraidOfSpiders","steam_id":76561199043160196,"connected_time":18000000000,"state":"spawning","ping":196},{"user_id":55,"name":"Heroman","steam_id":76561199093371976,"connected_time":2083000000000,"state":"active","ping":60},{"user_id":56,"name":"3nd1ess","steam_id":76561198201909950,"connected_time":1908000000000,"state":"active","ping":71},{"user_id":64,"name":"enderhendrix","steam_id":76561198124206574,"connected_time":136000000000,"state":"active","ping":56},{"user_id":60,"name":"hops_a_pops","steam_id":76561198210902109,"connected_time":1578000000000,"state":"active","ping":78},{"user_id":61,"name":"Beacon Of Hope","steam_id":76561198990109475,"connected_time":1549000000000,"state":"active","ping":121},{"user_id":62,"name":"pinkwkid","steam_id":76561198111761941,"connected_time":1500000000000,"state":"active","ping":39}]},{"server_id":142,"name":"Uncletopia | S√£o Paulo | 1 | All Maps","name_short":"sao-1","host":"sao-1.br.uncletopia.com","port":27015,"enabled":true,"region":"sa","cc":"br","latitude":-23.533773,"longitude":-46.62529,"reserved":0,"last_update":"0001-01-01T00:00:00Z","name_a2s":"Uncletopia | S√£o Paulo | 1 | All Maps","protocol":17,"map":"pl_badwater","folder":"tf","game":"Team Fortress","app_id":440,"player_count":0,"max_players":24,"Bots":0,"server_type":"Dedicated","server_os":"Linux","password":true,"vac":true,"version":"7961495","steam_id":85568392924469996,"keywords":["nocrits","nodmgspread","payload","uncletopia"],"game_id":440,"stv_port":27016,"stv_name":"Uncletopia | S√£o Paulo | 1 | All Maps | STV","players":null},{"server_id":143,"name":"Uncletopia | S√£o Paulo | 2 | Community","name_short":"sao-2","host":"sao-2.br.uncletopia.com","port":27015,"enabled":true,"region":"sa","cc":"br","latitude":-23.533773,"longitude":-46.62529,"reserved":0,"last_update":"0001-01-01T00:00:00Z","name_a2s":"Uncletopia | S√£o Paulo | 2 | Community","protocol":17,"map":"workshop/koth_product_final.ugc454272353","folder":"tf","game":"Team Fortress","app_id":440,"player_count":1,"max_players":24,"Bots":0,"server_type":"Dedicated","server_os":"Linux","password":true,"vac":true,"version":"7961495","steam_id":85568392924485349,"keywords":["cp","nocrits","nodmgspread","uncletopia"],"game_id":440,"stv_port":27016,"stv_name":"Uncletopia | S√£o Paulo | 2 | Community | STV","players":[{"user_id":40,"name":"nickels and limes","steam_id":76561198080067715,"connected_time":138000000000,"state":"active","ping":172}]},{"server_id":7,"name":"Uncletopia | Seattle | 1 | All Maps","name_short":"sea-1","host":"sea-1.us.uncletopia.com","port":27015,"enabled":true,"region":"us-west","cc":"us","latitude":47.608013,"longitude":-122.33517,"reserved":0,"last_update":"0001-01-01T00:00:00Z","name_a2s":"Uncletopia | Seattle | 1 | All Maps","protocol":17,"map":"koth_highpass","folder":"tf","game":"Team Fortress","app_id":440,"player_count":24,"max_players":24,"Bots":0,"server_type":"Dedicated","server_os":"Linux","password":true,"vac":true,"version":"7961495","steam_id":85568392924469997,"keywords":["cp","nocrits","nodmgspread","uncletopia"],"game_id":440,"stv_port":27016,"stv_name":"Uncletopia | Seattle | 1 | All Maps | STV","players":[{"user_id":638,"name":"Gm_Trash","steam_id":76561199445091548,"connected_time":4502000000000,"state":"active","ping":53},{"user_id":663,"name":"DORK","steam_id":76561198037384555,"connected_time":2113000000000,"state":"active","ping":65},{"user_id":666,"name":"Blanke","steam_id":76561198064100364,"connected_time":2018000000000,"state":"active","ping":103},{"user_id":690,"name":"Freddi Fish owes me $5","steam_id":76561198112705880,"connected_time":45000000000,"state":"spawning","ping":59},{"user_id":630,"name":"Ayayayayayahuasca","steam_id":76561199002906056,"connected_time":5605000000000,"state":"active","ping":47},{"user_id":683,"name":"NEBULA","steam_id":76561198086878595,"connected_time":836000000000,"state":"active","ping":66},{"user_id":646,"name":"Sacrificial Wormy","steam_id":76561198054539200,"connected_time":3842000000000,"state":"active","ping":45},{"user_id":648,"name":"Neophyte","steam_id":76561198027183394,"connected_time":3788000000000,"state":"active","ping":87},{"user_id":654,"name":"slushy :))","steam_id":76561198135281802,"connected_time":3017000000000,"state":"active","ping":32},{"user_id":679,"name":"piipy :))","steam_id":76561198450073779,"connected_time":1066000000000,"state":"active","ping":41},{"user_id":676,"name":"grape","steam_id":76561199071151136,"connected_time":1157000000000,"state":"active","ping":72},{"user_id":677,"name":"Sleuth","steam_id":76561198418288939,"connected_time":1152000000000,"state":"active","ping":61},{"user_id":682,"name":"The King of Piss World","steam_id":76561198082806956,"connected_time":968000000000,"state":"active","ping":142},{"user_id":678,"name":"Kazoo","steam_id":76561199229748300,"connected_time":1107000000000,"state":"active","ping":76},{"user_id":623,"name":"Peppy","steam_id":76561198866629645,"connected_time":5958000000000,"state":"active","ping":54},{"user_id":695,"name":"a cat plushie","steam_id":76561198080046542,"connected_time":11000000000,"state":"active","ping":54},{"user_id":691,"name":"Blocknight","steam_id":76561198039700915,"connected_time":34000000000,"state":"active","ping":66},{"user_id":685,"name":"Skabbety","steam_id":76561198168044257,"connected_time":533000000000,"state":"active","ping":35},{"user_id":693,"name":"ilun","steam_id":76561198042913843,"connected_time":18000000000,"state":"active","ping":51},{"user_id":692,"name":"William P. Ennis","steam_id":76561198073464877,"connected_time":23000000000,"state":"active","ping":100},{"user_id":672,"name":"Sniff","steam_id":76561198010270922,"connected_time":1801000000000,"state":"active","ping":66},{"user_id":673,"name":"rushy :))","steam_id":76561198065825165,"connected_time":1714000000000,"state":"active","ping":118},{"user_id":694,"name":"quesoengineer","steam_id":76561199371985209,"connected_time":16000000000,"state":"active","ping":131},{"user_id":687,"name":"El Gato Paranoico","steam_id":76561198116567116,"connected_time":327000000000,"state":"active","ping":139}]},{"server_id":119,"name":"Uncletopia | Seattle | 2 | All Maps","name_short":"sea-2","host":"sea-1.us.uncletopia.com","port":27025,"enabled":true,"region":"us-west","cc":"us","latitude":47.608013,"longitude":-122.33517,"reserved":0,"last_update":"0001-01-01T00:00:00Z","name_a2s":"Uncletopia | Seattle | 2 | All Maps","protocol":17,"map":"pl_frontier_final","folder":"tf","game":"Team Fortress","app_id":440,"player_count":24,"max_players":24,"Bots":0,"server_type":"Dedicated","server_os":"Linux","password":true,"vac":true,"version":"7961495","steam_id":85568392924469998,"keywords":["nocrits","nodmgspread","payload","uncletopia"],"game_id":440,"stv_port":27026,"stv_name":"Uncletopia | Seattle | 2 | All Maps | STV","players":[{"user_id":417,"name":"rad killl raccoon","steam_id":76561198980975595,"connected_time":202000000000,"state":"active","ping":51},{"user_id":392,"name":"Blu","steam_id":76561198011675372,"connected_time":949000000000,"state":"active","ping":46},{"user_id":387,"name":"Eurobeat too loud, can't hear :","steam_id":76561198330743199,"connected_time":1491000000000,"state":"active","ping":61},{"user_id":400,"name":"Gibus Man","steam_id":76561198257241062,"connected_time":615000000000,"state":"active","ping":39},{"user_id":401,"name":"SaintNick","steam_id":76561199227502520,"connected_time":588000000000,"state":"active","ping":54},{"user_id":395,"name":"thebeast","steam_id":76561198255963049,"connected_time":845000000000,"state":"active","ping":49},{"user_id":406,"name":"Dallas","steam_id":76561198066542919,"connected_time":377000000000,"state":"active","ping":45},{"user_id":402,"name":"shivertron","steam_id":76561198330419627,"connected_time":513000000000,"state":"active","ping":51},{"user_id":396,"name":"DrD","steam_id":76561198067266383,"connected_time":827000000000,"state":"active","ping":38},{"user_id":418,"name":"The local hobo","steam_id":76561198289650060,"connected_time":122000000000,"state":"active","ping":72},{"user_id":391,"name":"mooney","steam_id":76561199110622484,"connected_time":985000000000,"state":"active","ping":62},{"user_id":407,"name":"Petrivus","steam_id":76561198202152453,"connected_time":353000000000,"state":"active","ping":43},{"user_id":404,"name":"Emerald Blaziken","steam_id":76561198821943366,"connected_time":490000000000,"state":"active","ping":46},{"user_id":408,"name":"The Horny","steam_id":76561198863639459,"connected_time":333000000000,"state":"active","ping":193},{"user_id":409,"name":"The Grim Heaper","steam_id":76561197987759101,"connected_time":324000000000,"state":"active","ping":46},{"user_id":419,"name":"Nyx","steam_id":76561199010550945,"connected_time":101000000000,"state":"active","ping":46},{"user_id":411,"name":"thom yorke official","steam_id":76561198361382279,"connected_time":292000000000,"state":"active","ping":44},{"user_id":412,"name":"strawberry","steam_id":76561198101926397,"connected_time":289000000000,"state":"active","ping":98},{"user_id":385,"name":"a festive sooley","steam_id":76561198134500189,"connected_time":1857000000000,"state":"active","ping":108},{"user_id":414,"name":"cran","steam_id":76561198178840075,"connected_time":271000000000,"state":"active","ping":76},{"user_id":415,"name":"Jimjonjoe","steam_id":76561199195695913,"connected_time":261000000000,"state":"active","ping":94},{"user_id":381,"name":"hoOmIN","steam_id":76561198334947079,"connected_time":2293000000000,"state":"active","ping":73},{"user_id":416,"name":"TarSenpai","steam_id":76561199292143353,"connected_time":250000000000,"state":"active","ping":70},{"user_id":420,"name":"usmnt==chokers","steam_id":76561198043456370,"connected_time":62000000000,"state":"active","ping":30}]},{"server_id":406,"name":"Uncletopia | Seattle | 3 | Stopwatch","name_short":"sea-3","host":"sea-1.us.uncletopia.com","port":27035,"enabled":true,"region":"us-west","cc":"us","latitude":47.608013,"longitude":-122.33517,"reserved":0,"last_update":"0001-01-01T00:00:00Z","name_a2s":"Uncletopia | Seattle | 3 | Stopwatch","protocol":17,"map":"workshop/koth_product_final.ugc454272353","folder":"tf","game":"Team Fortress","app_id":440,"player_count":0,"max_players":24,"Bots":0,"server_type":"Dedicated","server_os":"Linux","password":true,"vac":true,"version":"7961495","steam_id":85568392924515217,"keywords":["cp","nocrits","nodmgspread","uncletopia"],"game_id":440,"stv_port":27036,"stv_name":"Uncletopia | Seattle | 3 | Stopwatch | STV","players":null},{"server_id":17,"name":"Uncletopia | San Francisco | 1 | All Maps","name_short":"sfo-1","host":"sfo-1.us.uncletopia.com","port":27015,"enabled":true,"region":"us-west","cc":"us","latitude":37.77397,"longitude":-122.4313,"reserved":0,"last_update":"0001-01-01T00:00:00Z","name_a2s":"Uncletopia | San Francisco | 1 | All Maps","protocol":17,"map":"cp_gullywash_final1","folder":"tf","game":"Team Fortress","app_id":440,"player_count":24,"max_players":24,"Bots":0,"server_type":"Dedicated","server_os":"Linux","password":true,"vac":true,"version":"7961495","steam_id":85568392924469999,"keywords":["cp","nocrits","nodmgspread","uncletopia"],"game_id":440,"stv_port":27016,"stv_name":"Uncletopia | San Francisco | 1 | All Maps | STV","players":[{"user_id":466,"name":"Burks","steam_id":76561198134813531,"connected_time":968000000000,"state":"active","ping":114},{"user_id":456,"name":"Antzen","steam_id":76561198041343470,"connected_time":1812000000000,"state":"active","ping":59},{"user_id":461,"name":"Drake from State Farm","steam_id":76561199069029812,"connected_time":1379000000000,"state":"active","ping":57},{"user_id":439,"name":"StrayGuitarist","steam_id":76561198091315714,"connected_time":2581000000000,"state":"active","ping":45},{"user_id":392,"name":"Crudiety","steam_id":76561198880223365,"connected_time":5272000000000,"state":"active","ping":63},{"user_id":411,"name":"‚ú´P‚àÄnck‚àà‚ú´","steam_id":76561198050163618,"connected_time":4591000000000,"state":"active","ping":49},{"user_id":331,"name":"Gerbias","steam_id":76561198001002427,"connected_time":10402000000000,"state":"active","ping":61},{"user_id":467,"name":"CatLike Pigeon","steam_id":76561198171716030,"connected_time":925000000000,"state":"active","ping":86},{"user_id":481,"name":"Higuma","steam_id":76561198375229012,"connected_time":339000000000,"state":"active","ping":55},{"user_id":484,"name":"Starkiller","steam_id":76561198101643120,"connected_time":195000000000,"state":"active","ping":73},{"user_id":486,"name":"Bestmaster202","steam_id":76561198235282680,"connected_time":122000000000,"state":"active","ping":54},{"user_id":473,"name":"doro","steam_id":76561198099041747,"connected_time":611000000000,"state":"active","ping":55},{"user_id":465,"name":"checkswing","steam_id":76561198999816132,"connected_time":1033000000000,"state":"active","ping":131},{"user_id":470,"name":"Rock Kickass","steam_id":76561198450510841,"connected_time":885000000000,"state":"active","ping":87},{"user_id":474,"name":"DesertFroggo","steam_id":76561198015607829,"connected_time":601000000000,"state":"active","ping":98},{"user_id":475,"name":"KiwifruitDev","steam_id":76561198042912823,"connected_time":533000000000,"state":"active","ping":58},{"user_id":485,"name":"rhinorun","steam_id":76561198043324837,"connected_time":182000000000,"state":"active","ping":56},{"user_id":477,"name":"Chainsonic","steam_id":76561198344179047,"connected_time":465000000000,"state":"active","ping":183},{"user_id":478,"name":"‚ú™ Y V E S","steam_id":76561198299479796,"connected_time":424000000000,"state":"active","ping":47},{"user_id":445,"name":"Perfectly Generic Object","steam_id":76561198992039900,"connected_time":2538000000000,"state":"active","ping":83},{"user_id":446,"name":"shitass (Reaping and Sowing)","steam_id":76561198210572481,"connected_time":2536000000000,"state":"active","ping":53},{"user_id":455,"name":"Tinygeracl","steam_id":76561199031313437,"connected_time":1925000000000,"state":"active","ping":73},{"user_id":479,"name":"Carl","steam_id":76561198130094007,"connected_time":419000000000,"state":"active","ping":103},{"user_id":482,"name":"6.5 In/360¬∞","steam_id":76561198889997809,"connected_time":274000000000,"state":"active","ping":71}]},{"server_id":18,"name":"Uncletopia | San Francisco | 2 | All Maps","name_short":"sfo-2","host":"sfo-1.us.uncletopia.com","port":27025,"enabled":true,"region":"us-west","cc":"us","latitude":37.77397,"longitude":-122.4313,"reserved":0,"last_update":"0001-01-01T00:00:00Z","name_a2s":"Uncletopia | San Francisco | 2 | All Maps","protocol":17,"map":"koth_cascade","folder":"tf","game":"Team Fortress","app_id":440,"player_count":0,"max_players":24,"Bots":0,"server_type":"Dedicated","server_os":"Linux","password":true,"vac":true,"version":"7961495","steam_id":85568392924470000,"keywords":["cp","nocrits","nodmgspread","uncletopia"],"game_id":440,"stv_port":27026,"stv_name":"Uncletopia | San Francisco | 2 | All Maps | STV","players":null},{"server_id":19,"name":"Uncletopia | San Francisco | 3 | Stopwatch","name_short":"sfo-3","host":"sfo-1.us.uncletopia.com","port":27035,"enabled":true,"region":"us-west","cc":"us","latitude":37.77397,"longitude":-122.4313,"reserved":0,"last_update":"0001-01-01T00:00:00Z","name_a2s":"Uncletopia | San Francisco | 3 | Stopwatch","protocol":17,"map":"workshop/koth_ramjam_rc1.ugc459778887","folder":"tf","game":"Team Fortress","app_id":440,"player_count":0,"max_players":24,"Bots":0,"server_type":"Dedicated","server_os":"Linux","password":true,"vac":true,"version":"7961495","steam_id":85568392924742824,"keywords":["cp","nocrits","nodmgspread","uncletopia"],"game_id":440,"stv_port":27036,"stv_name":"Uncletopia | San Francisco | 3 | Stopwatch | STV","players":null},{"server_id":20,"name":"Uncletopia | San Francisco | 4 | Community","name_short":"sfo-4","host":"sfo-1.us.uncletopia.com","port":27045,"enabled":true,"region":"us-west","cc":"us","latitude":37.77397,"longitude":-122.4313,"reserved":0,"last_update":"0001-01-01T00:00:00Z","name_a2s":"Uncletopia | San Francisco | 4 | Community","protocol":17,"map":"workshop/cp_caldera_rc2.ugc2834196889","folder":"tf","game":"Team Fortress","app_id":440,"player_count":0,"max_players":24,"Bots":0,"server_type":"Dedicated","server_os":"Linux","password":true,"vac":true,"version":"7961495","steam_id":85568392924742826,"keywords":["cp","nocrits","nodmgspread","uncletopia"],"game_id":440,"stv_port":27046,"stv_name":"Uncletopia | San Francisco | 4 | Community | STV","players":null},{"server_id":141,"name":"Uncletopia | Sydney | 1 | All Maps","name_short":"syd-1","host":"syd-1.au.uncletopia.com","port":27015,"enabled":true,"region":"au","cc":"au","latitude":-33.865143,"longitude":151.2099,"reserved":0,"last_update":"0001-01-01T00:00:00Z","name_a2s":"Uncletopia | Sydney | 1 | All Maps","protocol":17,"map":"koth_viaduct","folder":"tf","game":"Team Fortress","app_id":440,"player_count":0,"max_players":24,"Bots":0,"server_type":"Dedicated","server_os":"Linux","password":true,"vac":true,"version":"7961495","steam_id":85568392924470001,"keywords":["cp","nocrits","nodmgspread","uncletopia"],"game_id":440,"stv_port":27016,"stv_name":"Uncletopia | Sydney | 1 | All Maps | STV","players":null},{"server_id":123,"name":"Uncletopia | Sydney | 2 | All Maps","name_short":"syd-2","host":"syd-1.au.uncletopia.com","port":27025,"enabled":true,"region":"au","cc":"au","latitude":-33.865143,"longitude":151.2099,"reserved":0,"last_update":"0001-01-01T00:00:00Z","name_a2s":"Uncletopia | Sydney | 2 | All Maps","protocol":17,"map":"koth_lakeside_final","folder":"tf","game":"Team Fortress","app_id":440,"player_count":0,"max_players":24,"Bots":0,"server_type":"Dedicated","server_os":"Linux","password":true,"vac":true,"version":"7961495","steam_id":85568392924470002,"keywords":["cp","nocrits","nodmgspread","uncletopia"],"game_id":440,"stv_port":27026,"stv_name":"Uncletopia | Sydney | 2 | All Maps | STV","players":null},{"server_id":395,"name":"Uncletopia | Sydney | 3 | All Maps","name_short":"syd-3","host":"syd-1.au.uncletopia.com","port":27035,"enabled":true,"region":"au","cc":"au","latitude":-33.865143,"longitude":151.2099,"reserved":0,"last_update":"0001-01-01T00:00:00Z","name_a2s":"Uncletopia | Sydney | 3 | All Maps","protocol":17,"map":"koth_cascade","folder":"tf","game":"Team Fortress","app_id":440,"player_count":0,"max_players":24,"Bots":0,"server_type":"Dedicated","server_os":"Linux","password":true,"vac":true,"version":"7961495","steam_id":85568392925194467,"keywords":["cp","nocrits","nodmgspread","uncletopia"],"game_id":440,"stv_port":27036,"stv_name":"Uncletopia | Sydney | 3 | All Maps | STV","players":null},{"server_id":396,"name":"Uncletopia | Sydney | 4 | All Maps","name_short":"syd-4","host":"syd-1.au.uncletopia.com","port":27045,"enabled":true,"region":"au","cc":"au","latitude":-33.865143,"longitude":151.2099,"reserved":0,"last_update":"0001-01-01T00:00:00Z","name_a2s":"Uncletopia | Sydney | 4 | All Maps","protocol":17,"map":"koth_lakeside_final","folder":"tf","game":"Team Fortress","app_id":440,"player_count":0,"max_players":24,"Bots":0,"server_type":"Dedicated","server_os":"Linux","password":true,"vac":true,"version":"7961495","steam_id":85568392925397958,"keywords":["cp","nocrits","nodmgspread","uncletopia"],"game_id":440,"stv_port":27046,"stv_name":"Uncletopia | Sydney | 4 | All Maps | STV","players":null},{"server_id":58,"name":"Uncletopia | Sydney | 5 | Stopwatch","name_short":"syd-5","host":"syd-1.au.uncletopia.com","port":27055,"enabled":true,"region":"au","cc":"au","latitude":-33.865143,"longitude":151.2099,"reserved":0,"last_update":"0001-01-01T00:00:00Z","name_a2s":"Uncletopia | Sydney | 5 | Stopwatch","protocol":17,"map":"workshop/pl_badwater_pro_v12.ugc2142942074","folder":"tf","game":"Team Fortress","app_id":440,"player_count":0,"max_players":24,"Bots":0,"server_type":"Dedicated","server_os":"Linux","password":true,"vac":true,"version":"7961495","steam_id":85568392925397959,"keywords":["nocrits","nodmgspread","payload","uncletopia"],"game_id":440,"stv_port":27056,"stv_name":"Uncletopia | Sydney | 5 | Stopwatch | STV","players":null},{"server_id":59,"name":"Uncletopia | Sydney | 6 | Community","name_short":"syd-6","host":"syd-1.au.uncletopia.com","port":27065,"enabled":true,"region":"au","cc":"au","latitude":-33.865143,"longitude":151.2099,"reserved":0,"last_update":"0001-01-01T00:00:00Z","name_a2s":"Uncletopia | Sydney | 6 | Community","protocol":17,"map":"workshop/koth_kemptown_rc1.ugc767410655","folder":"tf","game":"Team Fortress","app_id":440,"player_count":0,"max_players":24,"Bots":0,"server_type":"Dedicated","server_os":"Linux","password":true,"vac":true,"version":"7961495","steam_id":85568392925397960,"keywords":["cp","nocrits","nodmgspread","uncletopia"],"game_id":440,"stv_port":27066,"stv_name":"Uncletopia | Sydney | 6 | Community | STV","players":null},{"server_id":49,"name":"Uncletopia | Warsaw | 1 | All Maps","name_short":"waw-1","host":"waw-1.pl.uncletopia.com","port":27015,"enabled":true,"region":"eu","cc":"pl","latitude":52.2297,"longitude":21.017532,"reserved":0,"last_update":"0001-01-01T00:00:00Z","name_a2s":"Uncletopia | Warsaw | 1 | All Maps","protocol":17,"map":"pl_badwater","folder":"tf","game":"Team Fortress","app_id":440,"player_count":0,"max_players":24,"Bots":0,"server_type":"Dedicated","server_os":"Linux","password":true,"vac":true,"version":"7961495","steam_id":85568392925397850,"keywords":["nocrits","nodmgspread","payload","uncletopia"],"game_id":440,"stv_port":27016,"stv_name":"Uncletopia | Warsaw | 1 | All Maps | STV","players":null},{"server_id":50,"name":"Uncletopia | Warsaw | 2 | All Maps","name_short":"waw-2","host":"waw-1.pl.uncletopia.com","port":27025,"enabled":true,"region":"eu","cc":"pl","latitude":52.2297,"longitude":21.017532,"reserved":0,"last_update":"0001-01-01T00:00:00Z","name_a2s":"Uncletopia | Warsaw | 2 | All Maps","protocol":17,"map":"cp_mountainlab","folder":"tf","game":"Team Fortress","app_id":440,"player_count":0,"max_players":24,"Bots":0,"server_type":"Dedicated","server_os":"Linux","password":true,"vac":true,"version":"7961495","steam_id":85568392925397851,"keywords":["cp","nocrits","nodmgspread","uncletopia"],"game_id":440,"stv_port":27026,"stv_name":"Uncletopia | Warsaw | 2 | All Maps | STV","players":null},{"server_id":51,"name":"Uncletopia | Warsaw | 3 | All Maps","name_short":"waw-3","host":"waw-1.pl.uncletopia.com","port":27035,"enabled":true,"region":"eu","cc":"pl","latitude":52.2297,"longitude":21.017532,"reserved":0,"last_update":"0001-01-01T00:00:00Z","name_a2s":"Uncletopia | Warsaw | 3 | All Maps","protocol":17,"map":"cp_mountainlab","folder":"tf","game":"Team Fortress","app_id":440,"player_count":0,"max_players":24,"Bots":0,"server_type":"Dedicated","server_os":"Linux","password":true,"vac":true,"version":"7961495","steam_id":85568392925397852,"keywords":["cp","nocrits","nodmgspread","uncletopia"],"game_id":440,"stv_port":27036,"stv_name":"Uncletopia | Warsaw | 3 | All Maps | STV","players":null},{"server_id":52,"name":"Uncletopia | Warsaw | 4 | All Maps","name_short":"waw-4","host":"waw-1.pl.uncletopia.com","port":27045,"enabled":true,"region":"eu","cc":"pl","latitude":52.2297,"longitude":21.017532,"reserved":0,"last_update":"0001-01-01T00:00:00Z","name_a2s":"Uncletopia | Warsaw | 4 | All Maps","protocol":17,"map":"pl_barnblitz","folder":"tf","game":"Team Fortress","app_id":440,"player_count":0,"max_players":24,"Bots":0,"server_type":"Dedicated","server_os":"Linux","password":true,"vac":true,"version":"7961495","steam_id":85568392925397853,"keywords":["nocrits","nodmgspread","payload","uncletopia"],"game_id":440,"stv_port":27046,"stv_name":"Uncletopia | Warsaw | 4 | All Maps | STV","players":null},{"server_id":53,"name":"Uncletopia | Warsaw | 5 | Stopwatch","name_short":"waw-5","host":"waw-1.pl.uncletopia.com","port":27055,"enabled":true,"region":"eu","cc":"pl","latitude":52.2297,"longitude":21.017532,"reserved":0,"last_update":"0001-01-01T00:00:00Z","name_a2s":"Uncletopia | Warsaw | 5 | Stopwatch","protocol":17,"map":"workshop/cp_reckoner_rc6.ugc674719999","folder":"tf","game":"Team Fortress","app_id":440,"player_count":0,"max_players":24,"Bots":0,"server_type":"Dedicated","server_os":"Linux","password":true,"vac":true,"version":"7961495","steam_id":85568392925397854,"keywords":["cp","nocrits","nodmgspread","uncletopia"],"game_id":440,"stv_port":27056,"stv_name":"Uncletopia | Warsaw | 5 | Stopwatch | STV","players":null},{"server_id":54,"name":"Uncletopia | Warsaw | 6 | Community","name_short":"waw-6","host":"waw-1.pl.uncletopia.com","port":27065,"enabled":true,"region":"eu","cc":"pl","latitude":52.2297,"longitude":21.017532,"reserved":0,"last_update":"0001-01-01T00:00:00Z","name_a2s":"Uncletopia | Warsaw | 6 | Community","protocol":17,"map":"workshop/cp_hazyfort_rc6.ugc1365963729","folder":"tf","game":"Team Fortress","app_id":440,"player_count":0,"max_players":24,"Bots":0,"server_type":"Dedicated","server_os":"Linux","password":true,"vac":true,"version":"7961495","steam_id":85568392925397856,"keywords":["cp","nocrits","nodmgspread","uncletopia"],"game_id":440,"stv_port":27066,"stv_name":"Uncletopia | Warsaw | 6 | Community | STV","players":null}]}