{"status":true,"message":"","result":[{"server_id":9,"name":"Uncletopia | Atlanta | 1 | All Maps","name_short":"atl-1","host":"atl-1.us.uncletopia.com","port":27015,"enabled":true,"region":"us-east","cc":"us","latitude":33.753746,"longitude":-84.38633,"reserved":0,"last_update":"0001-01-01T00:00:00Z","name_a2s":"Uncletopia | Atlanta | 1 | All Maps","protocol":17,"map":"plr_hightower","folder":"tf","game":"Team Fortress","app_id":440,"player_count":0,"max_players":24,"Bots":0,"server_type":"Dedicated","server_os":"Linux","password":true,"vac":true,"version":"7961495","steam_id":85568392924469982,"keywords":["nocrits","nodmgspread","payload","uncletopia"],"game_id":440,"stv_port":27016,"stv_name":"Uncletopia | Atlanta | 1 | All Maps | STV","players":null},{"server_id":104,"name":"Uncletopia | Atlanta | 2 | All Maps","name_short":"atl-2","host":"atl-1.us.uncletopia.com","port":27025,"enabled":true,"region":"us-east","cc":"us","latitude":33.753746,"longitude":-84.38633,"reserved":0,"last_update":"0001-01-01T00:00:00Z","name_a2s":"Uncletopia | Atlanta | 2 | All Maps","protocol":17,"map":"koth_viaduct","folder":"tf","game":"Team Fortress","app_id":440,"player_count":0,"max_players":24,"Bots":0,"server_type":"Dedicated","server_os":"Linux","password":true,"vac":true,"version":"7961495","steam_id":85568392924469983,"keywords":["cp","nocrits","nodmgspread","uncletopia"],"game_id":440,"stv_port":27026,"stv_name":"Uncletopia | Atlanta | 2 | All Maps | STV","players":null},{"server_id":400,"name":"Uncletopia | Atlanta | 3 | Stopwatch","name_short":"atl-3","host":"atl-1.us.uncletopia.com","port":27035,"enabled":true,"region":"us-east","cc":"us","latitude":33.753746,"longitude":-84.38633,"reserved":0,"last_update":"0001-01-01T00:00:00Z","name_a2s":"Uncletopia | Atlanta | 3 | Stopwatch","protocol":17,"map":"koth_clearcut_b15","folder":"tf","game":"Team Fortress","app_id":440,"player_count":0,"max_players":24,"Bots":0,"server_type":"Dedicated","server_os":"Linux","password":true,"vac":true,"version":"7961495","steam_id":85568392924515187,"keywords":["cp","nocrits","nodmgspread","uncletopia"],"game_id":440,"stv_port":27036,"stv_name":"Uncletopia | Atlanta | 3 | Stopwatch | STV","players":null},{"server_id":401,"name":"Uncletopia | Atlanta | 4 | Community","name_short":"atl-4","host":"atl-1.us.uncletopia.com","port":27045,"enabled":true,"region":"us-east","cc":"us","latitude":33.753746,"longitude":-84.38633,"reserved":0,"last_update":"0001-01-01T00:00:00Z","name_a2s":"Uncletopia | Atlanta | 4 | Community","protocol":17,"map":"koth_product_final","folder":"tf","game":"Team Fortress","app_id":440,"player_count":0,"max_players":24,"Bots":0,"server_type":"Dedicated","server_os":"Linux","password":true,"vac":true,"version":"7961495","steam_id":85568392924515188,"keywords":["cp","nocrits","nodmgspread","uncletopia"],"game_id":440,"stv_port":27046,"stv_name":"Uncletopia | Atlanta | 4 | Community | STV","players":null},{"server_id":2,"name":"Uncletopia | Chicago | 1 | All Maps","name_short":"chi-1","host":"chi-1.us.uncletopia.com","port":27015,"enabled":true,"region":"us-central","cc":"us","latitude":41.881832,"longitude":-87.62318,"reserved":0,"last_update":"0001-01-01T00:00:00Z","name_a2s":"Uncletopia | Chicago | 1 | All Maps","protocol":17,"map":"pl_frontier_final","folder":"tf","game":"Team Fortress","app_id":440,"player_count":0,"max_players":24,"Bots":0,"server_type":"Dedicated","server_os":"Linux","password":true,"vac":true,"version":"7961495","steam_id":85568392924469984,"keywords":["nocrits","nodmgspread","payload","uncletopia"],"game_id":440,"stv_port":27016,"stv_name":"Uncletopia | Chicago | 1 | All Maps | STV","players":null},{"server_id":106,"name":"Uncletopia | Chicago | 2 | All Maps","name_short":"chi-2","host":"chi-1.us.uncletopia.com","port":27025,"enabled":true,"region":"us-central","cc":"us","latitude":41.881832,"longitude":-87.62318,"reserved":0,"last_update":"0001-01-01T00:00:00Z","name_a2s":"Uncletopia | Chicago | 2 | All Maps","protocol":17,"map":"cp_process_final","folder":"tf","game":"Team Fortress","app_id":440,"player_count":0,"max_players":24,"Bots":0,"server_type":"Dedicated","server_os":"Linux","password":true,"vac":true,"version":"7961495","steam_id":85568392924469985,"keywords":["cp","nocrits","nodmgspread","uncletopia"],"game_id":440,"stv_port":27026,"stv_name":"Uncletopia | Chicago | 2 | All Maps | STV","players":null},{"server_id":402,"name":"Uncletopia | Chicago | 3 | All Maps","name_short":"chi-3","host":"chi-1.us.uncletopia.com","port":27035,"enabled":true,"region":"us-central","cc":"us","latitude":41.881832,"longitude":-87.62318,"reserved":0,"last_update":"0001-01-01T00:00:00Z","name_a2s":"Uncletopia | Chicago | 3 | All Maps","protocol":17,"map":"cp_fastlane","folder":"tf","game":"Team Fortress","app_id":440,"player_count":0,"max_players":24,"Bots":0,"server_type":"Dedicated","server_os":"Linux","password":true,"vac":true,"version":"7961495","steam_id":85568392924515191,"keywords":["cp","nocrits","nodmgspread","uncletopia"],"game_id":440,"stv_port":27036,"stv_name":"Uncletopia | Chicago | 3 | All Maps | STV","players":null},{"server_id":403,"name":"Uncletopia | Chicago | 4 | All Maps","name_short":"chi-4","host":"chi-1.us.uncletopia.com","port":27045,"enabled":true,"region":"us-central","cc":"us","latitude":41.881832,"longitude":-87.62318,"reserved":0,"last_update":"0001-01-01T00:00:00Z","name_a2s":"Uncletopia | Chicago | 4 | All Maps","protocol":17,"map":"cp_mountainlab","folder":"tf","game":"Team Fortress","app_id":440,"player_count":0,"max_players":24,"Bots":0,"server_type":"Dedicated","server_os":"Linux","password":true,"vac":true,"version":"7961495","steam_id":85568392924515193,"keywords":["cp","nocrits","nodmgspread","uncletopia"],"game_id":440,"stv_port":27046,"stv_name":"Uncletopia | Chicago | 4 | All Maps | STV","players":null},{"server_id":36,"name":"Uncletopia | Chicago | 5 | All Maps","name_short":"chi-5","host":"chi-2.us.uncletopia.com","port":27015,"enabled":true,"region":"us-central","cc":"us","latitude":41.881832,"longitude":-87.62318,"reserved":0,"last_update":"0001-01-01T00:00:00Z","name_a2s":"Uncletopia | Chicago | 5 | All Maps","protocol":17,"map":"koth_highpass","folder":"tf","game":"Team Fortress","app_id":440,"player_count":0,"max_players":24,"Bots":0,"server_type":"Dedicated","server_os":"Linux","password":true,"vac":true,"version":"7961495","steam_id":85568392924866362,"keywords":["cp","nocrits","nodmgspread","uncletopia"],"game_id":440,"stv_port":27016,"stv_name":"Uncletopia | Chicago | 5 | All Maps | STV","players":null},{"server_id":37,"name":"Uncletopia | Chicago | 6 | All Maps","name_short":"chi-6","host":"chi-2.us.uncletopia.com","port":27025,"enabled":true,"region":"us-central","cc":"us","latitude":41.881832,"longitude":-87.62318,"reserved":0,"last_update":"0001-01-01T00:00:00Z","name_a2s":"Uncletopia | Chicago | 6 | All Maps","protocol":17,"map":"pl_badwater","folder":"tf","game":"Team Fortress","app_id":440,"player_count":24,"max_players":24,"Bots":0,"server_type":"Dedicated","server_os":"Linux","password":true,"vac":true,"version":"7961495","steam_id":85568392924866363,"keywords":["nocrits","nodmgspread","payload","uncletopia"],"game_id":440,"stv_port":27026,"stv_name":"Uncletopia | Chicago | 6 | All Maps | STV","players":[{"user_id":592,"name":"zpalmtree","steam_id":76561198134307620,"connected_time":4744000000000,"state":"active","ping":72},{"user_id":650,"name":"ultralisk52","steam_id":76561198051666604,"connected_time":1196000000000,"state":"active","ping":53},{"user_id":648,"name":"skaska4","steam_id":76561198080606141,"connected_time":1231000000000,"state":"active","ping":108},{"user_id":621,"name":"onion","steam_id":76561198242311084,"connected_time":2296000000000,"state":"active","ping":69},{"user_id":635,"name":"Zach from Deadly Premonition","steam_id":76561198007464245,"connected_time":1654000000000,"state":"active","ping":75},{"user_id":637,"name":"pinkytoe","steam_id":76561198254052870,"connected_time":1506000000000,"state":"active","ping":56},{"user_id":636,"name":"fiveclap","steam_id":76561198369240034,"connected_time":1644000000000,"state":"active","ping":73},{"user_id":628,"name":"Metacarfoe","steam_id":76561198236016496,"connected_time":1724000000000,"state":"active","ping":60},{"user_id":622,"name":"There is a hot muffler up my as","steam_id":76561198213863907,"connected_time":2279000000000,"state":"active","ping":133},{"user_id":605,"name":"Mufalito","steam_id":76561198951889482,"connected_time":3826000000000,"state":"active","ping":133},{"user_id":654,"name":"Abysmal_Psycho","steam_id":76561198055295311,"connected_time":475000000000,"state":"active","ping":56},{"user_id":639,"name":"K","steam_id":76561198171446177,"connected_time":1484000000000,"state":"active","ping":101},{"user_id":626,"name":"kuani","steam_id":76561199061380038,"connected_time":2151000000000,"state":"active","ping":75},{"user_id":652,"name":"PBxJAY","steam_id":76561198402471788,"connected_time":525000000000,"state":"active","ping":127},{"user_id":656,"name":"wicc","steam_id":76561198893915644,"connected_time":467000000000,"state":"active","ping":164},{"user_id":602,"name":"phantom","steam_id":76561197963860777,"connected_time":4502000000000,"state":"active","ping":67},{"user_id":641,"name":"Shrebbie","steam_id":76561198875230824,"connected_time":1441000000000,"state":"active","ping":58},{"user_id":614,"name":"chud smoker","steam_id":76561198120973162,"connected_time":2583000000000,"state":"active","ping":72},{"user_id":642,"name":"Reisen Udongein Inaba","steam_id":76561198051082314,"connected_time":1415000000000,"state":"active","ping":105},{"user_id":643,"name":"Junko","steam_id":76561198146089003,"connected_time":1408000000000,"state":"active","ping":60},{"user_id":644,"name":"CowardicePrevails","steam_id":76561198145199545,"connected_time":1398000000000,"state":"active","ping":77},{"user_id":645,"name":"qool guy","steam_id":76561198064758306,"connected_time":1387000000000,"state":"active","ping":75},{"user_id":629,"name":"Epifiny","steam_id":76561198027958086,"connected_time":1717000000000,"state":"active","ping":72},{"user_id":651,"name":"Azerevor","steam_id":76561198042800360,"connected_time":1179000000000,"state":"active","ping":119}]},{"server_id":38,"name":"Uncletopia | Chicago | 7 | Stopwatch","name_short":"chi-7","host":"chi-2.us.uncletopia.com","port":27035,"enabled":true,"region":"us-central","cc":"us","latitude":41.881832,"longitude":-87.62318,"reserved":0,"last_update":"0001-01-01T00:00:00Z","name_a2s":"Uncletopia | Chicago | 7 | Stopwatch","protocol":17,"map":"koth_highpass","folder":"tf","game":"Team Fortress","app_id":440,"player_count":0,"max_players":24,"Bots":0,"server_type":"Dedicated","server_os":"Linux","password":true,"vac":true,"version":"7961495","steam_id":85568392924866364,"keywords":["cp","nocrits","nodmgspread","uncletopia"],"game_id":440,"stv_port":27036,"stv_name":"Uncletopia | Chicago | 7 | Stopwatch | STV","players":null},{"server_id":39,"name":"Uncletopia | Chicago | 8 | Community","name_short":"chi-8","host":"chi-2.us.uncletopia.com","port":27045,"enabled":true,"region":"us-central","cc":"us","latitude":41.881832,"longitude":-87.62318,"reserved":0,"last_update":"0001-01-01T00:00:00Z","name_a2s":"Uncletopia | Chicago | 8 | Community","protocol":17,"map":"workshop/koth_kemptown_rc1.ugc767410655","folder":"tf","game":"Team Fortress","app_id":440,"player_count":0,"max_players":24,"Bots":0,"server_type":"Dedicated","server_os":"Linux","password":true,"vac":true,"version":"7961495","steam_id":85568392924866365,"keywords":["cp","nocrits","nodmgspread","uncletopia"],"game_id":440,"stv_port":27046,"stv_name":"Uncletopia | Chicago | 8 | Community | STV","players":null},{"server_id":8,"name":"Uncletopia | Dallas | 1 | All Maps","name_short":"dal-1","host":"dal-1.us.uncletopia.com","port":27015,"enabled":true,"region":"us-central","cc":"us","latitude":32.779167,"longitude":-96.80889,"reserved":0,"last_update":"0001-01-01T00:00:00Z","name_a2s":"Uncletopia | Dallas | 1 | All Maps","protocol":17,"map":"pl_frontier_final","folder":"tf","game":"Team Fortress","app_id":440,"player_count":24,"max_players":24,"Bots":0,"server_type":"Dedicated","server_os":"Linux","password":true,"vac":true,"version":"7961495","steam_id":85568392924469986,"keywords":["nocrits","nodmgspread","payload","uncletopia"],"game_id":440,"stv_port":27016,"stv_name":"Uncletopia | Dallas | 1 | All Maps | STV","players":[{"user_id":734,"name":"Tomoko2001","steam_id":76561198047117990,"connected_time":3765000000000,"state":"active","ping":69},{"user_id":754,"name":"fish","steam_id":76561198878380917,"connected_time":1300000000000,"state":"active","ping":72},{"user_id":749,"name":"Worthless + Delusional","steam_id":76561198180484659,"connected_time":1430000000000,"state":"active","ping":93},{"user_id":724,"name":"Sunny","steam_id":76561198261667312,"connected_time":4052000000000,"state":"active","ping":106},{"user_id":748,"name":"Congcrab","steam_id":76561198078687685,"connected_time":1490000000000,"state":"active","ping":97},{"user_id":750,"name":"ElectronX","steam_id":76561198116034988,"connected_time":1424000000000,"state":"active","ping":253},{"user_id":751,"name":"Shochu Fiend","steam_id":76561198055193376,"connected_time":1418000000000,"state":"active","ping":143},{"user_id":705,"name":"Will5550","steam_id":76561198273838135,"connected_time":5898000000000,"state":"active","ping":48},{"user_id":725,"name":"e doctor","steam_id":76561198081851446,"connected_time":3973000000000,"state":"active","ping":72},{"user_id":726,"name":"Nipperman","steam_id":76561198001767499,"connected_time":3947000000000,"state":"active","ping":68},{"user_id":744,"name":"firetruck","steam_id":76561198074188404,"connected_time":2962000000000,"state":"active","ping":74},{"user_id":743,"name":"Morthos_Dretchsticke","steam_id":76561199050069175,"connected_time":3488000000000,"state":"active","ping":92},{"user_id":729,"name":"skrill issue","steam_id":76561198104086771,"connected_time":3911000000000,"state":"active","ping":77},{"user_id":752,"name":"BlancaLamb","steam_id":76561198025646073,"connected_time":1418000000000,"state":"active","ping":79},{"user_id":741,"name":"Luxcraz","steam_id":76561198035278349,"connected_time":3550000000000,"state":"active","ping":85},{"user_id":731,"name":"yung trap shawty","steam_id":76561197999132307,"connected_time":3878000000000,"state":"active","ping":59},{"user_id":736,"name":"✧333","steam_id":76561198365397472,"connected_time":3637000000000,"state":"active","ping":60},{"user_id":733,"name":"Alcohol Hominid","steam_id":76561198320313950,"connected_time":3852000000000,"state":"active","ping":65},{"user_id":738,"name":"Kirbwash","steam_id":76561198097300437,"connected_time":3614000000000,"state":"active","ping":75},{"user_id":756,"name":"Drapph","steam_id":76561199384213314,"connected_time":364000000000,"state":"active","ping":92},{"user_id":742,"name":"Samsung Smart Fridge","steam_id":76561198073468244,"connected_time":3548000000000,"state":"active","ping":76},{"user_id":628,"name":"shitass (Reaping and Sowing)","steam_id":76561198210572481,"connected_time":11921000000000,"state":"active","ping":60},{"user_id":740,"name":"captainspatklz","steam_id":76561198432167270,"connected_time":3587000000000,"state":"active","ping":72},{"user_id":674,"name":"Freddy Fazbear","steam_id":76561198936412406,"connected_time":8426000000000,"state":"active","ping":83}]},{"server_id":108,"name":"Uncletopia | Dallas | 2 | All Maps","name_short":"dal-2","host":"dal-1.us.uncletopia.com","port":27025,"enabled":true,"region":"us-central","cc":"us","latitude":32.779167,"longitude":-96.80889,"reserved":0,"last_update":"0001-01-01T00:00:00Z","name_a2s":"Uncletopia | Dallas | 2 | All Maps","protocol":17,"map":"pl_borneo","folder":"tf","game":"Team Fortress","app_id":440,"player_count":0,"max_players":24,"Bots":0,"server_type":"Dedicated","server_os":"Linux","password":true,"vac":true,"version":"7961495","steam_id":85568392924469988,"keywords":["nocrits","nodmgspread","payload","uncletopia"],"game_id":440,"stv_port":27026,"stv_name":"Uncletopia | Dallas | 2 | All Maps | STV","players":null},{"server_id":404,"name":"Uncletopia | Dallas | 3 | All Maps","name_short":"dal-3","host":"dal-1.us.uncletopia.com","port":27035,"enabled":true,"region":"us-central","cc":"us","latitude":32.779167,"longitude":-96.80889,"reserved":0,"last_update":"0001-01-01T00:00:00Z","name_a2s":"Uncletopia | Dallas | 3 | All Maps","protocol":17,"map":"pl_borneo","folder":"tf","game":"Team Fortress","app_id":440,"player_count":24,"max_players":24,"Bots":0,"server_type":"Dedicated","server_os":"Linux","password":true,"vac":true,"version":"7961495","steam_id":85568392924515219,"keywords":["nocrits","nodmgspread","payload","uncletopia"],"game_id":440,"stv_port":27036,"stv_name":"Uncletopia | Dallas | 3 | All Maps | STV","players":[{"user_id":403,"name":"donn","steam_id":76561198113080083,"connected_time":56000000000,"state":"active","ping":86},{"user_id":399,"name":"Engideer","steam_id":76561198145733164,"connected_time":428000000000,"state":"active","ping":46},{"user_id":387,"name":"basilberry","steam_id":76561198145275937,"connected_time":1394000000000,"state":"active","ping":68},{"user_id":348,"name":"Bolbi","steam_id":76561198051811597,"connected_time":4476000000000,"state":"active","ping":86},{"user_id":386,"name":"[CTC] kooldan","steam_id":76561198136593625,"connected_time":1701000000000,"state":"active","ping":88},{"user_id":358,"name":"dodecadron","steam_id":76561198027397222,"connected_time":4069000000000,"state":"active","ping":106},{"user_id":376,"name":"Svepport","steam_id":76561198071373137,"connected_time":2444000000000,"state":"active","ping":62},{"user_id":389,"name":"He Come Down","steam_id":76561198232500756,"connected_time":1137000000000,"state":"active","ping":65},{"user_id":377,"name":"Dot.","steam_id":76561198149463984,"connected_time":2410000000000,"state":"active","ping":68},{"user_id":383,"name":"THE CUMEST LORD","steam_id":76561198061412592,"connected_time":2195000000000,"state":"active","ping":89},{"user_id":343,"name":"EvilPi99let","steam_id":76561197987243470,"connected_time":4782000000000,"state":"active","ping":80},{"user_id":402,"name":"The Grim Heaper","steam_id":76561197987759101,"connected_time":78000000000,"state":"active","ping":112},{"user_id":320,"name":"Sucks-At-Aiming","steam_id":76561198027487285,"connected_time":6473000000000,"state":"active","ping":81},{"user_id":360,"name":"SQU1DDY","steam_id":76561198027757551,"connected_time":3993000000000,"state":"active","ping":94},{"user_id":361,"name":"W1CKEDY","steam_id":76561198353447602,"connected_time":3989000000000,"state":"active","ping":102},{"user_id":398,"name":"Jezzus","steam_id":76561199289676387,"connected_time":638000000000,"state":"active","ping":61},{"user_id":379,"name":"Rotation","steam_id":76561198865324866,"connected_time":2287000000000,"state":"active","ping":69},{"user_id":401,"name":"Windows XP Startup Sound","steam_id":76561198034178841,"connected_time":296000000000,"state":"active","ping":89},{"user_id":380,"name":"AudaCD","steam_id":76561198202775853,"connected_time":2280000000000,"state":"active","ping":62},{"user_id":381,"name":"Adawnby","steam_id":76561198103057295,"connected_time":2238000000000,"state":"active","ping":56},{"user_id":394,"name":"Bryguy","steam_id":76561198092096120,"connected_time":1037000000000,"state":"active","ping":65},{"user_id":397,"name":"Archangel","steam_id":76561198020089542,"connected_time":669000000000,"state":"active","ping":56},{"user_id":395,"name":"Minchin52","steam_id":76561198043859747,"connected_time":967000000000,"state":"active","ping":78},{"user_id":400,"name":"ratboy","steam_id":76561198329865329,"connected_time":394000000000,"state":"active","ping":94}]},{"server_id":405,"name":"Uncletopia | Dallas | 4 | Community","name_short":"dal-4","host":"dal-1.us.uncletopia.com","port":27045,"enabled":true,"region":"us-central","cc":"us","latitude":32.779167,"longitude":-96.80889,"reserved":0,"last_update":"0001-01-01T00:00:00Z","name_a2s":"Uncletopia | Dallas | 4 | Community","protocol":17,"map":"workshop/koth_ashville_final.ugc2130459942","folder":"tf","game":"Team Fortress","app_id":440,"player_count":0,"max_players":24,"Bots":0,"server_type":"Dedicated","server_os":"Linux","password":true,"vac":true,"version":"7961495","steam_id":85568392924515220,"keywords":["cp","nocrits","nodmgspread","uncletopia"],"game_id":440,"stv_port":27046,"stv_name":"Uncletopia | Dallas | 4 | Community | STV","players":null},{"server_id":5,"name":"Uncletopia | Frankfurt | 1 | All Maps","name_short":"frk-1","host":"frk-1.de.uncletopia.com","port":27015,"enabled":true,"region":"eu","cc":"de","latitude":50.110924,"longitude":8.682127,"reserved":0,"last_update":"0001-01-01T00:00:00Z","name_a2s":"Uncletopia | Frankfurt | 1 | All Maps","protocol":17,"map":"koth_highpass","folder":"tf","game":"Team Fortress","app_id":440,"player_count":1,"max_players":24,"Bots":0,"server_type":"Dedicated","server_os":"Linux","password":true,"vac":true,"version":"7961495","steam_id":85568392924469989,"keywords":["cp","nocrits","nodmgspread","uncletopia"],"game_id":440,"stv_port":27016,"stv_name":"Uncletopia | Frankfurt | 1 | All Maps | STV","players":[{"user_id":9,"name":"Artificial.Ignorance","steam_id":76561198453090180,"connected_time":107000000000,"state":"active","ping":175}]},{"server_id":110,"name":"Uncletopia | Frankfurt | 2 | All Maps","name_short":"frk-2","host":"frk-1.de.uncletopia.com","port":27025,"enabled":true,"region":"eu","cc":"de","latitude":50.110924,"longitude":8.682127,"reserved":0,"last_update":"0001-01-01T00:00:00Z","name_a2s":"Uncletopia | Frankfurt | 2 | All Maps","protocol":17,"map":"cp_dustbowl","folder":"tf","game":"Team Fortress","app_id":440,"player_count":0,"max_players":24,"Bots":0,"server_type":"Dedicated","server_os":"Linux","password":true,"vac":true,"version":"7961495","steam_id":85568392924469990,"keywords":["cp","nocrits","nodmgspread","uncletopia"],"game_id":440,"stv_port":27026,"stv_name":"Uncletopia | Frankfurt | 2 | All Maps | STV","players":null},{"server_id":308,"name":"Uncletopia | Frankfurt | 3 | All Maps","name_short":"frk-3","host":"frk-1.de.uncletopia.com","port":27035,"enabled":true,"region":"eu","cc":"de","latitude":50.110924,"longitude":8.682127,"reserved":0,"last_update":"0001-01-01T00:00:00Z","name_a2s":"Uncletopia | Frankfurt | 3 | All Maps","protocol":17,"map":"pl_barnblitz","folder":"tf","game":"Team Fortress","app_id":440,"player_count":0,"max_players":24,"Bots":0,"server_type":"Dedicated","server_os":"Linux","password":true,"vac":true,"version":"7961495","steam_id":85568392924504274,"keywords":["nocrits","nodmgspread","payload","uncletopia"],"game_id":440,"stv_port":27036,"stv_name":"Uncletopia | Frankfurt | 3 | All Maps | STV","players":null},{"server_id":309,"name":"Uncletopia | Frankfurt | 4 | All Maps","name_short":"frk-4","host":"frk-1.de.uncletopia.com","port":27045,"enabled":true,"region":"eu","cc":"de","latitude":50.110924,"longitude":8.682127,"reserved":0,"last_update":"0001-01-01T00:00:00Z","name_a2s":"Uncletopia | Frankfurt | 4 | All Maps","protocol":17,"map":"koth_highpass","folder":"tf","game":"Team Fortress","app_id":440,"player_count":0,"max_players":24,"Bots":0,"server_type":"Dedicated","server_os":"Linux","password":true,"vac":true,"version":"7961495","steam_id":85568392924504275,"keywords":["cp","nocrits","nodmgspread","uncletopia"],"game_id":440,"stv_port":27046,"stv_name":"Uncletopia | Frankfurt | 4 | All Maps | STV","players":null},{"server_id":310,"name":"Uncletopia | Frankfurt | 5 | All Maps","name_short":"frk-5","host":"frk-1.de.uncletopia.com","port":27055,"enabled":true,"region":"eu","cc":"de","latitude":50.110924,"longitude":8.682127,"reserved":0,"last_update":"0001-01-01T00:00:00Z","name_a2s":"Uncletopia | Frankfurt | 5 | All Maps","protocol":17,"map":"pl_badwater","folder":"tf","game":"Team Fortress","app_id":440,"player_count":0,"max_players":24,"Bots":0,"server_type":"Dedicated","server_os":"Linux","password":true,"vac":true,"version":"7961495","steam_id":85568392924504277,"keywords":["nocrits","nodmgspread","payload","uncletopia"],"game_id":440,"stv_port":27056,"stv_name":"Uncletopia | Frankfurt | 5 | All Maps | STV","players":null},{"server_id":311,"name":"Uncletopia | Frankfurt | 6 | All Maps","name_short":"frk-6","host":"frk-1.de.uncletopia.com","port":27065,"enabled":true,"region":"eu","cc":"de","latitude":50.110924,"longitude":8.682127,"reserved":0,"last_update":"0001-01-01T00:00:00Z","name_a2s":"Uncletopia | Frankfurt | 6 | All Maps","protocol":17,"map":"cp_altitude","folder":"tf","game":"Team Fortress","app_id":440,"player_count":0,"max_players":24,"Bots":0,"server_type":"Dedicated","server_os":"Linux","password":true,"vac":true,"version":"7961495","steam_id":85568392924504278,"keywords":["cp","nocrits","nodmgspread","uncletopia"],"game_id":440,"stv_port":27066,"stv_name":"Uncletopia | Frankfurt | 6 | All Maps | STV","players":null},{"server_id":23,"name":"Uncletopia | Frankfurt | 7 | Stopwatch","name_short":"frk-7","host":"frk-1.de.uncletopia.com","port":27075,"enabled":true,"region":"eu","cc":"de","latitude":50.110924,"longitude":8.682127,"reserved":0,"last_update":"0001-01-01T00:00:00Z","name_a2s":"Uncletopia | Frankfurt | 7 | Stopwatch","protocol":17,"map":"pl_frontier_final","folder":"tf","game":"Team Fortress","app_id":440,"player_count":0,"max_players":24,"Bots":0,"server_type":"Dedicated","server_os":"Linux","password":true,"vac":true,"version":"7961495","steam_id":85568392924742827,"keywords":["nocrits","nodmgspread","payload","uncletopia"],"game_id":440,"stv_port":27076,"stv_name":"Uncletopia | Frankfurt | 7 | Stopwatch | STV","players":null},{"server_id":24,"name":"Uncletopia | Frankfurt | 8 | Community","name_short":"frk-8","host":"frk-1.de.uncletopia.com","port":27085,"enabled":true,"region":"eu","cc":"de","latitude":50.110924,"longitude":8.682127,"reserved":0,"last_update":"0001-01-01T00:00:00Z","name_a2s":"Uncletopia | Frankfurt | 8 | Community","protocol":17,"map":"cp_mountainlab","folder":"tf","game":"Team Fortress","app_id":440,"player_count":0,"max_players":24,"Bots":0,"server_type":"Dedicated","server_os":"Linux","password":true,"vac":true,"version":"7961495","steam_id":85568392924742828,"keywords":["cp","nocrits","nodmgspread","uncletopia"],"game_id":440,"stv_port":27086,"stv_name":"Uncletopia | Frankfurt | 8 | Community | STV","players":null},{"server_id":202,"name":"Uncletopia | Hong Kong | 1 | All Maps","name_short":"hgk-1","host":"hgk-1.hk.uncletopia.com","port":27015,"enabled":true,"region":"asia","cc":"hk","latitude":22.302711,"longitude":114.177216,"reserved":0,"last_update":"0001-01-01T00:00:00Z","name_a2s":"Uncletopia | Hong Kong | 1 | All Maps","protocol":17,"map":"pl_barnblitz","folder":"tf","game":"Team Fortress","app_id":440,"player_count":11,"max_players":24,"Bots":0,"server_type":"Dedicated","server_os":"Linux","password":true,"vac":true,"version":"7961495","steam_id":85568392924494504,"keywords":["nocrits","nodmgspread","payload","uncletopia"],"game_id":440,"stv_port":27016,"stv_name":"Uncletopia | Hong Kong | 1 | All Maps | STV","players":[{"user_id":35,"name":"im_0ff","steam_id":76561198339346695,"connected_time":3753000000000,"state":"active","ping":113},{"user_id":60,"name":"Dr. Piss Rat","steam_id":76561199074809838,"connected_time":691000000000,"state":"active","ping":67},{"user_id":53,"name":"Uncle Dane(real)","steam_id":76561199170105562,"connected_time":1579000000000,"state":"active","ping":63},{"user_id":31,"name":"R4nd0M__peRs0N","steam_id":76561198314687024,"connected_time":4110000000000,"state":"active","ping":119},{"user_id":64,"name":"死神","steam_id":76561198197120562,"connected_time":413000000000,"state":"active","ping":56},{"user_id":62,"name":"screaming sniper","steam_id":76561199085568674,"connected_time":610000000000,"state":"active","ping":60},{"user_id":50,"name":"j_rex","steam_id":76561198132473926,"connected_time":1888000000000,"state":"active","ping":61},{"user_id":56,"name":"toadツ","steam_id":76561198082199290,"connected_time":1142000000000,"state":"active","ping":44},{"user_id":65,"name":"cheese sniffer","steam_id":76561198974277609,"connected_time":406000000000,"state":"active","ping":59},{"user_id":66,"name":"ZeniaPY (Playing on Wacom)","steam_id":76561198404352831,"connected_time":321000000000,"state":"active","ping":60},{"user_id":47,"name":"critter","steam_id":76561199180735937,"connected_time":2367000000000,"state":"active","ping":57}]},{"server_id":1,"name":"Uncletopia | Los Angeles | 1 | All Maps","name_short":"lax-1","host":"lax-1.us.uncletopia.com","port":27015,"enabled":true,"region":"us-west","cc":"us","latitude":33.94279,"longitude":-118.41004,"reserved":0,"last_update":"0001-01-01T00:00:00Z","name_a2s":"Uncletopia | Los Angeles | 1 | All Maps","protocol":17,"map":"cp_well","folder":"tf","game":"Team Fortress","app_id":440,"player_count":0,"max_players":24,"Bots":0,"server_type":"Dedicated","server_os":"Linux","password":true,"vac":true,"version":"7961495","steam_id":85568392924469991,"keywords":["cp","nocrits","nodmgspread","uncletopia"],"game_id":440,"stv_port":27016,"stv_name":"Uncletopia | Los Angeles | 1 | All Maps | STV","players":null},{"server_id":112,"name":"Uncletopia | Los Angeles | 2 | All Maps","name_short":"lax-2","host":"lax-1.us.uncletopia.com","port":27025,"enabled":true,"region":"us-west","cc":"us","latitude":33.94279,"longitude":-118.41004,"reserved":0,"last_update":"0001-01-01T00:00:00Z","name_a2s":"Uncletopia | Los Angeles | 2 | All Maps","protocol":17,"map":"pl_snowycoast","folder":"tf","game":"Team Fortress","app_id":440,"player_count":24,"max_players":24,"Bots":0,"server_type":"Dedicated","server_os":"Linux","password":true,"vac":true,"version":"7961495","steam_id":85568392924469992,"keywords":["nocrits","nodmgspread","payload","uncletopia"],"game_id":440,"stv_port":27026,"stv_name":"Uncletopia | Los Angeles | 2 | All Maps | STV","players":[{"user_id":159,"name":"Gammaplex","steam_id":76561198981228176,"connected_time":4647000000000,"state":"active","ping":99},{"user_id":195,"name":"soltuno","steam_id":76561198074430565,"connected_time":1346000000000,"state":"active","ping":65},{"user_id":206,"name":"1000 Ping","steam_id":76561198098330939,"connected_time":364000000000,"state":"active","ping":74},{"user_id":197,"name":"crunchy obama","steam_id":76561198044485217,"connected_time":1323000000000,"state":"active","ping":69},{"user_id":182,"name":"DylanM345","steam_id":76561198174666786,"connected_time":2347000000000,"state":"active","ping":59},{"user_id":203,"name":"5kPrime","steam_id":76561198039471915,"connected_time":1077000000000,"state":"active","ping":70},{"user_id":199,"name":"a chicken","steam_id":76561198313121580,"connected_time":1283000000000,"state":"active","ping":45},{"user_id":174,"name":"SkyLark","steam_id":76561198303618132,"connected_time":3035000000000,"state":"active","ping":76},{"user_id":205,"name":"Dranos","steam_id":76561198317456244,"connected_time":397000000000,"state":"active","ping":55},{"user_id":180,"name":"Frank Accardi","steam_id":76561198017275707,"connected_time":2424000000000,"state":"active","ping":62},{"user_id":200,"name":"Hidden Phantom","steam_id":76561198115531799,"connected_time":1279000000000,"state":"active","ping":124},{"user_id":207,"name":"Arcy","steam_id":76561198237030056,"connected_time":361000000000,"state":"active","ping":75},{"user_id":183,"name":"YASAI JUICE","steam_id":76561198131971992,"connected_time":2036000000000,"state":"active","ping":90},{"user_id":186,"name":"lol","steam_id":76561198026491738,"connected_time":1843000000000,"state":"active","ping":58},{"user_id":193,"name":"erutoumo","steam_id":76561198093146919,"connected_time":1545000000000,"state":"active","ping":60},{"user_id":187,"name":"Max","steam_id":76561197961272955,"connected_time":1841000000000,"state":"active","ping":37},{"user_id":89,"name":"Bad Dragon quality assurance","steam_id":76561198065662025,"connected_time":9971000000000,"state":"active","ping":58},{"user_id":188,"name":"A class hero","steam_id":76561198066091050,"connected_time":1837000000000,"state":"active","ping":75},{"user_id":201,"name":"Some Dood on the Internet","steam_id":76561198054657687,"connected_time":1256000000000,"state":"active","ping":90},{"user_id":189,"name":"Antzen","steam_id":76561198041343470,"connected_time":1779000000000,"state":"active","ping":68},{"user_id":128,"name":"NormalManPerson","steam_id":76561198007436312,"connected_time":6867000000000,"state":"active","ping":75},{"user_id":190,"name":"vvitch","steam_id":76561198279661941,"connected_time":1760000000000,"state":"active","ping":49},{"user_id":204,"name":"Phyyrin","steam_id":76561198154532657,"connected_time":498000000000,"state":"active","ping":90},{"user_id":202,"name":"Who","steam_id":76561198013049671,"connected_time":1253000000000,"state":"active","ping":49}]},{"server_id":324,"name":"Uncletopia | Los Angeles | 3 | All Maps","name_short":"lax-3","host":"lax-1.us.uncletopia.com","port":27035,"enabled":true,"region":"us-west","cc":"us","latitude":33.94279,"longitude":-118.41004,"reserved":0,"last_update":"0001-01-01T00:00:00Z","name_a2s":"Uncletopia | Los Angeles | 3 | All Maps","protocol":17,"map":"koth_viaduct","folder":"tf","game":"Team Fortress","app_id":440,"player_count":0,"max_players":24,"Bots":0,"server_type":"Dedicated","server_os":"Linux","password":true,"vac":true,"version":"7961495","steam_id":85568392924510198,"keywords":["cp","nocrits","nodmgspread","uncletopia"],"game_id":440,"stv_port":27036,"stv_name":"Uncletopia | Los Angeles | 3 | All Maps | STV","players":null},{"server_id":25,"name":"Uncletopia | Los Angeles | 4 | Stopwatch","name_short":"lax-4","host":"lax-1.us.uncletopia.com","port":27045,"enabled":true,"region":"us-west","cc":"us","latitude":33.94279,"longitude":-118.41004,"reserved":0,"last_update":"0001-01-01T00:00:00Z","name_a2s":"Uncletopia | Los Angeles | 4 | Stopwatch","protocol":17,"map":"cp_process_final","folder":"tf","game":"Team Fortress","app_id":440,"player_count":0,"max_players":24,"Bots":0,"server_type":"Dedicated","server_os":"Linux","password":true,"vac":true,"version":"7961495","steam_id":85568392924510199,"keywords":["cp","nocrits","nodmgspread","uncletopia"],"game_id":440,"stv_port":27046,"stv_name":"Uncletopia | Los Angeles | 4 | Stopwatch | STV","players":null},{"server_id":11,"name":"Uncletopia | London | 1 | All Maps","name_short":"lon-1","host":"lon-1.uk.uncletopia.com","port":27015,"enabled":true,"region":"eu","cc":"gb","latitude":51.509865,"longitude":-0.118092,"reserved":0,"last_update":"0001-01-01T00:00:00Z","name_a2s":"Uncletopia | London | 1 | All Maps","protocol":17,"map":"koth_highpass","folder":"tf","game":"Team Fortress","app_id":440,"player_count":0,"max_players":24,"Bots":0,"server_type":"Dedicated","server_os":"Linux","password":true,"vac":true,"version":"7961495","steam_id":85568392924367362,"keywords":["cp","nocrits","nodmgspread","uncletopia"],"game_id":440,"stv_port":27016,"stv_name":"Uncletopia | London | 1 | All Maps | STV","players":null},{"server_id":114,"name":"Uncletopia | London | 2 | All Maps","name_short":"lon-2","host":"lon-1.uk.uncletopia.com","port":27025,"enabled":true,"region":"eu","cc":"gb","latitude":51.509865,"longitude":-0.118092,"reserved":0,"last_update":"0001-01-01T00:00:00Z","name_a2s":"Uncletopia | London | 2 | All Maps","protocol":17,"map":"koth_lakeside_final","folder":"tf","game":"Team Fortress","app_id":440,"player_count":0,"max_players":24,"Bots":0,"server_type":"Dedicated","server_os":"Linux","password":true,"vac":true,"version":"7961495","steam_id":85568392924470941,"keywords":["cp","nocrits","nodmgspread","uncletopia"],"game_id":440,"stv_port":27026,"stv_name":"Uncletopia | London | 2 | All Maps | STV","players":null},{"server_id":320,"name":"Uncletopia | London | 3 | All Maps","name_short":"lon-3","host":"lon-1.uk.uncletopia.com","port":27035,"enabled":true,"region":"eu","cc":"gb","latitude":51.509865,"longitude":-0.118092,"reserved":0,"last_update":"0001-01-01T00:00:00Z","name_a2s":"Uncletopia | London | 3 | All Maps","protocol":17,"map":"cp_process_final","folder":"tf","game":"Team Fortress","app_id":440,"player_count":0,"max_players":24,"Bots":0,"server_type":"Dedicated","server_os":"Linux","password":true,"vac":true,"version":"7961495","steam_id":85568392924510192,"keywords":["cp","nocrits","nodmgspread","uncletopia"],"game_id":440,"stv_port":27036,"stv_name":"Uncletopia | London | 3 | All Maps | STV","players":null},{"server_id":321,"name":"Uncletopia | London | 4 | All Maps","name_short":"lon-4","host":"lon-1.uk.uncletopia.com","port":27045,"enabled":true,"region":"eu","cc":"gb","latitude":51.509865,"longitude":-0.118092,"reserved":0,"last_update":"0001-01-01T00:00:00Z","name_a2s":"Uncletopia | London | 4 | All Maps","protocol":17,"map":"koth_cascade","folder":"tf","game":"Team Fortress","app_id":440,"player_count":0,"max_players":24,"Bots":0,"server_type":"Dedicated","server_os":"Linux","password":true,"vac":true,"version":"7961495","steam_id":85568392924510193,"keywords":["cp","nocrits","nodmgspread","uncletopia"],"game_id":440,"stv_port":27046,"stv_name":"Uncletopia | London | 4 | All Maps | STV","players":null},{"server_id":21,"name":"Uncletopia | London | 5 | All Maps","name_short":"lon-5","host":"lon-1.uk.uncletopia.com","port":27055,"enabled":true,"region":"eu","cc":"gb","latitude":51.509865,"longitude":-0.118092,"reserved":0,"last_update":"0001-01-01T00:00:00Z","name_a2s":"Uncletopia | London | 5 | All Maps","protocol":17,"map":"koth_lakeside_final","folder":"tf","game":"Team Fortress","app_id":440,"player_count":0,"max_players":24,"Bots":0,"server_type":"Dedicated","server_os":"Linux","password":true,"vac":true,"version":"7961495","steam_id":85568392924742829,"keywords":["cp","nocrits","nodmgspread","uncletopia"],"game_id":440,"stv_port":27056,"stv_name":"Uncletopia | London | 5 | All Maps | STV","players":null},{"server_id":22,"name":"Uncletopia | London | 6 | All Maps","name_short":"lon-6","host":"lon-1.uk.uncletopia.com","port":27065,"enabled":true,"region":"eu","cc":"gb","latitude":51.509865,"longitude":-0.118092,"reserved":0,"last_update":"0001-01-01T00:00:00Z","name_a2s":"Uncletopia | London | 6 | All Maps","protocol":17,"map":"cp_dustbowl","folder":"tf","game":"Team Fortress","app_id":440,"player_count":0,"max_players":24,"Bots":0,"server_type":"Dedicated","server_os":"Linux","password":true,"vac":true,"version":"7961495","steam_id":85568392924742830,"keywords":["cp","nocrits","nodmgspread","uncletopia"],"game_id":440,"stv_port":27066,"stv_name":"Uncletopia | London | 6 | All Maps | STV","players":null},{"server_id":40,"name":"Uncletopia | London | 7 | Stopwatch","name_short":"lon-7","host":"lon-1.uk.uncletopia.com","port":27075,"enabled":true,"region":"eu","cc":"gb","latitude":51.509865,"longitude":-0.118092,"reserved":0,"last_update":"0001-01-01T00:00:00Z","name_a2s":"Uncletopia | London | 7 | Stopwatch","protocol":17,"map":"koth_lakeside_final","folder":"tf","game":"Team Fortress","app_id":440,"player_count":0,"max_players":24,"Bots":0,"server_type":"Dedicated","server_os":"Linux","password":true,"vac":true,"version":"7961495","steam_id":85568392924964314,"keywords":["cp","nocrits","nodmgspread","uncletopia"],"game_id":440,"stv_port":27076,"stv_name":"Uncletopia | London | 7 | Stopwatch | STV","players":null},{"server_id":41,"name":"Uncletopia | London | 8 | Community","name_short":"lon-8","host":"lon-1.uk.uncletopia.com","port":27085,"enabled":true,"region":"eu","cc":"gb","latitude":51.509865,"longitude":-0.118092,"reserved":0,"last_update":"0001-01-01T00:00:00Z","name_a2s":"Uncletopia | London | 8 | Community","protocol":17,"map":"workshop/koth_product_final.ugc454272353","folder":"tf","game":"Team Fortress","app_id":440,"player_count":0,"max_players":24,"Bots":0,"server_type":"Dedicated","server_os":"Linux","password":true,"vac":true,"version":"7961495","steam_id":85568392924964315,"keywords":["cp","nocrits","nodmgspread","uncletopia"],"game_id":440,"stv_port":27086,"stv_name":"Uncletopia | London | 8 | Community | STV","players":null},{"server_id":300,"name":"Uncletopia | Montréal | 1 | One Thousand Uncles","name_short":"mtl-1","host":"mtl-1.ca.uncletopia.com","port":27015,"enabled":true,"region":"us-east","cc":"ca","latitude":45.50889,"longitude":-73.56167,"reserved":0,"last_update":"0001-01-01T00:00:00Z","name_a2s":"","protocol":0,"map":"","folder":"","game":"","app_id":0,"player_count":5,"max_players":0,"Bots":0,"server_type":"","server_os":"","password":false,"vac":false,"version":"","steam_id":0,"keywords":null,"game_id":0,"stv_port":0,"stv_name":"","players":[{"user_id":28,"name":"1-800-GHOST-DANCE","steam_id":76561198835430429,"connected_time":1576000000000,"state":"active","ping":84},{"user_id":46,"name":"Грибник","steam_id":76561199135906334,"connected_time":1058000000000,"state":"active","ping":150},{"user_id":47,"name":"Spike","steam_id":76561198141356571,"connected_time":526000000000,"state":"active","ping":72},{"user_id":48,"name":"Bren20225","steam_id":76561198174421550,"connected_time":180000000000,"state":"active","ping":82},{"user_id":26,"name":"hashmap","steam_id":76561198043794014,"connected_time":2514000000000,"state":"active","ping":38}]},{"server_id":301,"name":"Uncletopia | Montréal | 2 | One Thousand Uncles","name_short":"mtl-2","host":"mtl-1.ca.uncletopia.com","port":27025,"enabled":true,"region":"us-east","cc":"ca","latitude":45.50889,"longitude":-73.56167,"reserved":0,"last_update":"0001-01-01T00:00:00Z","name_a2s":"","protocol":0,"map":"","folder":"","game":"","app_id":0,"player_count":0,"max_players":0,"Bots":0,"server_type":"","server_os":"","password":false,"vac":false,"version":"","steam_id":0,"keywords":null,"game_id":0,"stv_port":0,"stv_name":"","players":null},{"server_id":302,"name":"Uncletopia | Montréal | 3 | One Thousand Uncles","name_short":"mtl-3","host":"mtl-1.ca.uncletopia.com","port":27035,"enabled":true,"region":"us-east","cc":"ca","latitude":45.50889,"longitude":-73.56167,"reserved":0,"last_update":"0001-01-01T00:00:00Z","name_a2s":"","protocol":0,"map":"","folder":"","game":"","app_id":0,"player_count":0,"max_players":0,"Bots":0,"server_type":"","server_os":"","password":false,"vac":false,"version":"","steam_id":0,"keywords":null,"game_id":0,"stv_port":0,"stv_name":"","players":null},{"server_id":13,"name":"Uncletopia | New York City | 1 | All Maps","name_short":"nyc-1","host":"nyc-1.us.uncletopia.com","port":27015,"enabled":true,"region":"us-east","cc":"us","latitude":40.73061,"longitude":-73.93524,"reserved":0,"last_update":"0001-01-01T00:00:00Z","name_a2s":"Uncletopia | New York City | 1 | All Maps","protocol":17,"map":"pl_borneo","folder":"tf","game":"Team Fortress","app_id":440,"player_count":24,"max_players":24,"Bots":0,"server_type":"Dedicated","server_os":"Linux","password":true,"vac":true,"version":"7961495","steam_id":85568392924469993,"keywords":["nocrits","nodmgspread","payload","uncletopia"],"game_id":440,"stv_port":27016,"stv_name":"Uncletopia | New York City | 1 | All Maps | STV","players":[{"user_id":542,"name":"SaLt_VauLt","steam_id":76561199096277985,"connected_time":2015000000000,"state":"active","ping":123},{"user_id":538,"name":"glockinmylap130ms","steam_id":76561198046754534,"connected_time":2325000000000,"state":"active","ping":162},{"user_id":536,"name":"the guy","steam_id":76561199350870177,"connected_time":2596000000000,"state":"active","ping":106},{"user_id":567,"name":"eMcP","steam_id":76561198382509396,"connected_time":1165000000000,"state":"active","ping":125},{"user_id":507,"name":"jdrgamer16","steam_id":76561198882346553,"connected_time":5365000000000,"state":"active","ping":64},{"user_id":570,"name":"forktails","steam_id":76561198046185082,"connected_time":995000000000,"state":"active","ping":43},{"user_id":559,"name":"The Mug Man","steam_id":76561198283468122,"connected_time":1517000000000,"state":"active","ping":61},{"user_id":574,"name":"geesh","steam_id":76561198061347789,"connected_time":413000000000,"state":"active","ping":85},{"user_id":544,"name":"ktaeoh","steam_id":76561198300888156,"connected_time":1892000000000,"state":"active","ping":82},{"user_id":546,"name":"andrew","steam_id":76561198107472997,"connected_time":1775000000000,"state":"active","ping":68},{"user_id":572,"name":"toasty weber","steam_id":76561198037746805,"connected_time":511000000000,"state":"active","ping":64},{"user_id":565,"name":"conner","steam_id":76561198052911241,"connected_time":1340000000000,"state":"active","ping":61},{"user_id":342,"name":"ndvr","steam_id":76561199379200102,"connected_time":18355000000000,"state":"active","ping":53},{"user_id":528,"name":"Ping","steam_id":76561198072947773,"connected_time":3687000000000,"state":"active","ping":66},{"user_id":554,"name":"Neophyte","steam_id":76561198027183394,"connected_time":1639000000000,"state":"active","ping":106},{"user_id":549,"name":"he munch","steam_id":76561198339644583,"connected_time":1738000000000,"state":"active","ping":77},{"user_id":568,"name":"donutbodega17","steam_id":76561199211254746,"connected_time":1141000000000,"state":"active","ping":73},{"user_id":555,"name":"veki","steam_id":76561199059047474,"connected_time":1637000000000,"state":"active","ping":152},{"user_id":571,"name":"Agarthan Superior Methhead","steam_id":76561198440881697,"connected_time":599000000000,"state":"active","ping":75},{"user_id":368,"name":"That Sentry Is A Spy!","steam_id":76561198069395625,"connected_time":17105000000000,"state":"active","ping":90},{"user_id":566,"name":"scoshar","steam_id":76561198056769956,"connected_time":1319000000000,"state":"active","ping":115},{"user_id":575,"name":"Phil","steam_id":76561198026319401,"connected_time":383000000000,"state":"active","ping":75},{"user_id":562,"name":"Biscipline","steam_id":76561198019206178,"connected_time":1429000000000,"state":"active","ping":77},{"user_id":563,"name":"damiel","steam_id":76561198196374619,"connected_time":1405000000000,"state":"active","ping":109}]},{"server_id":14,"name":"Uncletopia | New York City | 2 | All Maps","name_short":"nyc-2","host":"nyc-1.us.uncletopia.com","port":27025,"enabled":true,"region":"us-east","cc":"us","latitude":40.73061,"longitude":-73.93524,"reserved":0,"last_update":"0001-01-01T00:00:00Z","name_a2s":"Uncletopia | New York City | 2 | All Maps","protocol":17,"map":"koth_lakeside_final","folder":"tf","game":"Team Fortress","app_id":440,"player_count":0,"max_players":24,"Bots":0,"server_type":"Dedicated","server_os":"Linux","password":true,"vac":true,"version":"7961495","steam_id":85568392924469994,"keywords":["cp","nocrits","nodmgspread","uncletopia"],"game_id":440,"stv_port":27026,"stv_name":"Uncletopia | New York City | 2 | All Maps | STV","players":null},{"server_id":15,"name":"Uncletopia | New York City | 3 | Stopwatch","name_short":"nyc-3","host":"nyc-1.us.uncletopia.com","port":27035,"enabled":true,"region":"us-east","cc":"us","latitude":40.73061,"longitude":-73.93524,"reserved":0,"last_update":"0001-01-01T00:00:00Z","name_a2s":"Uncletopia | New York City | 3 | Stopwatch","protocol":17,"map":"workshop/cp_reckoner_rc6.ugc674719999","folder":"tf","game":"Team Fortress","app_id":440,"player_count":0,"max_players":24,"Bots":0,"server_type":"Dedicated","server_os":"Linux","password":true,"vac":true,"version":"7961495","steam_id":85568392924742820,"keywords":["cp","nocrits","nodmgspread","uncletopia"],"game_id":440,"stv_port":27036,"stv_name":"Uncletopia | New York City | 3 | Stopwatch | STV","players":null},{"server_id":16,"name":"Uncletopia | New York City | 4 | Community","name_short":"nyc-4","host":"nyc-1.us.uncletopia.com","port":27045,"enabled":true,"region":"us-east","cc":"us","latitude":40.73061,"longitude":-73.93524,"reserved":0,"last_update":"0001-01-01T00:00:00Z","name_a2s":"Uncletopia | New York City | 4 | Community","protocol":17,"map":"workshop/cp_glacier_rc6.ugc2905735376","folder":"tf","game":"Team Fortress","app_id":440,"player_count":7,"max_players":24,"Bots":0,"server_type":"Dedicated","server_os":"Linux","password":true,"vac":true,"version":"7961495","steam_id":85568392924742821,"keywords":["cp","nocrits","nodmgspread","uncletopia"],"game_id":440,"stv_port":27046,"stv_name":"Uncletopia | New York City | 4 | Community | STV","players":[{"user_id":376,"name":"Alyx","steam_id":76561198064654326,"connected_time":3036000000000,"state":"active","ping":128},{"user_id":379,"name":"Captain Chicken","steam_id":76561198047767530,"connected_time":2462000000000,"state":"active","ping":112},{"user_id":380,"name":"Waltism","steam_id":76561199447676489,"connected_time":1839000000000,"state":"active","ping":151},{"user_id":389,"name":"GoldtoothFour","steam_id":76561198055529332,"connected_time":209000000000,"state":"active","ping":68},{"user_id":349,"name":"Captain Emerald The Changeling","steam_id":76561198320651177,"connected_time":5860000000000,"state":"active","ping":48},{"user_id":364,"name":"Riko","steam_id":76561199057643011,"connected_time":4021000000000,"state":"active","ping":119},{"user_id":368,"name":"kid named amogus","steam_id":76561198156093674,"connected_time":3795000000000,"state":"active","ping":41}]},{"server_id":142,"name":"Uncletopia | São Paulo | 1 | All Maps","name_short":"sao-1","host":"sao-1.br.uncletopia.com","port":27015,"enabled":true,"region":"sa","cc":"br","latitude":-23.533773,"longitude":-46.62529,"reserved":0,"last_update":"0001-01-01T00:00:00Z","name_a2s":"Uncletopia | São Paulo | 1 | All Maps","protocol":17,"map":"plr_hightower","folder":"tf","game":"Team Fortress","app_id":440,"player_count":6,"max_players":24,"Bots":0,"server_type":"Dedicated","server_os":"Linux","password":true,"vac":true,"version":"7961495","steam_id":85568392924469996,"keywords":["nocrits","nodmgspread","payload","uncletopia"],"game_id":440,"stv_port":27016,"stv_name":"Uncletopia | São Paulo | 1 | All Maps | STV","players":[{"user_id":26,"name":"mechanical bride","steam_id":76561198161382276,"connected_time":6077000000000,"state":"active","ping":56},{"user_id":28,"name":"Pyrolito","steam_id":76561198848983063,"connected_time":5775000000000,"state":"active","ping":39},{"user_id":29,"name":"Jv.","steam_id":76561198453027885,"connected_time":5766000000000,"state":"active","ping":113},{"user_id":32,"name":"Gura","steam_id":76561198106287862,"connected_time":4777000000000,"state":"active","ping":60},{"user_id":43,"name":"SHELDON999ms","steam_id":76561198977549357,"connected_time":927000000000,"state":"active","ping":89},{"user_id":39,"name":"DaisyIsBestGirl","steam_id":76561198353408382,"connected_time":1786000000000,"state":"active","ping":114}]},{"server_id":143,"name":"Uncletopia | São Paulo | 2 | Community","name_short":"sao-2","host":"sao-2.br.uncletopia.com","port":27015,"enabled":true,"region":"sa","cc":"br","latitude":-23.533773,"longitude":-46.62529,"reserved":0,"last_update":"0001-01-01T00:00:00Z","name_a2s":"Uncletopia | São Paulo | 2 | Community","protocol":17,"map":"workshop/koth_ramjam_rc1.ugc459778887","folder":"tf","game":"Team Fortress","app_id":440,"player_count":0,"max_players":24,"Bots":0,"server_type":"Dedicated","server_os":"Linux","password":true,"vac":true,"version":"7961495","steam_id":85568392924485349,"keywords":["cp","nocrits","nodmgspread","uncletopia"],"game_id":440,"stv_port":27016,"stv_name":"Uncletopia | São Paulo | 2 | Community | STV","players":null},{"server_id":7,"name":"Uncletopia | Seattle | 1 | All Maps","name_short":"sea-1","host":"sea-1.us.uncletopia.com","port":27015,"enabled":true,"region":"us-west","cc":"us","latitude":47.608013,"longitude":-122.33517,"reserved":0,"last_update":"0001-01-01T00:00:00Z","name_a2s":"Uncletopia | Seattle | 1 | All Maps","protocol":17,"map":"koth_harvest_final","folder":"tf","game":"Team Fortress","app_id":440,"player_count":26,"max_players":24,"Bots":0,"server_type":"Dedicated","server_os":"Linux","password":true,"vac":true,"version":"7961495","steam_id":85568392924469997,"keywords":["cp","nocrits","nodmgspread","uncletopia"],"game_id":440,"stv_port":27016,"stv_name":"Uncletopia | Seattle | 1 | All Maps | STV","players":[{"user_id":676,"name":"Mocha Josie","steam_id":76561198066452726,"connected_time":397000000000,"state":"active","ping":74},{"user_id":541,"name":"rat gets the cheese","steam_id":76561198031234032,"connected_time":13835000000000,"state":"active","ping":98},{"user_id":662,"name":"[TrC] Nosy","steam_id":76561197978859310,"connected_time":1168000000000,"state":"active","ping":60},{"user_id":674,"name":"fungi bowie.gg","steam_id":76561198169755734,"connected_time":482000000000,"state":"active","ping":60},{"user_id":646,"name":"[TrC] Dackstrus","steam_id":76561197973518509,"connected_time":3613000000000,"state":"active","ping":54},{"user_id":631,"name":"jadeite","steam_id":76561198022298676,"connected_time":4759000000000,"state":"active","ping":32},{"user_id":647,"name":"Meatball Obsessed Demoman","steam_id":76561198253325844,"connected_time":3530000000000,"state":"active","ping":50},{"user_id":636,"name":"Melly","steam_id":76561198045867175,"connected_time":4384000000000,"state":"active","ping":87},{"user_id":677,"name":"Finkly","steam_id":76561198049828110,"connected_time":293000000000,"state":"active","ping":45},{"user_id":614,"name":"Gm_Trash","steam_id":76561199445091548,"connected_time":6690000000000,"state":"active","ping":58},{"user_id":666,"name":"NEBULA","steam_id":76561198086878595,"connected_time":1137000000000,"state":"active","ping":72},{"user_id":638,"name":"rat who can kickflip","steam_id":76561198073620027,"connected_time":4200000000000,"state":"active","ping":37},{"user_id":637,"name":"mega","steam_id":76561198089520959,"connected_time":4364000000000,"state":"active","ping":94},{"user_id":672,"name":"Defeat","steam_id":76561198065203818,"connected_time":889000000000,"state":"active","ping":42},{"user_id":679,"name":"Arsonist Goose","steam_id":76561198147441830,"connected_time":282000000000,"state":"active","ping":70},{"user_id":642,"name":"2 Point Tom","steam_id":76561198087617008,"connected_time":4086000000000,"state":"active","ping":45},{"user_id":593,"name":"jole","steam_id":76561198037292232,"connected_time":8264000000000,"state":"active","ping":120},{"user_id":648,"name":"Dragoninventor (He/Him)","steam_id":76561198956224948,"connected_time":3434000000000,"state":"active","ping":77},{"user_id":654,"name":"Lily Thorn","steam_id":76561198305488625,"connected_time":2319000000000,"state":"active","ping":59},{"user_id":651,"name":"slushy :))","steam_id":76561198135281802,"connected_time":3183000000000,"state":"active","ping":37},{"user_id":667,"name":"mmmBoyo","steam_id":76561198821360261,"connected_time":1126000000000,"state":"active","ping":45},{"user_id":678,"name":"remanedur","steam_id":76561198059459507,"connected_time":288000000000,"state":"active","ping":120},{"user_id":680,"name":"rushy :))","steam_id":76561198065825165,"connected_time":228000000000,"state":"active","ping":99},{"user_id":671,"name":"frank","steam_id":76561198137777483,"connected_time":920000000000,"state":"active","ping":126},{"user_id":658,"name":"fragadelphia","steam_id":76561198066116363,"connected_time":1521000000000,"state":"active","ping":48},{"user_id":681,"name":"jorts","steam_id":76561199041179985,"connected_time":8000000000,"state":"spawning","ping":53}]},{"server_id":119,"name":"Uncletopia | Seattle | 2 | All Maps","name_short":"sea-2","host":"sea-1.us.uncletopia.com","port":27025,"enabled":true,"region":"us-west","cc":"us","latitude":47.608013,"longitude":-122.33517,"reserved":0,"last_update":"0001-01-01T00:00:00Z","name_a2s":"Uncletopia | Seattle | 2 | All Maps","protocol":17,"map":"koth_king","folder":"tf","game":"Team Fortress","app_id":440,"player_count":10,"max_players":24,"Bots":0,"server_type":"Dedicated","server_os":"Linux","password":true,"vac":true,"version":"7961495","steam_id":85568392924469998,"keywords":["cp","nocrits","nodmgspread","uncletopia"],"game_id":440,"stv_port":27026,"stv_name":"Uncletopia | Seattle | 2 | All Maps | STV","players":[{"user_id":322,"name":"wugmup","steam_id":76561199096287734,"connected_time":298000000000,"state":"active","ping":71},{"user_id":323,"name":"mu","steam_id":76561197997530228,"connected_time":191000000000,"state":"active","ping":46},{"user_id":320,"name":"SandyMany","steam_id":76561198183098099,"connected_time":470000000000,"state":"active","ping":44},{"user_id":277,"name":"thebeast","steam_id":76561198255963049,"connected_time":3252000000000,"state":"active","ping":46},{"user_id":324,"name":"Copy","steam_id":76561198025031590,"connected_time":187000000000,"state":"active","ping":58},{"user_id":325,"name":"sol badguy","steam_id":76561198128164970,"connected_time":167000000000,"state":"active","ping":75},{"user_id":326,"name":"Aguas De Marco","steam_id":76561198410957728,"connected_time":161000000000,"state":"active","ping":99},{"user_id":330,"name":"Zombieskm","steam_id":76561198170894485,"connected_time":126000000000,"state":"active","ping":60},{"user_id":308,"name":"youstink","steam_id":76561198375795517,"connected_time":1602000000000,"state":"active","ping":46},{"user_id":271,"name":"2","steam_id":76561198037332418,"connected_time":3992000000000,"state":"active","ping":30}]},{"server_id":406,"name":"Uncletopia | Seattle | 3 | Stopwatch","name_short":"sea-3","host":"sea-1.us.uncletopia.com","port":27035,"enabled":true,"region":"us-west","cc":"us","latitude":47.608013,"longitude":-122.33517,"reserved":0,"last_update":"0001-01-01T00:00:00Z","name_a2s":"Uncletopia | Seattle | 3 | Stopwatch","protocol":17,"map":"cp_metalworks","folder":"tf","game":"Team Fortress","app_id":440,"player_count":0,"max_players":24,"Bots":0,"server_type":"Dedicated","server_os":"Linux","password":true,"vac":true,"version":"7961495","steam_id":85568392924515217,"keywords":["cp","nocrits","nodmgspread","uncletopia"],"game_id":440,"stv_port":27036,"stv_name":"Uncletopia | Seattle | 3 | Stopwatch | STV","players":null},{"server_id":17,"name":"Uncletopia | San Francisco | 1 | All Maps","name_short":"sfo-1","host":"sfo-1.us.uncletopia.com","port":27015,"enabled":true,"region":"us-west","cc":"us","latitude":37.77397,"longitude":-122.4313,"reserved":0,"last_update":"0001-01-01T00:00:00Z","name_a2s":"Uncletopia | San Francisco | 1 | All Maps","protocol":17,"map":"pl_barnblitz","folder":"tf","game":"Team Fortress","app_id":440,"player_count":22,"max_players":24,"Bots":0,"server_type":"Dedicated","server_os":"Linux","password":true,"vac":true,"version":"7961495","steam_id":85568392924469999,"keywords":["nocrits","nodmgspread","payload","uncletopia"],"game_id":440,"stv_port":27016,"stv_name":"Uncletopia | San Francisco | 1 | All Maps | STV","players":[{"user_id":208,"name":"Shiv Katall","steam_id":76561198072897271,"connected_time":3358000000000,"state":"active","ping":104},{"user_id":224,"name":"noellehound (she/her)","steam_id":76561198108844158,"connected_time":2513000000000,"state":"active","ping":65},{"user_id":238,"name":"Irony is pretty cringy","steam_id":76561198120391460,"connected_time":1283000000000,"state":"active","ping":48},{"user_id":235,"name":"tobrehto","steam_id":76561198097544038,"connected_time":2205000000000,"state":"active","ping":61},{"user_id":201,"name":"Scorpianswag","steam_id":76561198260651036,"connected_time":3988000000000,"state":"active","ping":45},{"user_id":196,"name":"Cypress [ +/- ] ✔","steam_id":76561198067164431,"connected_time":5191000000000,"state":"active","ping":48},{"user_id":237,"name":"TeriyakiDynamite","steam_id":76561198050049346,"connected_time":1365000000000,"state":"active","ping":110},{"user_id":241,"name":"(TPT) Ghost","steam_id":76561198123262873,"connected_time":1229000000000,"state":"active","ping":64},{"user_id":215,"name":"Exusiai","steam_id":76561198348354629,"connected_time":3049000000000,"state":"active","ping":53},{"user_id":198,"name":"ratthew","steam_id":76561198418172095,"connected_time":4666000000000,"state":"active","ping":85},{"user_id":248,"name":"🐺-Iwky-🦊","steam_id":76561198185616311,"connected_time":39000000000,"state":"spawning","ping":103},{"user_id":226,"name":"Stag","steam_id":76561198058537502,"connected_time":2454000000000,"state":"active","ping":44},{"user_id":242,"name":"Puskinti","steam_id":76561198032120688,"connected_time":1189000000000,"state":"active","ping":83},{"user_id":243,"name":"bengineer","steam_id":76561198171912174,"connected_time":1143000000000,"state":"active","ping":68},{"user_id":236,"name":"smiley","steam_id":76561198240116276,"connected_time":1642000000000,"state":"active","ping":98},{"user_id":228,"name":"smetc","steam_id":76561198240696986,"connected_time":2448000000000,"state":"active","ping":100},{"user_id":244,"name":"Rafl","steam_id":76561198055222756,"connected_time":1140000000000,"state":"active","ping":76},{"user_id":211,"name":"KingOfLewd","steam_id":76561198180034311,"connected_time":3214000000000,"state":"active","ping":61},{"user_id":233,"name":"Creature","steam_id":76561198194585781,"connected_time":2315000000000,"state":"active","ping":65},{"user_id":245,"name":"JohnnyGitGud","steam_id":76561198401455467,"connected_time":1133000000000,"state":"active","ping":62},{"user_id":247,"name":"frogyolk","steam_id":76561199111389949,"connected_time":901000000000,"state":"active","ping":67},{"user_id":234,"name":"Weed Dealer","steam_id":76561198418604400,"connected_time":2312000000000,"state":"active","ping":75}]},{"server_id":18,"name":"Uncletopia | San Francisco | 2 | All Maps","name_short":"sfo-2","host":"sfo-1.us.uncletopia.com","port":27025,"enabled":true,"region":"us-west","cc":"us","latitude":37.77397,"longitude":-122.4313,"reserved":0,"last_update":"0001-01-01T00:00:00Z","name_a2s":"Uncletopia | San Francisco | 2 | All Maps","protocol":17,"map":"koth_badlands","folder":"tf","game":"Team Fortress","app_id":440,"player_count":0,"max_players":24,"Bots":0,"server_type":"Dedicated","server_os":"Linux","password":true,"vac":true,"version":"7961495","steam_id":85568392924470000,"keywords":["cp","nocrits","nodmgspread","uncletopia"],"game_id":440,"stv_port":27026,"stv_name":"Uncletopia | San Francisco | 2 | All Maps | STV","players":null},{"server_id":19,"name":"Uncletopia | San Francisco | 3 | Stopwatch","name_short":"sfo-3","host":"sfo-1.us.uncletopia.com","port":27035,"enabled":true,"region":"us-west","cc":"us","latitude":37.77397,"longitude":-122.4313,"reserved":0,"last_update":"0001-01-01T00:00:00Z","name_a2s":"Uncletopia | San Francisco | 3 | Stopwatch","protocol":17,"map":"cp_gullywash_final1","folder":"tf","game":"Team Fortress","app_id":440,"player_count":0,"max_players":24,"Bots":0,"server_type":"Dedicated","server_os":"Linux","password":true,"vac":true,"version":"7961495","steam_id":85568392924742824,"keywords":["cp","nocrits","nodmgspread","uncletopia"],"game_id":440,"stv_port":27036,"stv_name":"Uncletopia | San Francisco | 3 | Stopwatch | STV","players":null},{"server_id":20,"name":"Uncletopia | San Francisco | 4 | Community","name_short":"sfo-4","host":"sfo-1.us.uncletopia.com","port":27045,"enabled":true,"region":"us-west","cc":"us","latitude":37.77397,"longitude":-122.4313,"reserved":0,"last_update":"0001-01-01T00:00:00Z","name_a2s":"Uncletopia | San Francisco | 4 | Community","protocol":17,"map":"workshop/pl_boundary_final1.ugc456799153","folder":"tf","game":"Team Fortress","app_id":440,"player_count":0,"max_players":24,"Bots":0,"server_type":"Dedicated","server_os":"Linux","password":true,"vac":true,"version":"7961495","steam_id":85568392924742826,"keywords":["nocrits","nodmgspread","payload","uncletopia"],"game_id":440,"stv_port":27046,"stv_name":"Uncletopia | San Francisco | 4 | Community | STV","players":null},{"server_id":141,"name":"Uncletopia | Sydney | 1 | All Maps","name_short":"syd-1","host":"syd-1.au.uncletopia.com","port":27015,"enabled":true,"region":"au","cc":"au","latitude":-33.865143,"longitude":151.2099,"reserved":0,"last_update":"0001-01-01T00:00:00Z","name_a2s":"Uncletopia | Sydney | 1 | All Maps","protocol":17,"map":"pl_snowycoast","folder":"tf","game":"Team Fortress","app_id":440,"player_count":24,"max_players":24,"Bots":0,"server_type":"Dedicated","server_os":"Linux","password":true,"vac":true,"version":"7961495","steam_id":85568392924470001,"keywords":["nocrits","nodmgspread","payload","uncletopia"],"game_id":440,"stv_port":27016,"stv_name":"Uncletopia | Sydney | 1 | All Maps | STV","players":[{"user_id":199,"name":"💢MsLisbeth💢","steam_id":76561198178151759,"connected_time":1998000000000,"state":"active","ping":49},{"user_id":200,"name":"pissmaster","steam_id":76561197990537324,"connected_time":1919000000000,"state":"active","ping":106},{"user_id":190,"name":"ManofWonder1","steam_id":76561198904788550,"connected_time":2951000000000,"state":"active","ping":64},{"user_id":216,"name":"Mayonnaise","steam_id":76561199001871472,"connected_time":983000000000,"state":"active","ping":59},{"user_id":154,"name":"† Reeve","steam_id":76561197969102326,"connected_time":5749000000000,"state":"active","ping":67},{"user_id":187,"name":"Happy Feet (A Tarantino Film)","steam_id":76561198055318716,"connected_time":3052000000000,"state":"active","ping":44},{"user_id":217,"name":"foshizzle","steam_id":76561198044488273,"connected_time":634000000000,"state":"active","ping":55},{"user_id":204,"name":"The Fighting Imp","steam_id":76561198025766516,"connected_time":1523000000000,"state":"active","ping":61},{"user_id":214,"name":"Original Glazed (Krispy/Kreme)","steam_id":76561197997362731,"connected_time":1128000000000,"state":"active","ping":50},{"user_id":208,"name":"skill","steam_id":76561199365669004,"connected_time":1369000000000,"state":"active","ping":58},{"user_id":198,"name":"dr. sne","steam_id":76561198022485319,"connected_time":2203000000000,"state":"active","ping":55},{"user_id":222,"name":"-Ech0-","steam_id":76561199121536801,"connected_time":207000000000,"state":"active","ping":59},{"user_id":184,"name":"mada","steam_id":76561199436707447,"connected_time":3267000000000,"state":"active","ping":49},{"user_id":185,"name":"reClyde beans","steam_id":76561198301282416,"connected_time":3095000000000,"state":"active","ping":68},{"user_id":210,"name":"Max","steam_id":76561198088406066,"connected_time":1198000000000,"state":"active","ping":112},{"user_id":205,"name":"Pompadouraus","steam_id":76561198327530525,"connected_time":1503000000000,"state":"active","ping":82},{"user_id":152,"name":"Tantei Rotana","steam_id":76561198041204323,"connected_time":6137000000000,"state":"active","ping":60},{"user_id":221,"name":"Snowy","steam_id":76561198255720598,"connected_time":207000000000,"state":"active","ping":48},{"user_id":220,"name":"CypressFluff (she/her)","steam_id":76561198174667818,"connected_time":386000000000,"state":"active","ping":57},{"user_id":219,"name":"infernoraz","steam_id":76561198117582261,"connected_time":515000000000,"state":"active","ping":45},{"user_id":192,"name":"Speedicle","steam_id":76561199081060553,"connected_time":2833000000000,"state":"active","ping":56},{"user_id":213,"name":"Courier","steam_id":76561198080981482,"connected_time":1187000000000,"state":"active","ping":40},{"user_id":195,"name":"Connor","steam_id":76561198088318589,"connected_time":2742000000000,"state":"active","ping":54},{"user_id":223,"name":"Blondie","steam_id":76561198046977058,"connected_time":183000000000,"state":"active","ping":66}]},{"server_id":123,"name":"Uncletopia | Sydney | 2 | All Maps","name_short":"syd-2","host":"syd-1.au.uncletopia.com","port":27025,"enabled":true,"region":"au","cc":"au","latitude":-33.865143,"longitude":151.2099,"reserved":0,"last_update":"0001-01-01T00:00:00Z","name_a2s":"Uncletopia | Sydney | 2 | All Maps","protocol":17,"map":"cp_altitude","folder":"tf","game":"Team Fortress","app_id":440,"player_count":0,"max_players":24,"Bots":0,"server_type":"Dedicated","server_os":"Linux","password":true,"vac":true,"version":"7961495","steam_id":85568392924470002,"keywords":["cp","nocrits","nodmgspread","uncletopia"],"game_id":440,"stv_port":27026,"stv_name":"Uncletopia | Sydney | 2 | All Maps | STV","players":null},{"server_id":395,"name":"Uncletopia | Sydney | 3 | All Maps","name_short":"syd-3","host":"syd-1.au.uncletopia.com","port":27035,"enabled":true,"region":"au","cc":"au","latitude":-33.865143,"longitude":151.2099,"reserved":0,"last_update":"0001-01-01T00:00:00Z","name_a2s":"Uncletopia | Sydney | 3 | All Maps","protocol":17,"map":"cp_mountainlab","folder":"tf","game":"Team Fortress","app_id":440,"player_count":0,"max_players":24,"Bots":0,"server_type":"Dedicated","server_os":"Linux","password":true,"vac":true,"version":"7961495","steam_id":85568392925194467,"keywords":["cp","nocrits","nodmgspread","uncletopia"],"game_id":440,"stv_port":27036,"stv_name":"Uncletopia | Sydney | 3 | All Maps | STV","players":null},{"server_id":396,"name":"Uncletopia | Sydney | 4 | All Maps","name_short":"syd-4","host":"syd-1.au.uncletopia.com","port":27045,"enabled":true,"region":"au","cc":"au","latitude":-33.865143,"longitude":151.2099,"reserved":0,"last_update":"0001-01-01T00:00:00Z","name_a2s":"Uncletopia | Sydney | 4 | All Maps","protocol":17,"map":"pl_barnblitz","folder":"tf","game":"Team Fortress","app_id":440,"player_count":0,"max_players":24,"Bots":0,"server_type":"Dedicated","server_os":"Linux","password":true,"vac":true,"version":"7961495","steam_id":85568392925397958,"keywords":["nocrits","nodmgspread","payload","uncletopia"],"game_id":440,"stv_port":27046,"stv_name":"Uncletopia | Sydney | 4 | All Maps | STV","players":null},{"server_id":58,"name":"Uncletopia | Sydney | 5 | Stopwatch","name_short":"syd-5","host":"syd-1.au.uncletopia.com","port":27055,"enabled":true,"region":"au","cc":"au","latitude":-33.865143,"longitude":151.2099,"reserved":0,"last_update":"0001-01-01T00:00:00Z","name_a2s":"Uncletopia | Sydney | 5 | Stopwatch","protocol":17,"map":"workshop/koth_ramjam_rc1.ugc459778887","folder":"tf","game":"Team Fortress","app_id":440,"player_count":0,"max_players":24,"Bots":0,"server_type":"Dedicated","server_os":"Linux","password":true,"vac":true,"version":"7961495","steam_id":85568392925397959,"keywords":["cp","nocrits","nodmgspread","uncletopia"],"game_id":440,"stv_port":27056,"stv_name":"Uncletopia | Sydney | 5 | Stopwatch | STV","players":null},{"server_id":59,"name":"Uncletopia | Sydney | 6 | Community","name_short":"syd-6","host":"syd-1.au.uncletopia.com","port":27065,"enabled":true,"region":"au","cc":"au","latitude":-33.865143,"longitude":151.2099,"reserved":0,"last_update":"0001-01-01T00:00:00Z","name_a2s":"Uncletopia | Sydney | 6 | Community","protocol":17,"map":"cp_sunshine","folder":"tf","game":"Team Fortress","app_id":440,"player_count":0,"max_players":24,"Bots":0,"server_type":"Dedicated","server_os":"Linux","password":true,"vac":true,"version":"7961495","steam_id":85568392925397960,"keywords":["cp","nocrits","nodmgspread","uncletopia"],"game_id":440,"stv_port":27066,"stv_name":"Uncletopia | Sydney | 6 | Community | STV","players":null},{"server_id":49,"name":"Uncletopia | Warsaw | 1 | One Thousand Uncles","name_short":"waw-1","host":"waw-1.pl.uncletopia.com","port":27015,"enabled":true,"region":"eu","cc":"pl","latitude":52.2297,"longitude":21.017532,"reserved":0,"last_update":"0001-01-01T00:00:00Z","name_a2s":"Uncletopia | Warsaw | 1 | One Thousand Uncles","protocol":17,"map":"koth_highpass","folder":"tf","game":"Team Fortress","app_id":440,"player_count":0,"max_players":32,"Bots":0,"server_type":"Dedicated","server_os":"Linux","password":true,"vac":true,"version":"7961495","steam_id":85568392925397850,"keywords":["alltalk","cp","danepve","increased_maxplayers","nocrits","norespawntime","uncletopia"],"game_id":440,"stv_port":0,"stv_name":"","players":null},{"server_id":50,"name":"Uncletopia | Warsaw | 2 | One Thousand Uncles","name_short":"waw-2","host":"waw-1.pl.uncletopia.com","port":27025,"enabled":true,"region":"eu","cc":"pl","latitude":52.2297,"longitude":21.017532,"reserved":0,"last_update":"0001-01-01T00:00:00Z","name_a2s":"Uncletopia | Warsaw | 2 | One Thousand Uncles","protocol":17,"map":"pl_goldrush","folder":"tf","game":"Team Fortress","app_id":440,"player_count":32,"max_players":32,"Bots":16,"server_type":"Dedicated","server_os":"Linux","password":true,"vac":true,"version":"7961495","steam_id":85568392925397851,"keywords":["alltalk","bots","danepve","increased_maxplayers","nocrits","norespawntime","payload","uncletopia"],"game_id":440,"stv_port":0,"stv_name":"","players":[{"user_id":2,"name":"cock","steam_id":76561198307522022,"connected_time":1396000000000,"state":"active","ping":67},{"user_id":3,"name":"middle","steam_id":76561198259762777,"connected_time":1395000000000,"state":"active","ping":54},{"user_id":4,"name":"noseb","steam_id":76561199480942903,"connected_time":1388000000000,"state":"active","ping":90},{"user_id":12,"name":"Itai","steam_id":76561198804555329,"connected_time":1386000000000,"state":"active","ping":103},{"user_id":22,"name":"Amandus","steam_id":76561198036281079,"connected_time":1369000000000,"state":"active","ping":70},{"user_id":37,"name":"Loyde","steam_id":76561198029919524,"connected_time":90000000000,"state":"active","ping":98},{"user_id":24,"name":"videogaming","steam_id":76561198818037965,"connected_time":1356000000000,"state":"active","ping":162},{"user_id":29,"name":"Strangerdanger","steam_id":76561198206728500,"connected_time":1027000000000,"state":"active","ping":89},{"user_id":36,"name":"bigmazi","steam_id":76561198133276643,"connected_time":152000000000,"state":"active","ping":107},{"user_id":27,"name":"Cookies and Bakies","steam_id":76561198017442928,"connected_time":1313000000000,"state":"active","ping":98},{"user_id":28,"name":"val","steam_id":76561198324316160,"connected_time":1282000000000,"state":"active","ping":83},{"user_id":30,"name":"nemelex","steam_id":76561198958005865,"connected_time":943000000000,"state":"active","ping":75},{"user_id":32,"name":"Crimson","steam_id":76561197987552332,"connected_time":201000000000,"state":"active","ping":64},{"user_id":33,"name":"Tomfool","steam_id":76561197993256481,"connected_time":197000000000,"state":"active","ping":82},{"user_id":34,"name":"﷽﷽﷽﷽﷽﷽﷽﷽﷽﷽","steam_id":76561198365973345,"connected_time":186000000000,"state":"active","ping":26},{"user_id":38,"name":"inteli-keeper","steam_id":76561199011763306,"connected_time":67000000000,"state":"active","ping":71}]},{"server_id":51,"name":"Uncletopia | Warsaw | 3 | All Maps","name_short":"waw-3","host":"waw-1.pl.uncletopia.com","port":27035,"enabled":true,"region":"eu","cc":"pl","latitude":52.2297,"longitude":21.017532,"reserved":0,"last_update":"0001-01-01T00:00:00Z","name_a2s":"Uncletopia | Warsaw | 3 | All Maps","protocol":17,"map":"plr_pipeline","folder":"tf","game":"Team Fortress","app_id":440,"player_count":0,"max_players":24,"Bots":0,"server_type":"Dedicated","server_os":"Linux","password":true,"vac":true,"version":"7961495","steam_id":85568392925397852,"keywords":["nocrits","nodmgspread","payload","uncletopia"],"game_id":440,"stv_port":27036,"stv_name":"Uncletopia | Warsaw | 3 | All Maps | STV","players":null},{"server_id":52,"name":"Uncletopia | Warsaw | 4 | All Maps","name_short":"waw-4","host":"waw-1.pl.uncletopia.com","port":27045,"enabled":true,"region":"eu","cc":"pl","latitude":52.2297,"longitude":21.017532,"reserved":0,"last_update":"0001-01-01T00:00:00Z","name_a2s":"Uncletopia | Warsaw | 4 | All Maps","protocol":17,"map":"cp_coldfront","folder":"tf","game":"Team Fortress","app_id":440,"player_count":0,"max_players":24,"Bots":0,"server_type":"Dedicated","server_os":"Linux","password":true,"vac":true,"version":"7961495","steam_id":85568392925397853,"keywords":["cp","nocrits","nodmgspread","uncletopia"],"game_id":440,"stv_port":27046,"stv_name":"Uncletopia | Warsaw | 4 | All Maps | STV","players":null},{"server_id":53,"name":"Uncletopia | Warsaw | 5 | Stopwatch","name_short":"waw-5","host":"waw-1.pl.uncletopia.com","port":27055,"enabled":true,"region":"eu","cc":"pl","latitude":52.2297,"longitude":21.017532,"reserved":0,"last_update":"0001-01-01T00:00:00Z","name_a2s":"Uncletopia | Warsaw | 5 | Stopwatch","protocol":17,"map":"workshop/koth_bagel_rc6.ugc2514036946","folder":"tf","game":"Team Fortress","app_id":440,"player_count":0,"max_players":24,"Bots":0,"server_type":"Dedicated","server_os":"Linux","password":true,"vac":true,"version":"7961495","steam_id":85568392925397854,"keywords":["cp","nocrits","nodmgspread","uncletopia"],"game_id":440,"stv_port":27056,"stv_name":"Uncletopia | Warsaw | 5 | Stopwatch | STV","players":null},{"server_id":54,"name":"Uncletopia | Warsaw | 6 | Community","name_short":"waw-6","host":"waw-1.pl.uncletopia.com","port":27065,"enabled":true,"region":"eu","cc":"pl","latitude":52.2297,"longitude":21.017532,"reserved":0,"last_update":"0001-01-01T00:00:00Z","name_a2s":"Uncletopia | Warsaw | 6 | Community","protocol":17,"map":"workshop/pl_badwater_pro_v12.ugc2142942074","folder":"tf","game":"Team Fortress","app_id":440,"player_count":0,"max_players":24,"Bots":0,"server_type":"Dedicated","server_os":"Linux","password":true,"vac":true,"version":"7961495","steam_id":85568392925397856,"keywords":["nocrits","nodmgspread","payload","uncletopia"],"game_id":440,"stv_port":27066,"stv_name":"Uncletopia | Warsaw | 6 | Community | STV","players":null}]}