{"status":true,"message":"","result":[{"server_id":9,"name":"Uncletopia | Atlanta | 1 | All Maps","name_short":"atl-1","host":"atl-1.us.uncletopia.com","port":27015,"enabled":true,"region":"us-east","cc":"us","latitude":33.753746,"longitude":-84.38633,"reserved":0,"last_update":"0001-01-01T00:00:00Z","name_a2s":"Uncletopia | Atlanta | 1 | All Maps","protocol":17,"map":"cp_mercenarypark","folder":"tf","game":"Team Fortress","app_id":440,"player_count":24,"max_players":24,"Bots":0,"server_type":"Dedicated","server_os":"Linux","password":true,"vac":true,"version":"7757534","steam_id":85568392924469982,"keywords":["cp","nocrits","nodmgspread","uncletopia"],"game_id":440,"stv_port":27016,"stv_name":"Uncletopia | Atlanta | 1 | All Maps | STV","players":[{"user_id":198,"name":"Spy_Is_Pye","steam_id":76561199439622967,"connected_time":896000000000,"state":"active","ping":82},{"user_id":131,"name":"AAAAAAAAAAAAAAAAAAAAAAAAAAAAAAA","steam_id":76561198817866879,"connected_time":7008000000000,"state":"active","ping":64},{"user_id":185,"name":"melancholy","steam_id":76561198024301465,"connected_time":2218000000000,"state":"active","ping":43},{"user_id":200,"name":"mzjosef","steam_id":76561197985742638,"connected_time":781000000000,"state":"active","ping":82},{"user_id":192,"name":"RoboWarrior0410a","steam_id":76561199106531261,"connected_time":1656000000000,"state":"active","ping":66},{"user_id":111,"name":"Ashes!","steam_id":76561197998475441,"connected_time":9098000000000,"state":"active","ping":90},{"user_id":133,"name":"Scrumlet","steam_id":76561198339806643,"connected_time":6516000000000,"state":"active","ping":76},{"user_id":136,"name":"HARRY","steam_id":76561198842067238,"connected_time":6078000000000,"state":"active","ping":63},{"user_id":176,"name":"the-willy12","steam_id":76561199145029672,"connected_time":2733000000000,"state":"active","ping":87},{"user_id":193,"name":"Devilkid","steam_id":76561199082474364,"connected_time":1235000000000,"state":"active","ping":69},{"user_id":199,"name":"Jerkface","steam_id":76561198130815383,"connected_time":796000000000,"state":"active","ping":68},{"user_id":207,"name":"Bottom Trans Cowgirl","steam_id":76561198304239680,"connected_time":355000000000,"state":"active","ping":77},{"user_id":208,"name":"Meatball1106","steam_id":76561199008238301,"connected_time":353000000000,"state":"active","ping":72},{"user_id":195,"name":"luxin","steam_id":76561198399383047,"connected_time":972000000000,"state":"active","ping":52},{"user_id":194,"name":"Rockhead","steam_id":76561197995196535,"connected_time":1141000000000,"state":"active","ping":70},{"user_id":210,"name":"Snazzi","steam_id":76561198085208276,"connected_time":287000000000,"state":"active","ping":75},{"user_id":209,"name":"Harufloofer","steam_id":76561199084506827,"connected_time":347000000000,"state":"active","ping":49},{"user_id":204,"name":"ATL1 | to4st","steam_id":76561198981009008,"connected_time":656000000000,"state":"active","ping":71},{"user_id":211,"name":"ATL1 | eish","steam_id":76561198089463603,"connected_time":225000000000,"state":"active","ping":132},{"user_id":212,"name":"punkly","steam_id":76561198129831492,"connected_time":207000000000,"state":"active","ping":74},{"user_id":206,"name":"XSTANKX","steam_id":76561199144606543,"connected_time":590000000000,"state":"active","ping":92},{"user_id":201,"name":"Rin \"Hindwing\" Redtail","steam_id":76561199074865638,"connected_time":732000000000,"state":"active","ping":58},{"user_id":188,"name":"Your Local Jester","steam_id":76561199120223717,"connected_time":2171000000000,"state":"active","ping":63},{"user_id":213,"name":"illious","steam_id":76561198169925494,"connected_time":197000000000,"state":"active","ping":55}]},{"server_id":400,"name":"Uncletopia | Atlanta | 3 | Stopwatch Beta","name_short":"atl-3","host":"atl-1.us.uncletopia.com","port":27035,"enabled":true,"region":"us-east","cc":"us","latitude":33.753746,"longitude":-84.38633,"reserved":0,"last_update":"0001-01-01T00:00:00Z","name_a2s":"Uncletopia | Atlanta | 3 | Stopwatch Beta","protocol":17,"map":"pl_upward","folder":"tf","game":"Team Fortress","app_id":440,"player_count":0,"max_players":24,"Bots":0,"server_type":"Dedicated","server_os":"Linux","password":true,"vac":true,"version":"7757534","steam_id":85568392924515187,"keywords":["nocrits","nodmgspread","payload","uncletopia"],"game_id":440,"stv_port":27036,"stv_name":"Uncletopia | Atlanta | 3 | Stopwatch Beta | STV","players":null},{"server_id":401,"name":"Uncletopia | Atlanta | 4 | No Payload","name_short":"atl-4","host":"atl-1.us.uncletopia.com","port":27045,"enabled":true,"region":"us-east","cc":"us","latitude":33.753746,"longitude":-84.38633,"reserved":0,"last_update":"0001-01-01T00:00:00Z","name_a2s":"Uncletopia | Atlanta | 4 | No Payload","protocol":17,"map":"pl_pier","folder":"tf","game":"Team Fortress","app_id":440,"player_count":0,"max_players":24,"Bots":0,"server_type":"Dedicated","server_os":"Linux","password":true,"vac":true,"version":"7723704","steam_id":85568392924515188,"keywords":["nocrits","nodmgspread","payload","uncletopia"],"game_id":440,"stv_port":27046,"stv_name":"Uncletopia | Atlanta | 4 | No Payload | STV","players":null},{"server_id":2,"name":"Uncletopia | Chicago | 1 | All Maps","name_short":"chi-1","host":"chi-1.us.uncletopia.com","port":27015,"enabled":true,"region":"us-central","cc":"us","latitude":41.881832,"longitude":-87.62318,"reserved":0,"last_update":"0001-01-01T00:00:00Z","name_a2s":"Uncletopia | Chicago | 1 | All Maps","protocol":17,"map":"cp_powerhouse","folder":"tf","game":"Team Fortress","app_id":440,"player_count":24,"max_players":24,"Bots":0,"server_type":"Dedicated","server_os":"Linux","password":true,"vac":true,"version":"7757534","steam_id":85568392924469984,"keywords":["cp","nocrits","nodmgspread","uncletopia"],"game_id":440,"stv_port":27016,"stv_name":"Uncletopia | Chicago | 1 | All Maps | STV","players":[{"user_id":245,"name":"Pousm","steam_id":76561198272377335,"connected_time":2725000000000,"state":"active","ping":103},{"user_id":243,"name":"Evil rat","steam_id":76561198117181511,"connected_time":2895000000000,"state":"active","ping":68},{"user_id":249,"name":"engie","steam_id":76561199229629045,"connected_time":2176000000000,"state":"active","ping":109},{"user_id":240,"name":"MrPunda59","steam_id":76561199178520181,"connected_time":3814000000000,"state":"active","ping":78},{"user_id":272,"name":"Chrisscar","steam_id":76561198086298130,"connected_time":801000000000,"state":"active","ping":102},{"user_id":235,"name":"the deadliest pyroshark","steam_id":76561198374227766,"connected_time":3951000000000,"state":"active","ping":71},{"user_id":246,"name":"papa stalin","steam_id":76561198353622863,"connected_time":2459000000000,"state":"active","ping":87},{"user_id":259,"name":"MaxTheRetroGuy","steam_id":76561198845344731,"connected_time":1871000000000,"state":"active","ping":63},{"user_id":260,"name":"Nobody","steam_id":76561198286486517,"connected_time":1860000000000,"state":"active","ping":83},{"user_id":262,"name":"Dzzplayz","steam_id":76561198380666998,"connected_time":1346000000000,"state":"active","ping":195},{"user_id":273,"name":"Bub","steam_id":76561198059791574,"connected_time":643000000000,"state":"active","ping":110},{"user_id":274,"name":"Nolan","steam_id":76561198169648081,"connected_time":635000000000,"state":"active","ping":89},{"user_id":248,"name":"violetcassette","steam_id":76561199028224555,"connected_time":2225000000000,"state":"active","ping":106},{"user_id":263,"name":"Dieu-Sama","steam_id":76561198002075862,"connected_time":1321000000000,"state":"active","ping":83},{"user_id":236,"name":"Astoriae!","steam_id":76561199090168858,"connected_time":3949000000000,"state":"active","ping":63},{"user_id":220,"name":"Pete","steam_id":76561198070499160,"connected_time":5144000000000,"state":"active","ping":52},{"user_id":275,"name":"three three","steam_id":76561198177354155,"connected_time":505000000000,"state":"active","ping":49},{"user_id":242,"name":"No Telefrag Plz","steam_id":76561198113931312,"connected_time":3289000000000,"state":"active","ping":75},{"user_id":264,"name":"Peepee poopoo","steam_id":76561198236876754,"connected_time":1204000000000,"state":"active","ping":82},{"user_id":271,"name":"jzplr üé∑üêõ","steam_id":76561198091901520,"connected_time":1001000000000,"state":"active","ping":64},{"user_id":232,"name":"capybara","steam_id":76561198798828328,"connected_time":4373000000000,"state":"active","ping":57},{"user_id":267,"name":"extinct111","steam_id":76561199013696367,"connected_time":1154000000000,"state":"active","ping":66},{"user_id":186,"name":"det","steam_id":76561198170859755,"connected_time":6814000000000,"state":"active","ping":46},{"user_id":270,"name":"Enlightend","steam_id":76561198057955632,"connected_time":1049000000000,"state":"active","ping":110}]},{"server_id":106,"name":"Uncletopia | Chicago | 2 | All Maps","name_short":"chi-2","host":"chi-1.us.uncletopia.com","port":27025,"enabled":true,"region":"us-central","cc":"us","latitude":41.881832,"longitude":-87.62318,"reserved":0,"last_update":"0001-01-01T00:00:00Z","name_a2s":"Uncletopia | Chicago | 2 | All Maps","protocol":17,"map":"cp_sunshine","folder":"tf","game":"Team Fortress","app_id":440,"player_count":24,"max_players":24,"Bots":0,"server_type":"Dedicated","server_os":"Linux","password":true,"vac":true,"version":"7757534","steam_id":85568392924469985,"keywords":["cp","nocrits","nodmgspread","uncletopia"],"game_id":440,"stv_port":27026,"stv_name":"Uncletopia | Chicago | 2 | All Maps | STV","players":[{"user_id":595,"name":"AHH21","steam_id":76561199189721161,"connected_time":437000000000,"state":"active","ping":85},{"user_id":569,"name":"theancientnut","steam_id":76561199396708880,"connected_time":2936000000000,"state":"active","ping":61},{"user_id":599,"name":"ZekeThePlumber","steam_id":76561197995016724,"connected_time":104000000000,"state":"active","ping":61},{"user_id":584,"name":"Landlord","steam_id":76561198987913057,"connected_time":903000000000,"state":"active","ping":116},{"user_id":598,"name":"ricky_racquetball_2009","steam_id":76561198098631397,"connected_time":167000000000,"state":"active","ping":59},{"user_id":558,"name":"Lmgchipmunk","steam_id":76561198187433409,"connected_time":3305000000000,"state":"active","ping":68},{"user_id":596,"name":"thetrueeeveethefrist","steam_id":76561198875867686,"connected_time":382000000000,"state":"active","ping":99},{"user_id":602,"name":"Hedsik","steam_id":76561198045797773,"connected_time":10000000000,"state":"spawning","ping":62},{"user_id":601,"name":"choi","steam_id":76561198053669887,"connected_time":67000000000,"state":"active","ping":105},{"user_id":565,"name":"Axities","steam_id":76561198278008225,"connected_time":3171000000000,"state":"active","ping":87},{"user_id":581,"name":"Tommy Pickles (Very Cool)","steam_id":76561198391261463,"connected_time":1797000000000,"state":"active","ping":75},{"user_id":582,"name":"Yimi","steam_id":76561198097984345,"connected_time":1778000000000,"state":"active","ping":86},{"user_id":555,"name":"Avem","steam_id":76561198058763710,"connected_time":3363000000000,"state":"active","ping":91},{"user_id":591,"name":".9 lg","steam_id":76561198092238353,"connected_time":501000000000,"state":"active","ping":61},{"user_id":585,"name":"saint dijon","steam_id":76561198249725060,"connected_time":587000000000,"state":"active","ping":87},{"user_id":571,"name":"UncleRusty","steam_id":76561198857804782,"connected_time":2792000000000,"state":"active","ping":66},{"user_id":556,"name":"Tainted Lovers","steam_id":76561199012117130,"connected_time":3347000000000,"state":"active","ping":125},{"user_id":592,"name":"Snorty","steam_id":76561198114304454,"connected_time":474000000000,"state":"active","ping":81},{"user_id":593,"name":"‚òÉ‚ùÜFLVRRY‚òÉ‚ùÜ","steam_id":76561199072765441,"connected_time":472000000000,"state":"active","ping":140},{"user_id":572,"name":"smug (back)","steam_id":76561198320010759,"connected_time":2787000000000,"state":"active","ping":30},{"user_id":567,"name":"custodian","steam_id":76561198058793778,"connected_time":3145000000000,"state":"active","ping":72},{"user_id":577,"name":"evnobev","steam_id":76561198038966462,"connected_time":2276000000000,"state":"active","ping":53},{"user_id":573,"name":"LilZambee","steam_id":76561198176903057,"connected_time":2491000000000,"state":"active","ping":84},{"user_id":594,"name":"GiraffeMan","steam_id":76561198042104084,"connected_time":470000000000,"state":"active","ping":77}]},{"server_id":402,"name":"Uncletopia | Chicago | 3 | All Maps","name_short":"chi-3","host":"chi-1.us.uncletopia.com","port":27035,"enabled":true,"region":"us-central","cc":"us","latitude":41.881832,"longitude":-87.62318,"reserved":0,"last_update":"0001-01-01T00:00:00Z","name_a2s":"Uncletopia | Chicago | 3 | All Maps","protocol":17,"map":"pl_barnblitz","folder":"tf","game":"Team Fortress","app_id":440,"player_count":18,"max_players":24,"Bots":0,"server_type":"Dedicated","server_os":"Linux","password":true,"vac":true,"version":"7757534","steam_id":85568392924515191,"keywords":["nocrits","nodmgspread","payload","uncletopia"],"game_id":440,"stv_port":27036,"stv_name":"Uncletopia | Chicago | 3 | All Maps | STV","players":[{"user_id":203,"name":"C4K3","steam_id":76561197996963285,"connected_time":248000000000,"state":"active","ping":83},{"user_id":195,"name":"K1Acell","steam_id":76561199109223442,"connected_time":1067000000000,"state":"active","ping":103},{"user_id":202,"name":"LocaKola","steam_id":76561198173435430,"connected_time":291000000000,"state":"active","ping":72},{"user_id":186,"name":"1440p truck nuts","steam_id":76561198053332483,"connected_time":1568000000000,"state":"active","ping":75},{"user_id":201,"name":"P.C. Baby","steam_id":76561198067011379,"connected_time":312000000000,"state":"active","ping":113},{"user_id":197,"name":"mr detective","steam_id":76561198079892116,"connected_time":914000000000,"state":"active","ping":47},{"user_id":188,"name":"potato pat","steam_id":76561198025489194,"connected_time":1176000000000,"state":"active","ping":78},{"user_id":173,"name":"Chris","steam_id":76561197970315094,"connected_time":2406000000000,"state":"active","ping":42},{"user_id":199,"name":"Tyrone","steam_id":76561198189429665,"connected_time":588000000000,"state":"active","ping":75},{"user_id":198,"name":"AverageArtist","steam_id":76561198302576273,"connected_time":811000000000,"state":"active","ping":66},{"user_id":146,"name":"ghostyAlchemist","steam_id":76561198448078291,"connected_time":4333000000000,"state":"active","ping":72},{"user_id":176,"name":"Scuba67","steam_id":76561198416682940,"connected_time":2209000000000,"state":"active","ping":60},{"user_id":205,"name":"DJ Dandy","steam_id":76561198033208955,"connected_time":153000000000,"state":"active","ping":75},{"user_id":177,"name":"Chuckled","steam_id":76561198217425919,"connected_time":2185000000000,"state":"active","ping":73},{"user_id":178,"name":"Mentally Unstable Pigeon","steam_id":76561199089848094,"connected_time":2173000000000,"state":"active","ping":91},{"user_id":179,"name":"twinkluvr69","steam_id":76561198068712028,"connected_time":2139000000000,"state":"active","ping":68},{"user_id":182,"name":"Hertz","steam_id":76561198245322982,"connected_time":1914000000000,"state":"active","ping":61},{"user_id":194,"name":"God of bread","steam_id":76561198373688035,"connected_time":1082000000000,"state":"active","ping":62}]},{"server_id":403,"name":"Uncletopia | Chicago | 4 | All Maps","name_short":"chi-4","host":"chi-1.us.uncletopia.com","port":27045,"enabled":true,"region":"us-central","cc":"us","latitude":41.881832,"longitude":-87.62318,"reserved":0,"last_update":"0001-01-01T00:00:00Z","name_a2s":"Uncletopia | Chicago | 4 | All Maps","protocol":17,"map":"cp_sunshine","folder":"tf","game":"Team Fortress","app_id":440,"player_count":24,"max_players":24,"Bots":0,"server_type":"Dedicated","server_os":"Linux","password":true,"vac":true,"version":"7757534","steam_id":85568392924515193,"keywords":["cp","nocrits","nodmgspread","uncletopia"],"game_id":440,"stv_port":27046,"stv_name":"Uncletopia | Chicago | 4 | All Maps | STV","players":[{"user_id":154,"name":"GC.loafe","steam_id":76561198119679320,"connected_time":1776000000000,"state":"active","ping":58},{"user_id":181,"name":"Porytal","steam_id":76561198306101889,"connected_time":48000000000,"state":"active","ping":93},{"user_id":172,"name":"ZeiKii","steam_id":76561198353492370,"connected_time":384000000000,"state":"active","ping":44},{"user_id":139,"name":"Twan (no vibes plz)","steam_id":76561197991064908,"connected_time":2584000000000,"state":"active","ping":60},{"user_id":173,"name":"sockman","steam_id":76561198306826566,"connected_time":368000000000,"state":"active","ping":87},{"user_id":106,"name":"GC.bane","steam_id":76561198196769297,"connected_time":4726000000000,"state":"active","ping":60},{"user_id":143,"name":"captainspatklz","steam_id":76561198432167270,"connected_time":2433000000000,"state":"active","ping":71},{"user_id":168,"name":"Kinbo2487","steam_id":76561198184714198,"connected_time":657000000000,"state":"active","ping":70},{"user_id":169,"name":"BoomStick500","steam_id":76561198024476098,"connected_time":567000000000,"state":"active","ping":70},{"user_id":174,"name":"santaman33","steam_id":76561198842392009,"connected_time":306000000000,"state":"active","ping":79},{"user_id":180,"name":"kebab","steam_id":76561198072179483,"connected_time":86000000000,"state":"active","ping":87},{"user_id":115,"name":"Funny Skeleton Man","steam_id":76561198264262564,"connected_time":4156000000000,"state":"active","ping":78},{"user_id":177,"name":"JelloSniffer","steam_id":76561198142770733,"connected_time":269000000000,"state":"active","ping":53},{"user_id":161,"name":"||:‚ô©‚ô©‚ô©‚ô™:|| Opplydead","steam_id":76561198028630334,"connected_time":1445000000000,"state":"active","ping":101},{"user_id":178,"name":"mattioggy","steam_id":76561198806022050,"connected_time":248000000000,"state":"active","ping":161},{"user_id":104,"name":"Wild_Rumpus","steam_id":76561198066393719,"connected_time":4897000000000,"state":"active","ping":58},{"user_id":182,"name":"KikBot1","steam_id":76561199113589462,"connected_time":41000000000,"state":"active","ping":206},{"user_id":165,"name":"J.A.S.E.","steam_id":76561198262852705,"connected_time":915000000000,"state":"active","ping":90},{"user_id":141,"name":"Shamaury","steam_id":76561198073773862,"connected_time":2531000000000,"state":"active","ping":79},{"user_id":179,"name":"sxl","steam_id":76561198150627999,"connected_time":248000000000,"state":"active","ping":86},{"user_id":158,"name":":l","steam_id":76561198880192909,"connected_time":1647000000000,"state":"active","ping":87},{"user_id":111,"name":"CF-166 (CF-TF2 on YT)","steam_id":76561198145893044,"connected_time":4439000000000,"state":"active","ping":81},{"user_id":167,"name":"skipper","steam_id":76561198395965181,"connected_time":881000000000,"state":"active","ping":63},{"user_id":145,"name":"GC.bogey barry","steam_id":76561198053967778,"connected_time":2399000000000,"state":"active","ping":73}]},{"server_id":36,"name":"Uncletopia | Chicago | 5 | All Maps","name_short":"chi-5","host":"chi-2.us.uncletopia.com","port":27015,"enabled":true,"region":"us-central","cc":"us","latitude":41.881832,"longitude":-87.62318,"reserved":0,"last_update":"0001-01-01T00:00:00Z","name_a2s":"Uncletopia | Chicago | 5 | All Maps","protocol":17,"map":"pl_swiftwater_final1","folder":"tf","game":"Team Fortress","app_id":440,"player_count":23,"max_players":24,"Bots":0,"server_type":"Dedicated","server_os":"Linux","password":true,"vac":true,"version":"7757534","steam_id":85568392924866362,"keywords":["nocrits","nodmgspread","payload","uncletopia"],"game_id":440,"stv_port":27016,"stv_name":"Uncletopia | Chicago | 5 | All Maps | STV","players":[{"user_id":253,"name":"bottleknight tf2","steam_id":76561199212343286,"connected_time":1168000000000,"state":"active","ping":88},{"user_id":244,"name":"dover_15","steam_id":76561198062075190,"connected_time":1466000000000,"state":"active","ping":61},{"user_id":250,"name":"Luffy","steam_id":76561198120914343,"connected_time":1296000000000,"state":"active","ping":69},{"user_id":246,"name":"Justis","steam_id":76561197963835016,"connected_time":1376000000000,"state":"active","ping":69},{"user_id":276,"name":"k dot","steam_id":76561199166411595,"connected_time":720000000000,"state":"active","ping":76},{"user_id":252,"name":"SyberBunn","steam_id":76561198287851222,"connected_time":1261000000000,"state":"active","ping":80},{"user_id":255,"name":"Mengle","steam_id":76561198001953684,"connected_time":1022000000000,"state":"active","ping":60},{"user_id":284,"name":"the zoo","steam_id":76561198013732450,"connected_time":334000000000,"state":"active","ping":57},{"user_id":257,"name":"kametro4","steam_id":76561198835430429,"connected_time":972000000000,"state":"active","ping":75},{"user_id":277,"name":"Big Phony","steam_id":76561199092395311,"connected_time":699000000000,"state":"active","ping":61},{"user_id":259,"name":"PhobixTheThing","steam_id":76561199059009386,"connected_time":944000000000,"state":"active","ping":94},{"user_id":281,"name":"iwakvra","steam_id":76561198128164970,"connected_time":425000000000,"state":"active","ping":110},{"user_id":265,"name":"rlty","steam_id":76561198009395055,"connected_time":841000000000,"state":"active","ping":65},{"user_id":274,"name":"heywaitasecond","steam_id":76561199064548292,"connected_time":758000000000,"state":"active","ping":81},{"user_id":263,"name":"CooleCondom","steam_id":76561198106437203,"connected_time":862000000000,"state":"active","ping":131},{"user_id":285,"name":"jolo","steam_id":76561198042831480,"connected_time":88000000000,"state":"active","ping":72},{"user_id":266,"name":"chicken banker","steam_id":76561199195196632,"connected_time":814000000000,"state":"active","ping":78},{"user_id":279,"name":"Platino","steam_id":76561198410957728,"connected_time":642000000000,"state":"active","ping":45},{"user_id":280,"name":"Stapler","steam_id":76561198099295077,"connected_time":640000000000,"state":"active","ping":101},{"user_id":282,"name":"schizophrenic","steam_id":76561198374167942,"connected_time":421000000000,"state":"active","ping":74},{"user_id":187,"name":"Frito","steam_id":76561199230930921,"connected_time":6120000000000,"state":"active","ping":71},{"user_id":283,"name":"tlm","steam_id":76561198178457461,"connected_time":416000000000,"state":"active","ping":61},{"user_id":286,"name":"mr.dog","steam_id":76561199305637990,"connected_time":73000000000,"state":"active","ping":92}]},{"server_id":37,"name":"Uncletopia | Chicago | 6 | All Maps","name_short":"chi-6","host":"chi-2.us.uncletopia.com","port":27025,"enabled":true,"region":"us-central","cc":"us","latitude":41.881832,"longitude":-87.62318,"reserved":0,"last_update":"0001-01-01T00:00:00Z","name_a2s":"Uncletopia | Chicago | 6 | All Maps","protocol":17,"map":"pl_thundermountain","folder":"tf","game":"Team Fortress","app_id":440,"player_count":24,"max_players":24,"Bots":0,"server_type":"Dedicated","server_os":"Linux","password":true,"vac":true,"version":"7757534","steam_id":85568392924866363,"keywords":["nocrits","nodmgspread","payload","uncletopia"],"game_id":440,"stv_port":27026,"stv_name":"Uncletopia | Chicago | 6 | All Maps | STV","players":[{"user_id":351,"name":"eyepen","steam_id":76561198381154476,"connected_time":2004000000000,"state":"active","ping":75},{"user_id":357,"name":"Candy Sparkles","steam_id":76561198126871264,"connected_time":1904000000000,"state":"active","ping":83},{"user_id":381,"name":"KoolBucky","steam_id":76561198147927648,"connected_time":403000000000,"state":"active","ping":112},{"user_id":354,"name":"Le","steam_id":76561198817754233,"connected_time":1982000000000,"state":"active","ping":59},{"user_id":366,"name":"Kzjytsugn","steam_id":76561198130241974,"connected_time":1510000000000,"state":"active","ping":81},{"user_id":368,"name":"Dr Enforcer","steam_id":76561198861436861,"connected_time":1487000000000,"state":"active","ping":88},{"user_id":350,"name":"BALLER","steam_id":76561198053046161,"connected_time":2014000000000,"state":"active","ping":67},{"user_id":348,"name":"Xx_PR3TTY_R4VE_G!R1_xX","steam_id":76561199059016425,"connected_time":2206000000000,"state":"active","ping":58},{"user_id":329,"name":"xMystic_Fire","steam_id":76561198189961543,"connected_time":3980000000000,"state":"active","ping":81},{"user_id":389,"name":"loyaldandan0764","steam_id":76561199231020424,"connected_time":30000000000,"state":"active","ping":129},{"user_id":371,"name":"FROYO domando","steam_id":76561199150367705,"connected_time":1071000000000,"state":"active","ping":88},{"user_id":386,"name":"shark","steam_id":76561198387717978,"connected_time":186000000000,"state":"active","ping":47},{"user_id":369,"name":"CJDGuy","steam_id":76561198213009545,"connected_time":1461000000000,"state":"active","ping":79},{"user_id":378,"name":"Hot Boy","steam_id":76561198235994316,"connected_time":598000000000,"state":"active","ping":93},{"user_id":380,"name":"stevemarshall","steam_id":76561198405982285,"connected_time":436000000000,"state":"active","ping":47},{"user_id":349,"name":"liquid bread","steam_id":76561198012441419,"connected_time":2020000000000,"state":"active","ping":61},{"user_id":384,"name":"uberslak","steam_id":76561198064715241,"connected_time":216000000000,"state":"active","ping":126},{"user_id":388,"name":"WastefulTrash","steam_id":76561198119003597,"connected_time":84000000000,"state":"active","ping":72},{"user_id":292,"name":"Dillon","steam_id":76561198191469611,"connected_time":7644000000000,"state":"active","ping":116},{"user_id":361,"name":"Antwan","steam_id":76561198246200638,"connected_time":1854000000000,"state":"active","ping":68},{"user_id":375,"name":"Corbe","steam_id":76561198353893927,"connected_time":689000000000,"state":"active","ping":81},{"user_id":376,"name":"FROYO Tanner Jarring","steam_id":76561198172024365,"connected_time":678000000000,"state":"active","ping":72},{"user_id":331,"name":"pickled head","steam_id":76561198052571208,"connected_time":3504000000000,"state":"active","ping":70},{"user_id":387,"name":"Hippo","steam_id":76561198096026996,"connected_time":142000000000,"state":"active","ping":85}]},{"server_id":38,"name":"Uncletopia | Chicago | 7 | Stopwatch Beta","name_short":"chi-7","host":"chi-2.us.uncletopia.com","port":27035,"enabled":true,"region":"us-central","cc":"us","latitude":41.881832,"longitude":-87.62318,"reserved":0,"last_update":"0001-01-01T00:00:00Z","name_a2s":"Uncletopia | Chicago | 7 | Stopwatch Beta","protocol":17,"map":"cp_sunshine","folder":"tf","game":"Team Fortress","app_id":440,"player_count":0,"max_players":24,"Bots":0,"server_type":"Dedicated","server_os":"Linux","password":true,"vac":true,"version":"7757534","steam_id":85568392924866364,"keywords":["cp","nocrits","nodmgspread","uncletopia"],"game_id":440,"stv_port":27036,"stv_name":"Uncletopia | Chicago | 7 | Stopwatch Beta | STV","players":null},{"server_id":39,"name":"Uncletopia | Chicago | 8 | Community","name_short":"chi-8","host":"chi-2.us.uncletopia.com","port":27045,"enabled":true,"region":"us-central","cc":"us","latitude":41.881832,"longitude":-87.62318,"reserved":0,"last_update":"0001-01-01T00:00:00Z","name_a2s":"Uncletopia | Chicago | 8 | Community","protocol":17,"map":"workshop/cp_logjam_rc12.ugc454812035","folder":"tf","game":"Team Fortress","app_id":440,"player_count":0,"max_players":24,"Bots":0,"server_type":"Dedicated","server_os":"Linux","password":true,"vac":true,"version":"7757534","steam_id":85568392924866365,"keywords":["cp","nocrits","nodmgspread","uncletopia"],"game_id":440,"stv_port":27046,"stv_name":"Uncletopia | Chicago | 8 | Community | STV","players":null},{"server_id":8,"name":"Uncletopia | Dallas | 1 | All Maps","name_short":"dal-1","host":"dal-1.us.uncletopia.com","port":27015,"enabled":true,"region":"us-central","cc":"us","latitude":32.779167,"longitude":-96.80889,"reserved":0,"last_update":"0001-01-01T00:00:00Z","name_a2s":"Uncletopia | Dallas | 1 | All Maps","protocol":17,"map":"pl_pier","folder":"tf","game":"Team Fortress","app_id":440,"player_count":24,"max_players":24,"Bots":0,"server_type":"Dedicated","server_os":"Linux","password":true,"vac":true,"version":"7757534","steam_id":85568392924469986,"keywords":["nocrits","nodmgspread","payload","uncletopia"],"game_id":440,"stv_port":27016,"stv_name":"Uncletopia | Dallas | 1 | All Maps | STV","players":[{"user_id":296,"name":"Missed a wide","steam_id":76561198261903052,"connected_time":2849000000000,"state":"active","ping":61},{"user_id":319,"name":"Blink","steam_id":76561197986181277,"connected_time":1480000000000,"state":"active","ping":45},{"user_id":343,"name":"seren","steam_id":76561198076805675,"connected_time":21000000000,"state":"spawning","ping":84},{"user_id":335,"name":"Tanner The Fish Man","steam_id":76561198372696640,"connected_time":280000000000,"state":"active","ping":68},{"user_id":326,"name":"rico suave","steam_id":76561198093252989,"connected_time":1176000000000,"state":"active","ping":55},{"user_id":321,"name":"Thicket","steam_id":76561198371066702,"connected_time":1457000000000,"state":"active","ping":62},{"user_id":337,"name":"tkeati","steam_id":76561198056356574,"connected_time":177000000000,"state":"active","ping":90},{"user_id":331,"name":"Tokey","steam_id":76561198825943127,"connected_time":698000000000,"state":"active","ping":70},{"user_id":221,"name":"crow","steam_id":76561198046802071,"connected_time":9445000000000,"state":"active","ping":55},{"user_id":322,"name":"Local","steam_id":76561198069537437,"connected_time":1448000000000,"state":"active","ping":83},{"user_id":293,"name":"Waltuh Gaming","steam_id":76561198173624978,"connected_time":2870000000000,"state":"active","ping":87},{"user_id":342,"name":"dale","steam_id":76561198306498349,"connected_time":99000000000,"state":"active","ping":90},{"user_id":338,"name":"Potassium_","steam_id":76561199085021046,"connected_time":175000000000,"state":"active","ping":44},{"user_id":327,"name":"s p a c e k a t","steam_id":76561198066852209,"connected_time":1128000000000,"state":"active","ping":59},{"user_id":329,"name":"the fella","steam_id":76561198967158026,"connected_time":939000000000,"state":"active","ping":61},{"user_id":332,"name":"Derblitz","steam_id":76561198040953176,"connected_time":529000000000,"state":"active","ping":84},{"user_id":330,"name":"Luna","steam_id":76561198075944196,"connected_time":847000000000,"state":"active","ping":72},{"user_id":318,"name":"Baphy","steam_id":76561199088719865,"connected_time":1558000000000,"state":"active","ping":151},{"user_id":310,"name":"Inkspot","steam_id":76561199003790541,"connected_time":2115000000000,"state":"active","ping":70},{"user_id":299,"name":"MerlinTheWizard","steam_id":76561198171472393,"connected_time":2771000000000,"state":"active","ping":77},{"user_id":300,"name":"She Wants The Initial D","steam_id":76561198428934015,"connected_time":2767000000000,"state":"active","ping":71},{"user_id":333,"name":"Moonflower ‚ú¶","steam_id":76561198191782483,"connected_time":426000000000,"state":"active","ping":50},{"user_id":314,"name":"Zek","steam_id":76561198014574925,"connected_time":1889000000000,"state":"active","ping":90},{"user_id":341,"name":"[CCP] Key XI ÁøíËøëÂπ≥","steam_id":76561198825658971,"connected_time":132000000000,"state":"active","ping":77}]},{"server_id":108,"name":"Uncletopia | Dallas | 2 | All Maps","name_short":"dal-2","host":"dal-1.us.uncletopia.com","port":27025,"enabled":true,"region":"us-central","cc":"us","latitude":32.779167,"longitude":-96.80889,"reserved":0,"last_update":"0001-01-01T00:00:00Z","name_a2s":"Uncletopia | Dallas | 2 | All Maps","protocol":17,"map":"koth_lakeside_final","folder":"tf","game":"Team Fortress","app_id":440,"player_count":0,"max_players":24,"Bots":0,"server_type":"Dedicated","server_os":"Linux","password":true,"vac":true,"version":"7757534","steam_id":85568392924469988,"keywords":["cp","nocrits","nodmgspread","uncletopia"],"game_id":440,"stv_port":27026,"stv_name":"Uncletopia | Dallas | 2 | All Maps | STV","players":null},{"server_id":5,"name":"Uncletopia | Frankfurt | 1 | All Maps","name_short":"frk-1","host":"frk-1.de.uncletopia.com","port":27015,"enabled":true,"region":"eu","cc":"de","latitude":50.110924,"longitude":8.682127,"reserved":0,"last_update":"0001-01-01T00:00:00Z","name_a2s":"Uncletopia | Frankfurt | 1 | All Maps","protocol":17,"map":"cp_steel","folder":"tf","game":"Team Fortress","app_id":440,"player_count":24,"max_players":24,"Bots":0,"server_type":"Dedicated","server_os":"Linux","password":true,"vac":true,"version":"7757534","steam_id":85568392924469989,"keywords":["cp","nocrits","nodmgspread","uncletopia"],"game_id":440,"stv_port":27016,"stv_name":"Uncletopia | Frankfurt | 1 | All Maps | STV","players":[{"user_id":634,"name":"Kaujuc‚Ñ¢","steam_id":76561198059702273,"connected_time":2617000000000,"state":"active","ping":54},{"user_id":637,"name":"r06u3","steam_id":76561198254099253,"connected_time":1640000000000,"state":"active","ping":170},{"user_id":654,"name":"weSt","steam_id":76561198000913325,"connected_time":716000000000,"state":"active","ping":59},{"user_id":656,"name":"EdSuedi","steam_id":76561199387956486,"connected_time":641000000000,"state":"active","ping":50},{"user_id":649,"name":"I am dating your grandmother","steam_id":76561198268159433,"connected_time":815000000000,"state":"active","ping":85},{"user_id":458,"name":"LarsInABox","steam_id":76561198028329262,"connected_time":14962000000000,"state":"active","ping":73},{"user_id":658,"name":"THE widest of birds","steam_id":76561198082516068,"connected_time":568000000000,"state":"active","ping":109},{"user_id":575,"name":"|20BB)\u003eMach","steam_id":76561198952487564,"connected_time":7543000000000,"state":"active","ping":75},{"user_id":652,"name":"SadJackfruit","steam_id":76561198072492337,"connected_time":744000000000,"state":"active","ping":58},{"user_id":642,"name":"L.A. Palm Tree","steam_id":76561199289526521,"connected_time":1610000000000,"state":"active","ping":86},{"user_id":644,"name":"..","steam_id":76561198380752444,"connected_time":1589000000000,"state":"active","ping":69},{"user_id":664,"name":"Bones","steam_id":76561198065081225,"connected_time":47000000000,"state":"active","ping":54},{"user_id":645,"name":"Xiqui","steam_id":76561198818386611,"connected_time":1587000000000,"state":"active","ping":80},{"user_id":653,"name":"Silvan","steam_id":76561198415391988,"connected_time":738000000000,"state":"active","ping":55},{"user_id":662,"name":"Panzerwaffle","steam_id":76561198030382800,"connected_time":436000000000,"state":"active","ping":70},{"user_id":661,"name":"Nice name I Got","steam_id":76561199081569816,"connected_time":484000000000,"state":"active","ping":58},{"user_id":663,"name":"LENY THE NUB","steam_id":76561198037387196,"connected_time":415000000000,"state":"active","ping":83},{"user_id":524,"name":"Pico","steam_id":76561198063552545,"connected_time":12618000000000,"state":"active","ping":98},{"user_id":636,"name":"Sacreshiea","steam_id":76561198169853697,"connected_time":2112000000000,"state":"active","ping":55},{"user_id":620,"name":"akakez","steam_id":76561198095432821,"connected_time":4356000000000,"state":"active","ping":124},{"user_id":638,"name":"donk","steam_id":76561198162676648,"connected_time":1624000000000,"state":"active","ping":61},{"user_id":666,"name":"Scottish Resistance","steam_id":76561198071360214,"connected_time":17000000000,"state":"active","ping":128},{"user_id":640,"name":"Zero (Orbital Gear Mastermind)","steam_id":76561198017416816,"connected_time":1621000000000,"state":"active","ping":57},{"user_id":665,"name":"Dr Ludwig","steam_id":76561198426522902,"connected_time":46000000000,"state":"active","ping":88}]},{"server_id":110,"name":"Uncletopia | Frankfurt | 2 | All Maps","name_short":"frk-2","host":"frk-1.de.uncletopia.com","port":27025,"enabled":true,"region":"eu","cc":"de","latitude":50.110924,"longitude":8.682127,"reserved":0,"last_update":"0001-01-01T00:00:00Z","name_a2s":"Uncletopia | Frankfurt | 2 | All Maps","protocol":17,"map":"pl_upward","folder":"tf","game":"Team Fortress","app_id":440,"player_count":21,"max_players":24,"Bots":0,"server_type":"Dedicated","server_os":"Linux","password":true,"vac":true,"version":"7757534","steam_id":85568392924469990,"keywords":["nocrits","nodmgspread","payload","uncletopia"],"game_id":440,"stv_port":27026,"stv_name":"Uncletopia | Frankfurt | 2 | All Maps | STV","players":[{"user_id":425,"name":"edgar","steam_id":76561198212862423,"connected_time":2992000000000,"state":"active","ping":50},{"user_id":432,"name":"Gravity‚Ñ¢","steam_id":76561197992193212,"connected_time":1824000000000,"state":"active","ping":68},{"user_id":399,"name":"KarlRanzeier","steam_id":76561198066281337,"connected_time":5504000000000,"state":"active","ping":52},{"user_id":446,"name":"Udinese Dion","steam_id":76561198067931573,"connected_time":300000000000,"state":"active","ping":55},{"user_id":440,"name":"Menty","steam_id":76561198036748212,"connected_time":804000000000,"state":"active","ping":36},{"user_id":418,"name":"Ed664","steam_id":76561198136553620,"connected_time":3524000000000,"state":"active","ping":100},{"user_id":436,"name":"Yangus","steam_id":76561198147796010,"connected_time":1251000000000,"state":"active","ping":61},{"user_id":447,"name":"pablo","steam_id":76561198089285014,"connected_time":276000000000,"state":"active","ping":75},{"user_id":449,"name":"Zhang Zuolin","steam_id":76561197997887393,"connected_time":235000000000,"state":"active","ping":59},{"user_id":430,"name":"CommanderX","steam_id":76561197991425069,"connected_time":2367000000000,"state":"active","ping":66},{"user_id":444,"name":"Charles Darwin","steam_id":76561197973496139,"connected_time":474000000000,"state":"active","ping":62},{"user_id":424,"name":"the joy of recycling","steam_id":76561198415564349,"connected_time":3049000000000,"state":"active","ping":60},{"user_id":427,"name":"Ivan_Negrovich","steam_id":76561199249126079,"connected_time":2596000000000,"state":"active","ping":74},{"user_id":431,"name":"TEZC | Coleman","steam_id":76561197990089990,"connected_time":2250000000000,"state":"active","ping":64},{"user_id":435,"name":"Catsanddogs123","steam_id":76561198030868386,"connected_time":1266000000000,"state":"active","ping":102},{"user_id":441,"name":"AIEmil","steam_id":76561198013205559,"connected_time":631000000000,"state":"active","ping":75},{"user_id":393,"name":"Cuthbert","steam_id":76561198204649481,"connected_time":5708000000000,"state":"active","ping":97},{"user_id":434,"name":"Rarky","steam_id":76561198054398642,"connected_time":1270000000000,"state":"active","ping":45},{"user_id":426,"name":"pepper","steam_id":76561198059782462,"connected_time":2881000000000,"state":"active","ping":59},{"user_id":450,"name":"Windows Vista Cruiser","steam_id":76561198064102233,"connected_time":106000000000,"state":"active","ping":70},{"user_id":395,"name":"Zuid","steam_id":76561198335810106,"connected_time":5693000000000,"state":"active","ping":88}]},{"server_id":308,"name":"Uncletopia | Frankfurt | 3 | All Maps","name_short":"frk-3","host":"frk-1.de.uncletopia.com","port":27035,"enabled":true,"region":"eu","cc":"de","latitude":50.110924,"longitude":8.682127,"reserved":0,"last_update":"0001-01-01T00:00:00Z","name_a2s":"Uncletopia | Frankfurt | 3 | All Maps","protocol":17,"map":"pl_borneo","folder":"tf","game":"Team Fortress","app_id":440,"player_count":23,"max_players":24,"Bots":0,"server_type":"Dedicated","server_os":"Linux","password":true,"vac":true,"version":"7757534","steam_id":85568392924504274,"keywords":["nocrits","nodmgspread","payload","uncletopia"],"game_id":440,"stv_port":27036,"stv_name":"Uncletopia | Frankfurt | 3 | All Maps | STV","players":[{"user_id":671,"name":"JohnTraveltime","steam_id":76561199244281754,"connected_time":3199000000000,"state":"active","ping":79},{"user_id":711,"name":"Estyle","steam_id":76561198157804700,"connected_time":227000000000,"state":"active","ping":86},{"user_id":718,"name":"The one who knocks","steam_id":76561198089341471,"connected_time":45000000000,"state":"active","ping":72},{"user_id":713,"name":"Biscuitbox","steam_id":76561198448396620,"connected_time":94000000000,"state":"active","ping":68},{"user_id":714,"name":"Acanda","steam_id":76561198123246537,"connected_time":90000000000,"state":"active","ping":53},{"user_id":706,"name":"mismatch","steam_id":76561198041993514,"connected_time":561000000000,"state":"active","ping":72},{"user_id":689,"name":"MrPOW","steam_id":76561197978597654,"connected_time":1854000000000,"state":"active","ping":60},{"user_id":715,"name":"Nel","steam_id":76561198335891676,"connected_time":75000000000,"state":"active","ping":105},{"user_id":688,"name":"Goliath","steam_id":76561198088583638,"connected_time":1868000000000,"state":"active","ping":47},{"user_id":694,"name":"SailingSeal","steam_id":76561198965637156,"connected_time":1588000000000,"state":"active","ping":74},{"user_id":716,"name":"Doggo","steam_id":76561198091909701,"connected_time":70000000000,"state":"active","ping":102},{"user_id":717,"name":"Mottinen","steam_id":76561198223868928,"connected_time":54000000000,"state":"active","ping":73},{"user_id":719,"name":"FranekOcean","steam_id":76561198254852945,"connected_time":36000000000,"state":"spawning","ping":169},{"user_id":720,"name":"Joe mama","steam_id":76561198806718750,"connected_time":33000000000,"state":"active","ping":64},{"user_id":698,"name":"Gencay","steam_id":76561198973232202,"connected_time":1544000000000,"state":"active","ping":89},{"user_id":685,"name":"‚Ññrth","steam_id":76561198055365234,"connected_time":2389000000000,"state":"active","ping":81},{"user_id":700,"name":"Walter Ego","steam_id":76561198048058470,"connected_time":1536000000000,"state":"active","ping":67},{"user_id":702,"name":"Pilk","steam_id":76561197967264483,"connected_time":1480000000000,"state":"active","ping":61},{"user_id":705,"name":"Gotta","steam_id":76561198027276027,"connected_time":1009000000000,"state":"active","ping":103},{"user_id":626,"name":"dotdotdot","steam_id":76561198057628751,"connected_time":5192000000000,"state":"active","ping":74},{"user_id":675,"name":"DeDedMango","steam_id":76561198928935602,"connected_time":3170000000000,"state":"active","ping":79},{"user_id":721,"name":"Umberto Bossi","steam_id":76561198136150267,"connected_time":10000000000,"state":"spawning","ping":59},{"user_id":703,"name":"Haku ( ‚Ä¢·¥ó‚Ä¢)","steam_id":76561198013292193,"connected_time":1346000000000,"state":"active","ping":75}]},{"server_id":309,"name":"Uncletopia | Frankfurt | 4 | All Maps","name_short":"frk-4","host":"frk-1.de.uncletopia.com","port":27045,"enabled":true,"region":"eu","cc":"de","latitude":50.110924,"longitude":8.682127,"reserved":0,"last_update":"0001-01-01T00:00:00Z","name_a2s":"Uncletopia | Frankfurt | 4 | All Maps","protocol":17,"map":"cp_sunshine","folder":"tf","game":"Team Fortress","app_id":440,"player_count":23,"max_players":24,"Bots":0,"server_type":"Dedicated","server_os":"Linux","password":true,"vac":true,"version":"7757534","steam_id":85568392924504275,"keywords":["cp","nocrits","nodmgspread","uncletopia"],"game_id":440,"stv_port":27046,"stv_name":"Uncletopia | Frankfurt | 4 | All Maps | STV","players":[{"user_id":430,"name":"kpn","steam_id":76561198063512694,"connected_time":3655000000000,"state":"active","ping":68},{"user_id":479,"name":"YEEET","steam_id":76561198914938199,"connected_time":157000000000,"state":"active","ping":88},{"user_id":483,"name":"schmick","steam_id":76561198039537958,"connected_time":63000000000,"state":"active","ping":68},{"user_id":482,"name":"Karl Marxman","steam_id":76561197988226117,"connected_time":88000000000,"state":"active","ping":81},{"user_id":454,"name":"Mr.Schnittlauch","steam_id":76561198295868113,"connected_time":1717000000000,"state":"active","ping":60},{"user_id":457,"name":"Micha≈Ç","steam_id":76561198320346362,"connected_time":1635000000000,"state":"spawning","ping":62},{"user_id":469,"name":"eeeeee","steam_id":76561198017786875,"connected_time":1077000000000,"state":"active","ping":60},{"user_id":453,"name":"Barb√Ätrou","steam_id":76561199439141531,"connected_time":1725000000000,"state":"active","ping":46},{"user_id":455,"name":"eidis","steam_id":76561198314954479,"connected_time":1706000000000,"state":"active","ping":106},{"user_id":468,"name":"penis gnome","steam_id":76561198097612561,"connected_time":1166000000000,"state":"active","ping":69},{"user_id":484,"name":"goofy_aughh_uncle1939","steam_id":76561199224910106,"connected_time":60000000000,"state":"active","ping":75},{"user_id":461,"name":"[BRE] Estienne / HONK","steam_id":76561198359045489,"connected_time":1583000000000,"state":"active","ping":83},{"user_id":459,"name":"R0X","steam_id":76561198047876624,"connected_time":1612000000000,"state":"active","ping":51},{"user_id":392,"name":"i will never understand her","steam_id":76561199042470246,"connected_time":7702000000000,"state":"active","ping":54},{"user_id":465,"name":"Pyrotechnist","steam_id":76561198014709230,"connected_time":1340000000000,"state":"active","ping":85},{"user_id":462,"name":"Enforcer02","steam_id":76561197966045944,"connected_time":1577000000000,"state":"active","ping":53},{"user_id":463,"name":"Cosmic Gamer","steam_id":76561198027357981,"connected_time":1517000000000,"state":"active","ping":91},{"user_id":480,"name":"v0rt3x","steam_id":76561198034695233,"connected_time":122000000000,"state":"active","ping":61},{"user_id":471,"name":"Carrotcracker","steam_id":76561198034862396,"connected_time":1061000000000,"state":"active","ping":77},{"user_id":485,"name":"pavlik rohlik","steam_id":76561198110544279,"connected_time":30000000000,"state":"active","ping":50},{"user_id":475,"name":"darkwater","steam_id":76561197986978738,"connected_time":419000000000,"state":"active","ping":54},{"user_id":481,"name":"marci","steam_id":76561198046777197,"connected_time":105000000000,"state":"active","ping":80},{"user_id":400,"name":"‚¨°","steam_id":76561198189686075,"connected_time":7660000000000,"state":"active","ping":59}]},{"server_id":310,"name":"Uncletopia | Frankfurt | 5 | All Maps","name_short":"frk-5","host":"frk-1.de.uncletopia.com","port":27055,"enabled":true,"region":"eu","cc":"de","latitude":50.110924,"longitude":8.682127,"reserved":0,"last_update":"0001-01-01T00:00:00Z","name_a2s":"Uncletopia | Frankfurt | 5 | All Maps","protocol":17,"map":"pl_hoodoo_final","folder":"tf","game":"Team Fortress","app_id":440,"player_count":24,"max_players":24,"Bots":0,"server_type":"Dedicated","server_os":"Linux","password":true,"vac":true,"version":"7757534","steam_id":85568392924504277,"keywords":["nocrits","nodmgspread","payload","uncletopia"],"game_id":440,"stv_port":27056,"stv_name":"Uncletopia | Frankfurt | 5 | All Maps | STV","players":[{"user_id":499,"name":"Lopata","steam_id":76561198820264239,"connected_time":275000000000,"state":"active","ping":111},{"user_id":500,"name":"Ged","steam_id":76561198079288943,"connected_time":262000000000,"state":"active","ping":125},{"user_id":459,"name":"Hanƒ±mSever23","steam_id":76561198142124751,"connected_time":3598000000000,"state":"active","ping":112},{"user_id":496,"name":"Bengee","steam_id":76561198383901472,"connected_time":438000000000,"state":"active","ping":93},{"user_id":437,"name":"sup3rfr3ddy.","steam_id":76561198119371683,"connected_time":4388000000000,"state":"active","ping":46},{"user_id":485,"name":"Reomk","steam_id":76561198309314129,"connected_time":1307000000000,"state":"active","ping":69},{"user_id":501,"name":"miro","steam_id":76561198196357213,"connected_time":169000000000,"state":"active","ping":89},{"user_id":502,"name":"101 000 tuns of democracy","steam_id":76561198218257120,"connected_time":165000000000,"state":"active","ping":72},{"user_id":471,"name":"Digio","steam_id":76561199065101964,"connected_time":2637000000000,"state":"active","ping":136},{"user_id":503,"name":"23","steam_id":76561198149347502,"connected_time":160000000000,"state":"active","ping":69},{"user_id":455,"name":"Lars","steam_id":76561198141319387,"connected_time":3664000000000,"state":"active","ping":72},{"user_id":448,"name":"Mr.TEA","steam_id":76561198014381591,"connected_time":4094000000000,"state":"active","ping":68},{"user_id":505,"name":"Vitamin Weee","steam_id":76561199183937747,"connected_time":116000000000,"state":"active","ping":78},{"user_id":438,"name":"LionKing","steam_id":76561198023399545,"connected_time":4388000000000,"state":"active","ping":49},{"user_id":492,"name":"demoman gaming fantasy.premierl","steam_id":76561198038744089,"connected_time":868000000000,"state":"active","ping":59},{"user_id":446,"name":"Jedi doggo","steam_id":76561198360026202,"connected_time":4205000000000,"state":"active","ping":75},{"user_id":484,"name":"Trash","steam_id":76561198079081990,"connected_time":1365000000000,"state":"active","ping":54},{"user_id":497,"name":"Dr.Sees [F2P]","steam_id":76561199219233587,"connected_time":431000000000,"state":"active","ping":80},{"user_id":488,"name":"Our Kid","steam_id":76561198049421788,"connected_time":1079000000000,"state":"active","ping":45},{"user_id":491,"name":"Jimbox Sat","steam_id":76561199088912150,"connected_time":885000000000,"state":"active","ping":121},{"user_id":487,"name":"Pink Cheese","steam_id":76561198972186436,"connected_time":1289000000000,"state":"active","ping":71},{"user_id":495,"name":"ViktorYoshi","steam_id":76561199157555246,"connected_time":623000000000,"state":"active","ping":64},{"user_id":474,"name":"how to obtain","steam_id":76561198139303045,"connected_time":2308000000000,"state":"active","ping":89},{"user_id":458,"name":"Economic crisis","steam_id":76561198063562843,"connected_time":3613000000000,"state":"active","ping":55}]},{"server_id":311,"name":"Uncletopia | Frankfurt | 6 | All Maps","name_short":"frk-6","host":"frk-1.de.uncletopia.com","port":27065,"enabled":true,"region":"eu","cc":"de","latitude":50.110924,"longitude":8.682127,"reserved":0,"last_update":"0001-01-01T00:00:00Z","name_a2s":"Uncletopia | Frankfurt | 6 | All Maps","protocol":17,"map":"pl_borneo","folder":"tf","game":"Team Fortress","app_id":440,"player_count":24,"max_players":24,"Bots":0,"server_type":"Dedicated","server_os":"Linux","password":true,"vac":true,"version":"7757534","steam_id":85568392924504278,"keywords":["nocrits","nodmgspread","payload","uncletopia"],"game_id":440,"stv_port":27066,"stv_name":"Uncletopia | Frankfurt | 6 | All Maps | STV","players":[{"user_id":609,"name":"King Nugget","steam_id":76561198134037464,"connected_time":3599000000000,"state":"active","ping":62},{"user_id":647,"name":"Latgaul","steam_id":76561199009145544,"connected_time":484000000000,"state":"active","ping":107},{"user_id":614,"name":"Can I get a Beep Beep","steam_id":76561198010730967,"connected_time":3386000000000,"state":"active","ping":81},{"user_id":607,"name":"Elisko246","steam_id":76561198070377333,"connected_time":3742000000000,"state":"active","ping":81},{"user_id":630,"name":"Ok","steam_id":76561198356826506,"connected_time":2265000000000,"state":"active","ping":61},{"user_id":645,"name":"Goblin (level-5)","steam_id":76561198058211873,"connected_time":1105000000000,"state":"active","ping":47},{"user_id":649,"name":"Raatel","steam_id":76561198370703651,"connected_time":412000000000,"state":"active","ping":75},{"user_id":646,"name":"Shadowengell","steam_id":76561198019284410,"connected_time":526000000000,"state":"active","ping":109},{"user_id":650,"name":"EchoBN","steam_id":76561198287127380,"connected_time":408000000000,"state":"active","ping":62},{"user_id":653,"name":"CaYeRok22","steam_id":76561198134173706,"connected_time":331000000000,"state":"active","ping":66},{"user_id":643,"name":"Bepperman","steam_id":76561198397517828,"connected_time":1231000000000,"state":"active","ping":66},{"user_id":597,"name":"Toasty5050","steam_id":76561198073540881,"connected_time":5178000000000,"state":"active","ping":45},{"user_id":629,"name":"Blaxxun","steam_id":76561198035090697,"connected_time":2296000000000,"state":"active","ping":68},{"user_id":640,"name":"TidB","steam_id":76561198055342304,"connected_time":1764000000000,"state":"active","ping":55},{"user_id":620,"name":"Rimx","steam_id":76561198053034840,"connected_time":3183000000000,"state":"active","ping":90},{"user_id":547,"name":"cockwater","steam_id":76561198209101861,"connected_time":8992000000000,"state":"active","ping":71},{"user_id":557,"name":"PIPANA69","steam_id":76561198958624545,"connected_time":8119000000000,"state":"active","ping":83},{"user_id":621,"name":"CV\u003cDeaD\u003e","steam_id":76561198001816577,"connected_time":3178000000000,"state":"active","ping":97},{"user_id":617,"name":"Spetse","steam_id":76561197990649972,"connected_time":3367000000000,"state":"active","ping":93},{"user_id":652,"name":"weaselmeister","steam_id":76561199059841173,"connected_time":372000000000,"state":"active","ping":61},{"user_id":631,"name":"Cobb Salads","steam_id":76561197971140507,"connected_time":2261000000000,"state":"active","ping":71},{"user_id":636,"name":"Unstable Goat","steam_id":76561197985788557,"connected_time":2115000000000,"state":"active","ping":82},{"user_id":642,"name":"Krocon","steam_id":76561198084906316,"connected_time":1248000000000,"state":"active","ping":89},{"user_id":655,"name":"Silky smooth","steam_id":76561198345773558,"connected_time":215000000000,"state":"active","ping":119}]},{"server_id":23,"name":"Uncletopia | Frankfurt | 7 | Stopwatch Beta","name_short":"frk-7","host":"frk-1.de.uncletopia.com","port":27075,"enabled":true,"region":"eu","cc":"de","latitude":50.110924,"longitude":8.682127,"reserved":0,"last_update":"0001-01-01T00:00:00Z","name_a2s":"Uncletopia | Frankfurt | 7 | Stopwatch Beta","protocol":17,"map":"workshop/koth_ramjam_rc1.ugc459778887","folder":"tf","game":"Team Fortress","app_id":440,"player_count":18,"max_players":24,"Bots":0,"server_type":"Dedicated","server_os":"Linux","password":true,"vac":true,"version":"7757534","steam_id":85568392924742827,"keywords":["cp","nocrits","nodmgspread","uncletopia"],"game_id":440,"stv_port":27076,"stv_name":"Uncletopia | Frankfurt | 7 | Stopwatch Beta | STV","players":[{"user_id":63,"name":"LasagnaLarry22","steam_id":76561198089478290,"connected_time":10940000000000,"state":"active","ping":56},{"user_id":249,"name":"„Éá„Éì„É´„Éâ„ÉÉ„Ç∞","steam_id":76561198079854838,"connected_time":985000000000,"state":"active","ping":83},{"user_id":265,"name":"denimchicken","steam_id":76561197989061982,"connected_time":495000000000,"state":"active","ping":73},{"user_id":264,"name":"Rez","steam_id":76561198410598772,"connected_time":558000000000,"state":"active","ping":55},{"user_id":231,"name":"Andy","steam_id":76561198046918834,"connected_time":3079000000000,"state":"active","ping":66},{"user_id":233,"name":"Varminty","steam_id":76561198069477612,"connected_time":3061000000000,"state":"active","ping":85},{"user_id":242,"name":"Dr. Le Quack","steam_id":76561197995711176,"connected_time":2617000000000,"state":"active","ping":83},{"user_id":246,"name":"Fizzarolli","steam_id":76561198102168681,"connected_time":1247000000000,"state":"active","ping":87},{"user_id":136,"name":"Fat Pigeon","steam_id":76561198817940142,"connected_time":6791000000000,"state":"active","ping":46},{"user_id":266,"name":"Oskuri","steam_id":76561198155956047,"connected_time":483000000000,"state":"active","ping":76},{"user_id":113,"name":"Saihtama","steam_id":76561198067497192,"connected_time":9148000000000,"state":"active","ping":58},{"user_id":261,"name":"antman","steam_id":76561198017352695,"connected_time":606000000000,"state":"active","ping":116},{"user_id":256,"name":"Mr Ze","steam_id":76561198096778520,"connected_time":805000000000,"state":"active","ping":59},{"user_id":155,"name":"G/3","steam_id":76561198234844188,"connected_time":5693000000000,"state":"active","ping":60},{"user_id":263,"name":"cunfu padna","steam_id":76561198013100422,"connected_time":585000000000,"state":"active","ping":67},{"user_id":258,"name":"no skill but still","steam_id":76561198187586606,"connected_time":787000000000,"state":"active","ping":102},{"user_id":259,"name":"‚òÖpoyo‚òÖ","steam_id":76561198150078959,"connected_time":773000000000,"state":"active","ping":76},{"user_id":260,"name":"Scipionemiliano","steam_id":76561198027646559,"connected_time":763000000000,"state":"active","ping":101}]},{"server_id":24,"name":"Uncletopia | Frankfurt | 8 | Community","name_short":"frk-8","host":"frk-1.de.uncletopia.com","port":27085,"enabled":true,"region":"eu","cc":"de","latitude":50.110924,"longitude":8.682127,"reserved":0,"last_update":"0001-01-01T00:00:00Z","name_a2s":"Uncletopia | Frankfurt | 8 | Community","protocol":17,"map":"workshop/koth_ramjam_rc1.ugc459778887","folder":"tf","game":"Team Fortress","app_id":440,"player_count":3,"max_players":24,"Bots":0,"server_type":"Dedicated","server_os":"Linux","password":true,"vac":true,"version":"7757534","steam_id":85568392924742828,"keywords":["cp","nocrits","nodmgspread","uncletopia"],"game_id":440,"stv_port":27086,"stv_name":"Uncletopia | Frankfurt | 8 | Community | STV","players":[{"user_id":33,"name":"AlphaPommes","steam_id":76561199206741091,"connected_time":178000000000,"state":"active","ping":70},{"user_id":26,"name":"Nitschco","steam_id":76561199276030915,"connected_time":3971000000000,"state":"active","ping":48},{"user_id":31,"name":"Stille Willem","steam_id":76561198093579428,"connected_time":2014000000000,"state":"active","ping":62}]},{"server_id":202,"name":"Uncletopia | Hong Kong | 1 | All Maps","name_short":"hgk-1","host":"hgk-1.hk.uncletopia.com","port":27015,"enabled":true,"region":"asia","cc":"hk","latitude":22.302711,"longitude":114.177216,"reserved":0,"last_update":"0001-01-01T00:00:00Z","name_a2s":"Uncletopia | Hong Kong | 1 | All Maps","protocol":17,"map":"pl_borneo","folder":"tf","game":"Team Fortress","app_id":440,"player_count":0,"max_players":24,"Bots":0,"server_type":"Dedicated","server_os":"Linux","password":true,"vac":true,"version":"7757534","steam_id":85568392924494504,"keywords":["nocrits","nodmgspread","payload","uncletopia"],"game_id":440,"stv_port":27016,"stv_name":"Uncletopia | Hong Kong | 1 | All Maps | STV","players":null},{"server_id":1,"name":"Uncletopia | Los Angeles | 1 | All Maps","name_short":"lax-1","host":"lax-1.us.uncletopia.com","port":27015,"enabled":true,"region":"us-west","cc":"us","latitude":33.94279,"longitude":-118.41004,"reserved":0,"last_update":"0001-01-01T00:00:00Z","name_a2s":"Uncletopia | Los Angeles | 1 | All Maps","protocol":17,"map":"koth_cascade","folder":"tf","game":"Team Fortress","app_id":440,"player_count":0,"max_players":24,"Bots":0,"server_type":"Dedicated","server_os":"Linux","password":true,"vac":true,"version":"7757534","steam_id":85568392924469991,"keywords":["cp","nocrits","nodmgspread","uncletopia"],"game_id":440,"stv_port":27016,"stv_name":"Uncletopia | Los Angeles | 1 | All Maps | STV","players":null},{"server_id":112,"name":"Uncletopia | Los Angeles | 2 | All Maps","name_short":"lax-2","host":"lax-1.us.uncletopia.com","port":27025,"enabled":true,"region":"us-west","cc":"us","latitude":33.94279,"longitude":-118.41004,"reserved":0,"last_update":"0001-01-01T00:00:00Z","name_a2s":"Uncletopia | Los Angeles | 2 | All Maps","protocol":17,"map":"pl_barnblitz","folder":"tf","game":"Team Fortress","app_id":440,"player_count":0,"max_players":24,"Bots":0,"server_type":"Dedicated","server_os":"Linux","password":true,"vac":true,"version":"7757534","steam_id":85568392924469992,"keywords":["nocrits","nodmgspread","payload","uncletopia"],"game_id":440,"stv_port":27026,"stv_name":"Uncletopia | Los Angeles | 2 | All Maps | STV","players":null},{"server_id":324,"name":"Uncletopia | Los Angeles | 3 | All Maps","name_short":"lax-3","host":"lax-1.us.uncletopia.com","port":27035,"enabled":true,"region":"us-west","cc":"us","latitude":33.94279,"longitude":-118.41004,"reserved":0,"last_update":"0001-01-01T00:00:00Z","name_a2s":"Uncletopia | Los Angeles | 3 | All Maps","protocol":17,"map":"cp_sunshine","folder":"tf","game":"Team Fortress","app_id":440,"player_count":0,"max_players":24,"Bots":0,"server_type":"Dedicated","server_os":"Linux","password":true,"vac":true,"version":"7757534","steam_id":85568392924510198,"keywords":["cp","nocrits","nodmgspread","uncletopia"],"game_id":440,"stv_port":27036,"stv_name":"Uncletopia | Los Angeles | 3 | All Maps | STV","players":null},{"server_id":25,"name":"Uncletopia | Los Angeles | 4 | Stopwatch Beta","name_short":"lax-4","host":"lax-1.us.uncletopia.com","port":27045,"enabled":true,"region":"us-west","cc":"us","latitude":33.94279,"longitude":-118.41004,"reserved":0,"last_update":"0001-01-01T00:00:00Z","name_a2s":"Uncletopia | Los Angeles | 4 | Stopwatch Beta","protocol":17,"map":"koth_viaduct","folder":"tf","game":"Team Fortress","app_id":440,"player_count":0,"max_players":24,"Bots":0,"server_type":"Dedicated","server_os":"Linux","password":true,"vac":true,"version":"7757534","steam_id":85568392924510199,"keywords":["cp","nocrits","nodmgspread","uncletopia"],"game_id":440,"stv_port":27046,"stv_name":"Uncletopia | Los Angeles | 4 | Stopwatch Beta | STV","players":null},{"server_id":11,"name":"Uncletopia | London | 1 | All Maps","name_short":"lon-1","host":"lon-1.uk.uncletopia.com","port":27015,"enabled":true,"region":"eu","cc":"gb","latitude":51.509865,"longitude":-0.118092,"reserved":0,"last_update":"0001-01-01T00:00:00Z","name_a2s":"Uncletopia | London | 1 | All Maps","protocol":17,"map":"pl_barnblitz","folder":"tf","game":"Team Fortress","app_id":440,"player_count":24,"max_players":24,"Bots":0,"server_type":"Dedicated","server_os":"Linux","password":true,"vac":true,"version":"7757534","steam_id":85568392924367362,"keywords":["nocrits","nodmgspread","payload","uncletopia"],"game_id":440,"stv_port":27016,"stv_name":"Uncletopia | London | 1 | All Maps | STV","players":[{"user_id":665,"name":"Arthur Morgenstern","steam_id":76561199229291603,"connected_time":2875000000000,"state":"active","ping":68},{"user_id":628,"name":"trite","steam_id":76561197983765323,"connected_time":5371000000000,"state":"active","ping":50},{"user_id":691,"name":"Dark ^^","steam_id":76561198036241064,"connected_time":337000000000,"state":"active","ping":73},{"user_id":688,"name":"beebo","steam_id":76561199120277007,"connected_time":513000000000,"state":"active","ping":53},{"user_id":685,"name":"makin' piss","steam_id":76561198052136478,"connected_time":646000000000,"state":"active","ping":77},{"user_id":673,"name":"Schtz.Emilia [3te PGD]","steam_id":76561198031691726,"connected_time":2153000000000,"state":"active","ping":68},{"user_id":624,"name":"The Ginger","steam_id":76561198306862332,"connected_time":5937000000000,"state":"active","ping":69},{"user_id":689,"name":"Lime","steam_id":76561198107113928,"connected_time":461000000000,"state":"active","ping":70},{"user_id":690,"name":"tactical783","steam_id":76561199051688560,"connected_time":453000000000,"state":"active","ping":67},{"user_id":692,"name":"teddy","steam_id":76561198007436837,"connected_time":302000000000,"state":"active","ping":42},{"user_id":693,"name":"Dirty Joe","steam_id":76561198142418870,"connected_time":218000000000,"state":"active","ping":45},{"user_id":662,"name":"Jofiah/TTV","steam_id":76561197977233962,"connected_time":3016000000000,"state":"active","ping":42},{"user_id":670,"name":"SOPHIIEE","steam_id":76561198443798981,"connected_time":2154000000000,"state":"active","ping":56},{"user_id":678,"name":"Aaron","steam_id":76561197990046953,"connected_time":1198000000000,"state":"active","ping":73},{"user_id":694,"name":"KPhii","steam_id":76561198970587061,"connected_time":10000000000,"state":"active","ping":83},{"user_id":638,"name":"dec","steam_id":76561198009660168,"connected_time":5143000000000,"state":"active","ping":57},{"user_id":598,"name":"„Éâ„Éü„Éä„Çπ","steam_id":76561199065917088,"connected_time":7286000000000,"state":"active","ping":67},{"user_id":672,"name":"Fwebbie","steam_id":76561199006875621,"connected_time":2153000000000,"state":"active","ping":68},{"user_id":647,"name":"Kai","steam_id":76561198800004578,"connected_time":4336000000000,"state":"active","ping":58},{"user_id":639,"name":"MW2 lobby survivor","steam_id":76561198048453764,"connected_time":5083000000000,"state":"active","ping":47},{"user_id":650,"name":"Katie","steam_id":76561198056193753,"connected_time":4079000000000,"state":"active","ping":59},{"user_id":684,"name":"Pancakes","steam_id":76561198196259989,"connected_time":650000000000,"state":"active","ping":50},{"user_id":677,"name":"Chloemew","steam_id":76561198042071762,"connected_time":1912000000000,"state":"active","ping":45},{"user_id":682,"name":"sora","steam_id":76561198096547662,"connected_time":971000000000,"state":"active","ping":57}]},{"server_id":114,"name":"Uncletopia | London | 2 | All Maps","name_short":"lon-2","host":"lon-1.uk.uncletopia.com","port":27025,"enabled":true,"region":"eu","cc":"gb","latitude":51.509865,"longitude":-0.118092,"reserved":0,"last_update":"0001-01-01T00:00:00Z","name_a2s":"Uncletopia | London | 2 | All Maps","protocol":17,"map":"pl_badwater","folder":"tf","game":"Team Fortress","app_id":440,"player_count":24,"max_players":24,"Bots":0,"server_type":"Dedicated","server_os":"Linux","password":true,"vac":true,"version":"7757534","steam_id":85568392924470941,"keywords":["nocrits","nodmgspread","payload","uncletopia"],"game_id":440,"stv_port":27026,"stv_name":"Uncletopia | London | 2 | All Maps | STV","players":[{"user_id":772,"name":"pumpkin spice go.ggez.ro","steam_id":76561198449957490,"connected_time":6217000000000,"state":"active","ping":94},{"user_id":809,"name":"Washburne","steam_id":76561198032810579,"connected_time":1625000000000,"state":"active","ping":51},{"user_id":811,"name":"BIGGERDANGO","steam_id":76561198247876394,"connected_time":525000000000,"state":"active","ping":46},{"user_id":749,"name":"FluiDCobRa‚Ñ¢","steam_id":76561198142461723,"connected_time":7640000000000,"state":"active","ping":103},{"user_id":818,"name":"Superiumentarius","steam_id":76561198081642249,"connected_time":496000000000,"state":"active","ping":60},{"user_id":796,"name":"Edla","steam_id":76561198062815315,"connected_time":2759000000000,"state":"active","ping":114},{"user_id":813,"name":"bert","steam_id":76561198156318293,"connected_time":514000000000,"state":"active","ping":48},{"user_id":762,"name":"Syll","steam_id":76561198040736202,"connected_time":6857000000000,"state":"active","ping":118},{"user_id":799,"name":"ToxicBlonde","steam_id":76561198136633815,"connected_time":2689000000000,"state":"active","ping":58},{"user_id":755,"name":"Totoro-Motoro","steam_id":76561198279083427,"connected_time":7282000000000,"state":"active","ping":54},{"user_id":815,"name":"Jamon","steam_id":76561198393024383,"connected_time":510000000000,"state":"active","ping":61},{"user_id":784,"name":"Blo","steam_id":76561198161651469,"connected_time":5341000000000,"state":"active","ping":57},{"user_id":779,"name":"sex giver","steam_id":76561198074661617,"connected_time":5586000000000,"state":"active","ping":75},{"user_id":823,"name":"Archos","steam_id":76561198181820631,"connected_time":60000000000,"state":"active","ping":73},{"user_id":780,"name":"lazoboy","steam_id":76561199074095198,"connected_time":5575000000000,"state":"active","ping":116},{"user_id":767,"name":"ufomaster1111111","steam_id":76561198837347666,"connected_time":6414000000000,"state":"active","ping":52},{"user_id":817,"name":"Doggo","steam_id":76561198973038585,"connected_time":505000000000,"state":"active","ping":175},{"user_id":781,"name":"sex haver","steam_id":76561198798892497,"connected_time":5566000000000,"state":"active","ping":48},{"user_id":819,"name":"Metal Witch","steam_id":76561198138560080,"connected_time":493000000000,"state":"active","ping":144},{"user_id":803,"name":"Bacon Bharty","steam_id":76561198863864966,"connected_time":2512000000000,"state":"active","ping":60},{"user_id":795,"name":"Tengu","steam_id":76561198024146649,"connected_time":2853000000000,"state":"active","ping":45},{"user_id":820,"name":"Hunnington","steam_id":76561198052219699,"connected_time":489000000000,"state":"active","ping":35},{"user_id":821,"name":"fuego","steam_id":76561198054162681,"connected_time":478000000000,"state":"active","ping":74},{"user_id":782,"name":"MordyQ","steam_id":76561198025613597,"connected_time":5419000000000,"state":"active","ping":102}]},{"server_id":320,"name":"Uncletopia | London | 3 | All Maps","name_short":"lon-3","host":"lon-1.uk.uncletopia.com","port":27035,"enabled":true,"region":"eu","cc":"gb","latitude":51.509865,"longitude":-0.118092,"reserved":0,"last_update":"0001-01-01T00:00:00Z","name_a2s":"Uncletopia | London | 3 | All Maps","protocol":17,"map":"pl_badwater","folder":"tf","game":"Team Fortress","app_id":440,"player_count":25,"max_players":24,"Bots":0,"server_type":"Dedicated","server_os":"Linux","password":true,"vac":true,"version":"7757534","steam_id":85568392924510192,"keywords":["nocrits","nodmgspread","payload","uncletopia"],"game_id":440,"stv_port":27036,"stv_name":"Uncletopia | London | 3 | All Maps | STV","players":[{"user_id":722,"name":"Ross","steam_id":76561198965967986,"connected_time":1655000000000,"state":"active","ping":68},{"user_id":738,"name":"sumweeb","steam_id":76561198311624395,"connected_time":882000000000,"state":"active","ping":36},{"user_id":720,"name":"Joseph Stalin","steam_id":76561198033199746,"connected_time":2294000000000,"state":"active","ping":53},{"user_id":680,"name":"Bgm_","steam_id":76561198056452044,"connected_time":5784000000000,"state":"active","ping":74},{"user_id":728,"name":"medick","steam_id":76561199380849468,"connected_time":950000000000,"state":"active","ping":64},{"user_id":739,"name":"Prox","steam_id":76561198351490981,"connected_time":879000000000,"state":"active","ping":44},{"user_id":734,"name":"Nuuskis","steam_id":76561198084042012,"connected_time":915000000000,"state":"active","ping":87},{"user_id":723,"name":"giclure :;","steam_id":76561197986362828,"connected_time":1458000000000,"state":"active","ping":89},{"user_id":729,"name":"B1RD","steam_id":76561198161322527,"connected_time":950000000000,"state":"active","ping":31},{"user_id":610,"name":"Robotomatique","steam_id":76561198354793952,"connected_time":10567000000000,"state":"active","ping":56},{"user_id":735,"name":"woosh (poopy joe)","steam_id":76561198061127604,"connected_time":913000000000,"state":"active","ping":45},{"user_id":616,"name":"Penis Contortionist","steam_id":76561198073663784,"connected_time":10416000000000,"state":"active","ping":35},{"user_id":705,"name":"john fortress","steam_id":76561198202668788,"connected_time":3608000000000,"state":"active","ping":73},{"user_id":693,"name":"Toa LightMakuta","steam_id":76561198212178104,"connected_time":3803000000000,"state":"active","ping":67},{"user_id":694,"name":"borger","steam_id":76561198178059225,"connected_time":3787000000000,"state":"active","ping":99},{"user_id":670,"name":"Scavenger","steam_id":76561199067000038,"connected_time":6948000000000,"state":"active","ping":86},{"user_id":695,"name":"Sparky","steam_id":76561198036754195,"connected_time":3781000000000,"state":"active","ping":56},{"user_id":706,"name":"Pirate Sea Technology ·µÄ·¥π","steam_id":76561198208164745,"connected_time":3604000000000,"state":"active","ping":62},{"user_id":724,"name":"‚òûLaZe‚òú","steam_id":76561198202191400,"connected_time":1230000000000,"state":"active","ping":58},{"user_id":716,"name":"Bill Clinton Official","steam_id":76561198368378113,"connected_time":3345000000000,"state":"active","ping":61},{"user_id":761,"name":"Owie ‚ù§","steam_id":76561198291236778,"connected_time":443000000000,"state":"active","ping":96},{"user_id":736,"name":"Ank Kebab","steam_id":76561198380860878,"connected_time":913000000000,"state":"active","ping":74},{"user_id":775,"name":"zx","steam_id":76561198000079413,"connected_time":5000000000,"state":"spawning","ping":157},{"user_id":765,"name":"jovi_","steam_id":76561198449280552,"connected_time":373000000000,"state":"active","ping":52},{"user_id":699,"name":"NOT DRUNK","steam_id":76561197977122134,"connected_time":3727000000000,"state":"active","ping":61}]},{"server_id":321,"name":"Uncletopia | London | 4 | All Maps","name_short":"lon-4","host":"lon-1.uk.uncletopia.com","port":27045,"enabled":true,"region":"eu","cc":"gb","latitude":51.509865,"longitude":-0.118092,"reserved":0,"last_update":"0001-01-01T00:00:00Z","name_a2s":"Uncletopia | London | 4 | All Maps","protocol":17,"map":"pl_frontier_final","folder":"tf","game":"Team Fortress","app_id":440,"player_count":24,"max_players":24,"Bots":0,"server_type":"Dedicated","server_os":"Linux","password":true,"vac":true,"version":"7757534","steam_id":85568392924510193,"keywords":["nocrits","nodmgspread","payload","uncletopia"],"game_id":440,"stv_port":27046,"stv_name":"Uncletopia | London | 4 | All Maps | STV","players":[{"user_id":452,"name":"foolproof","steam_id":76561198115801132,"connected_time":546000000000,"state":"active","ping":59},{"user_id":403,"name":"‚òÆDaZ‚òÆ","steam_id":76561198062749331,"connected_time":2494000000000,"state":"active","ping":77},{"user_id":441,"name":"Immovable Gonzalez","steam_id":76561198072233046,"connected_time":1412000000000,"state":"active","ping":80},{"user_id":367,"name":"Jamba Sparabo","steam_id":76561198131647600,"connected_time":5911000000000,"state":"active","ping":55},{"user_id":348,"name":"Arturias","steam_id":76561198188720263,"connected_time":6800000000000,"state":"active","ping":59},{"user_id":405,"name":"Amy2Cute","steam_id":76561198291015553,"connected_time":2401000000000,"state":"active","ping":63},{"user_id":434,"name":"Dimitri_612","steam_id":76561199223984137,"connected_time":1784000000000,"state":"active","ping":49},{"user_id":435,"name":"Mario3ghj","steam_id":76561198069804561,"connected_time":1762000000000,"state":"active","ping":83},{"user_id":456,"name":"MaxeCus","steam_id":76561199168830903,"connected_time":31000000000,"state":"active","ping":82},{"user_id":455,"name":"DaSzil","steam_id":76561198275605418,"connected_time":161000000000,"state":"active","ping":81},{"user_id":442,"name":"Lewee","steam_id":76561198058828018,"connected_time":1410000000000,"state":"active","ping":46},{"user_id":453,"name":"TURBOCHIASSE","steam_id":76561198087713683,"connected_time":538000000000,"state":"active","ping":63},{"user_id":362,"name":"My balls itch","steam_id":76561199121794613,"connected_time":6278000000000,"state":"active","ping":87},{"user_id":443,"name":"mohemmedmokhter2005","steam_id":76561199197650506,"connected_time":1284000000000,"state":"active","ping":107},{"user_id":450,"name":"Kaiser","steam_id":76561198145421612,"connected_time":566000000000,"state":"active","ping":79},{"user_id":395,"name":"VEH-DEH-VEH","steam_id":76561198010978989,"connected_time":2805000000000,"state":"active","ping":72},{"user_id":451,"name":"Fruity","steam_id":76561198105858406,"connected_time":562000000000,"state":"active","ping":61},{"user_id":392,"name":"ivanmixo","steam_id":76561198160213989,"connected_time":2952000000000,"state":"active","ping":66},{"user_id":389,"name":"Puzzles","steam_id":76561198137106459,"connected_time":3137000000000,"state":"active","ping":58},{"user_id":366,"name":"Swayer","steam_id":76561198056192460,"connected_time":6017000000000,"state":"active","ping":60},{"user_id":354,"name":"coffee","steam_id":76561198382387303,"connected_time":6747000000000,"state":"active","ping":92},{"user_id":394,"name":"Hiritosaku","steam_id":76561198069659496,"connected_time":2901000000000,"state":"active","ping":75},{"user_id":445,"name":"PGAndy","steam_id":76561199218070297,"connected_time":673000000000,"state":"active","ping":99},{"user_id":446,"name":"Mortimer Khan","steam_id":76561197968829990,"connected_time":673000000000,"state":"active","ping":129}]},{"server_id":21,"name":"Uncletopia | London | 5 | All Maps","name_short":"lon-5","host":"lon-1.uk.uncletopia.com","port":27055,"enabled":true,"region":"eu","cc":"gb","latitude":51.509865,"longitude":-0.118092,"reserved":0,"last_update":"0001-01-01T00:00:00Z","name_a2s":"Uncletopia | London | 5 | All Maps","protocol":17,"map":"pl_frontier_final","folder":"tf","game":"Team Fortress","app_id":440,"player_count":24,"max_players":24,"Bots":0,"server_type":"Dedicated","server_os":"Linux","password":true,"vac":true,"version":"7757534","steam_id":85568392924742829,"keywords":["nocrits","nodmgspread","payload","uncletopia"],"game_id":440,"stv_port":27056,"stv_name":"Uncletopia | London | 5 | All Maps | STV","players":[{"user_id":345,"name":"Jimortal","steam_id":76561198342426856,"connected_time":1250000000000,"state":"active","ping":75},{"user_id":352,"name":"Burning Spear","steam_id":76561198130111442,"connected_time":166000000000,"state":"spawning","ping":45},{"user_id":296,"name":"Anri Okita's Massive Milkers","steam_id":76561199186352720,"connected_time":4775000000000,"state":"active","ping":59},{"user_id":353,"name":"erobrine2","steam_id":76561198173218318,"connected_time":162000000000,"state":"active","ping":49},{"user_id":349,"name":"Duarte‚Ñ¢","steam_id":76561198131456324,"connected_time":895000000000,"state":"active","ping":81},{"user_id":281,"name":"walking sentry","steam_id":76561199225363633,"connected_time":5740000000000,"state":"active","ping":51},{"user_id":356,"name":"Mb","steam_id":76561197988871428,"connected_time":11000000000,"state":"active","ping":47},{"user_id":347,"name":"Max Andrew","steam_id":76561198158955194,"connected_time":1090000000000,"state":"active","ping":68},{"user_id":322,"name":"LordCommanderNeo","steam_id":76561198262986421,"connected_time":3397000000000,"state":"active","ping":48},{"user_id":348,"name":"BING CHILLING","steam_id":76561198065438030,"connected_time":970000000000,"state":"active","ping":125},{"user_id":300,"name":"O. Wilson","steam_id":76561198090751331,"connected_time":4535000000000,"state":"active","ping":67},{"user_id":278,"name":"Bagels","steam_id":76561198389646406,"connected_time":5790000000000,"state":"active","ping":54},{"user_id":334,"name":"Miles","steam_id":76561198084891833,"connected_time":2089000000000,"state":"active","ping":45},{"user_id":350,"name":"Simonisis","steam_id":76561198049706007,"connected_time":617000000000,"state":"active","ping":109},{"user_id":339,"name":"holykyckling","steam_id":76561198040661615,"connected_time":1359000000000,"state":"active","ping":89},{"user_id":305,"name":"cat","steam_id":76561198834897089,"connected_time":4329000000000,"state":"active","ping":69},{"user_id":343,"name":"Kreal","steam_id":76561198073437224,"connected_time":1309000000000,"state":"active","ping":114},{"user_id":354,"name":"joecalmatt","steam_id":76561198172552015,"connected_time":89000000000,"state":"active","ping":45},{"user_id":355,"name":"Fridge","steam_id":76561198071665589,"connected_time":56000000000,"state":"active","ping":107},{"user_id":335,"name":"Shlongulator","steam_id":76561198149779201,"connected_time":1968000000000,"state":"active","ping":58},{"user_id":346,"name":"___U_w_U___","steam_id":76561198246939740,"connected_time":1204000000000,"state":"active","ping":78},{"user_id":303,"name":"Mal ‚òÖ","steam_id":76561198262337669,"connected_time":4414000000000,"state":"active","ping":75},{"user_id":307,"name":"PuregoldSTF","steam_id":76561198220182655,"connected_time":4195000000000,"state":"active","ping":46},{"user_id":328,"name":"ne0n","steam_id":76561198032101031,"connected_time":2739000000000,"state":"active","ping":93}]},{"server_id":22,"name":"Uncletopia | London | 6 | All Maps","name_short":"lon-6","host":"lon-1.uk.uncletopia.com","port":27065,"enabled":true,"region":"eu","cc":"gb","latitude":51.509865,"longitude":-0.118092,"reserved":0,"last_update":"0001-01-01T00:00:00Z","name_a2s":"Uncletopia | London | 6 | All Maps","protocol":17,"map":"pl_pier","folder":"tf","game":"Team Fortress","app_id":440,"player_count":24,"max_players":24,"Bots":0,"server_type":"Dedicated","server_os":"Linux","password":true,"vac":true,"version":"7757534","steam_id":85568392924742830,"keywords":["nocrits","nodmgspread","payload","uncletopia"],"game_id":440,"stv_port":27066,"stv_name":"Uncletopia | London | 6 | All Maps | STV","players":[{"user_id":467,"name":"Zigguski","steam_id":76561198022990016,"connected_time":1115000000000,"state":"active","ping":53},{"user_id":487,"name":"lunaire","steam_id":76561198163344452,"connected_time":109000000000,"state":"active","ping":90},{"user_id":484,"name":"Krabs","steam_id":76561198161679477,"connected_time":215000000000,"state":"active","ping":45},{"user_id":485,"name":"redlix-AA-","steam_id":76561198119413461,"connected_time":194000000000,"state":"active","ping":84},{"user_id":466,"name":"OutOfDucks","steam_id":76561198166376227,"connected_time":1129000000000,"state":"active","ping":60},{"user_id":469,"name":"roblan11","steam_id":76561198066839258,"connected_time":1074000000000,"state":"active","ping":54},{"user_id":470,"name":"Wardruna96","steam_id":76561199057083828,"connected_time":1038000000000,"state":"active","ping":75},{"user_id":459,"name":"Thors","steam_id":76561197968739075,"connected_time":2035000000000,"state":"active","ping":44},{"user_id":440,"name":"paradox4324","steam_id":76561198148255246,"connected_time":3830000000000,"state":"active","ping":66},{"user_id":486,"name":"redahachimi2022","steam_id":76561198965193521,"connected_time":184000000000,"state":"active","ping":94},{"user_id":477,"name":"Loberless","steam_id":76561198277844777,"connected_time":878000000000,"state":"active","ping":45},{"user_id":458,"name":"rummy","steam_id":76561197997573379,"connected_time":2266000000000,"state":"active","ping":53},{"user_id":488,"name":"islandmonkey","steam_id":76561198078839950,"connected_time":86000000000,"state":"active","ping":53},{"user_id":489,"name":"a straight white male","steam_id":76561198381120660,"connected_time":76000000000,"state":"active","ping":92},{"user_id":430,"name":"Refre35","steam_id":76561198971840738,"connected_time":4643000000000,"state":"active","ping":76},{"user_id":446,"name":"Dr Sex","steam_id":76561198029044617,"connected_time":3328000000000,"state":"active","ping":51},{"user_id":480,"name":"2D-Powder","steam_id":76561199146110099,"connected_time":858000000000,"state":"active","ping":85},{"user_id":425,"name":"RadialMount","steam_id":76561198063002562,"connected_time":4747000000000,"state":"active","ping":72},{"user_id":474,"name":"SnugTaro","steam_id":76561198207515803,"connected_time":1009000000000,"state":"active","ping":58},{"user_id":475,"name":"Cute little duck","steam_id":76561198215398099,"connected_time":1003000000000,"state":"active","ping":72},{"user_id":490,"name":"Tobi lft 6v6","steam_id":76561198049890080,"connected_time":56000000000,"state":"active","ping":46},{"user_id":482,"name":"DrExplosive","steam_id":76561198063678579,"connected_time":698000000000,"state":"active","ping":41},{"user_id":434,"name":"Monsteh","steam_id":76561198325898181,"connected_time":4580000000000,"state":"active","ping":74},{"user_id":445,"name":"Mr_Pulse_","steam_id":76561198095001602,"connected_time":3430000000000,"state":"active","ping":108}]},{"server_id":40,"name":"Uncletopia | London | 7 | No Payload","name_short":"lon-7","host":"lon-1.uk.uncletopia.com","port":27075,"enabled":true,"region":"eu","cc":"gb","latitude":51.509865,"longitude":-0.118092,"reserved":0,"last_update":"0001-01-01T00:00:00Z","name_a2s":"Uncletopia | London | 7 | No Payload","protocol":17,"map":"ctf_landfall","folder":"tf","game":"Team Fortress","app_id":440,"player_count":21,"max_players":24,"Bots":0,"server_type":"Dedicated","server_os":"Linux","password":true,"vac":true,"version":"7757534","steam_id":85568392924964314,"keywords":["ctf","nocrits","nodmgspread","uncletopia"],"game_id":440,"stv_port":27076,"stv_name":"Uncletopia | London | 7 | No Payload | STV","players":[{"user_id":394,"name":"Craig Crusade","steam_id":76561199225918086,"connected_time":88000000000,"state":"active","ping":54},{"user_id":360,"name":"Pauler le one","steam_id":76561198398152855,"connected_time":1775000000000,"state":"active","ping":105},{"user_id":357,"name":"Pinkchup","steam_id":76561198106802803,"connected_time":1956000000000,"state":"active","ping":78},{"user_id":382,"name":"lupe.-","steam_id":76561198079813788,"connected_time":860000000000,"state":"active","ping":60},{"user_id":358,"name":"Minimi","steam_id":76561198873850443,"connected_time":1947000000000,"state":"active","ping":40},{"user_id":380,"name":"Papa John's Pepperoni Pizza","steam_id":76561198078844080,"connected_time":949000000000,"state":"active","ping":77},{"user_id":383,"name":"Barry \u0026 Paul","steam_id":76561198046853438,"connected_time":795000000000,"state":"active","ping":52},{"user_id":340,"name":"Mono","steam_id":76561198114569493,"connected_time":2808000000000,"state":"active","ping":44},{"user_id":363,"name":"Areck2","steam_id":76561199041737814,"connected_time":1543000000000,"state":"active","ping":45},{"user_id":378,"name":"Shio","steam_id":76561198127332317,"connected_time":1048000000000,"state":"active","ping":71},{"user_id":388,"name":"–≤–æ–∑–¥—É—à–Ω—ã–π–ø–æ—Ü–µ–ª—É\ufffd","steam_id":76561198843824975,"connected_time":641000000000,"state":"active","ping":96},{"user_id":365,"name":"Mostro","steam_id":76561199121981748,"connected_time":1478000000000,"state":"active","ping":76},{"user_id":366,"name":"nop 21","steam_id":76561198331641220,"connected_time":1451000000000,"state":"active","ping":54},{"user_id":367,"name":"lun4tic","steam_id":76561198850496647,"connected_time":1445000000000,"state":"active","ping":74},{"user_id":395,"name":"Alfredo","steam_id":76561199130171304,"connected_time":62000000000,"state":"active","ping":62},{"user_id":386,"name":"lmao ur dead :)","steam_id":76561199089353681,"connected_time":757000000000,"state":"active","ping":97},{"user_id":389,"name":"the ebic gamner","steam_id":76561199220801849,"connected_time":637000000000,"state":"active","ping":71},{"user_id":257,"name":"Feelin' Supersonic","steam_id":76561198005738407,"connected_time":9716000000000,"state":"active","ping":89},{"user_id":387,"name":"pumpkin","steam_id":76561198205313772,"connected_time":737000000000,"state":"active","ping":109},{"user_id":371,"name":"Vibing Wave [IRAN]","steam_id":76561198866358613,"connected_time":1232000000000,"state":"active","ping":171},{"user_id":285,"name":"Owlet","steam_id":76561198065613974,"connected_time":7749000000000,"state":"active","ping":61}]},{"server_id":41,"name":"Uncletopia | London | 8 | Community","name_short":"lon-8","host":"lon-1.uk.uncletopia.com","port":27085,"enabled":true,"region":"eu","cc":"gb","latitude":51.509865,"longitude":-0.118092,"reserved":0,"last_update":"0001-01-01T00:00:00Z","name_a2s":"Uncletopia | London | 8 | Community","protocol":17,"map":"workshop/koth_synthetic_rc6a.ugc1549817316","folder":"tf","game":"Team Fortress","app_id":440,"player_count":8,"max_players":24,"Bots":0,"server_type":"Dedicated","server_os":"Linux","password":true,"vac":true,"version":"7757534","steam_id":85568392924964315,"keywords":["cp","nocrits","nodmgspread","uncletopia"],"game_id":440,"stv_port":27086,"stv_name":"Uncletopia | London | 8 | Community | STV","players":[{"user_id":60,"name":"MrDerp121","steam_id":76561198060827332,"connected_time":714000000000,"state":"active","ping":37},{"user_id":32,"name":"Karsapaali","steam_id":76561198322322739,"connected_time":3470000000000,"state":"active","ping":80},{"user_id":54,"name":"ronnie","steam_id":76561198377533237,"connected_time":1539000000000,"state":"active","ping":80},{"user_id":59,"name":"Noctpoint","steam_id":76561198068566797,"connected_time":802000000000,"state":"active","ping":143},{"user_id":56,"name":"Mufynz","steam_id":76561198057613069,"connected_time":1464000000000,"state":"active","ping":59},{"user_id":63,"name":"serbianknight","steam_id":76561199137992595,"connected_time":170000000000,"state":"spawning","ping":217},{"user_id":62,"name":"KatTheCookiCat","steam_id":76561199054643392,"connected_time":461000000000,"state":"active","ping":60},{"user_id":42,"name":"Aymerhic","steam_id":76561198038404312,"connected_time":2272000000000,"state":"active","ping":56}]},{"server_id":300,"name":"Uncletopia | Montr√©al | 1 | All Maps","name_short":"mtl-1","host":"mtl-1.ca.uncletopia.com","port":27015,"enabled":true,"region":"us-east","cc":"ca","latitude":45.50889,"longitude":-73.56167,"reserved":0,"last_update":"0001-01-01T00:00:00Z","name_a2s":"Uncletopia | Montr√©al | 1 | All Maps","protocol":17,"map":"koth_cascade","folder":"tf","game":"Team Fortress","app_id":440,"player_count":0,"max_players":24,"Bots":0,"server_type":"Dedicated","server_os":"Linux","password":true,"vac":true,"version":"7757534","steam_id":85568392924500087,"keywords":["cp","nocrits","nodmgspread","uncletopia"],"game_id":440,"stv_port":27016,"stv_name":"Uncletopia | Montr√©al | 1 | All Maps | STV","players":null},{"server_id":301,"name":"Uncletopia | Montr√©al | 2 | All Maps","name_short":"mtl-2","host":"mtl-1.ca.uncletopia.com","port":27025,"enabled":true,"region":"us-east","cc":"ca","latitude":45.50889,"longitude":-73.56167,"reserved":0,"last_update":"0001-01-01T00:00:00Z","name_a2s":"Uncletopia | Montr√©al | 2 | All Maps","protocol":17,"map":"pl_badwater","folder":"tf","game":"Team Fortress","app_id":440,"player_count":2,"max_players":24,"Bots":0,"server_type":"Dedicated","server_os":"Linux","password":true,"vac":true,"version":"7757534","steam_id":85568392924500088,"keywords":["nocrits","nodmgspread","payload","uncletopia"],"game_id":440,"stv_port":27026,"stv_name":"Uncletopia | Montr√©al | 2 | All Maps | STV","players":[{"user_id":8,"name":"JRDN LOWS","steam_id":76561198079401635,"connected_time":1338000000000,"state":"active","ping":59},{"user_id":9,"name":"kid named finger","steam_id":76561198140412302,"connected_time":1234000000000,"state":"active","ping":68}]},{"server_id":302,"name":"Uncletopia | Montr√©al | 3 | All Maps","name_short":"mtl-3","host":"mtl-1.ca.uncletopia.com","port":27035,"enabled":true,"region":"us-east","cc":"ca","latitude":45.50889,"longitude":-73.56167,"reserved":0,"last_update":"0001-01-01T00:00:00Z","name_a2s":"Uncletopia | Montr√©al | 3 | All Maps","protocol":17,"map":"cp_sunshine","folder":"tf","game":"Team Fortress","app_id":440,"player_count":0,"max_players":24,"Bots":0,"server_type":"Dedicated","server_os":"Linux","password":true,"vac":true,"version":"7757534","steam_id":85568392924500089,"keywords":["cp","nocrits","nodmgspread","uncletopia"],"game_id":440,"stv_port":27036,"stv_name":"Uncletopia | Montr√©al | 3 | All Maps | STV","players":null},{"server_id":303,"name":"Uncletopia | Montr√©al | 4 | No Payload","name_short":"mtl-4","host":"mtl-1.ca.uncletopia.com","port":27045,"enabled":true,"region":"us-east","cc":"ca","latitude":45.50889,"longitude":-73.56167,"reserved":0,"last_update":"0001-01-01T00:00:00Z","name_a2s":"Uncletopia | Montr√©al | 4 | No Payload","protocol":17,"map":"koth_lakeside_final","folder":"tf","game":"Team Fortress","app_id":440,"player_count":0,"max_players":24,"Bots":0,"server_type":"Dedicated","server_os":"Linux","password":true,"vac":true,"version":"7757534","steam_id":85568392924500090,"keywords":["cp","nocrits","nodmgspread","uncletopia"],"game_id":440,"stv_port":27046,"stv_name":"Uncletopia | Montr√©al | 4 | No Payload | STV","players":null},{"server_id":13,"name":"Uncletopia | New York City | 1 | All Maps","name_short":"nyc-1","host":"nyc-1.us.uncletopia.com","port":27015,"enabled":true,"region":"us-east","cc":"us","latitude":40.73061,"longitude":-73.93524,"reserved":0,"last_update":"0001-01-01T00:00:00Z","name_a2s":"Uncletopia | New York City | 1 | All Maps","protocol":17,"map":"pl_barnblitz","folder":"tf","game":"Team Fortress","app_id":440,"player_count":24,"max_players":24,"Bots":0,"server_type":"Dedicated","server_os":"Linux","password":true,"vac":true,"version":"7757534","steam_id":85568392924469993,"keywords":["nocrits","nodmgspread","payload","uncletopia"],"game_id":440,"stv_port":27016,"stv_name":"Uncletopia | New York City | 1 | All Maps | STV","players":[{"user_id":278,"name":"CRAZY engineer","steam_id":76561198887937902,"connected_time":4450000000000,"state":"active","ping":82},{"user_id":306,"name":"Buff Banner activist","steam_id":76561199215017657,"connected_time":2690000000000,"state":"active","ping":99},{"user_id":291,"name":"thegoldensnanz","steam_id":76561198044798336,"connected_time":3582000000000,"state":"active","ping":99},{"user_id":315,"name":"Samus","steam_id":76561198121933439,"connected_time":1763000000000,"state":"active","ping":56},{"user_id":313,"name":"Im High","steam_id":76561198049954886,"connected_time":1796000000000,"state":"active","ping":54},{"user_id":318,"name":"Adalwolfa","steam_id":76561198194671218,"connected_time":1726000000000,"state":"active","ping":54},{"user_id":319,"name":"Lord GabeN","steam_id":76561198140862723,"connected_time":1709000000000,"state":"active","ping":78},{"user_id":301,"name":"Amogus The Sussy Baka ‡∂û","steam_id":76561198008577961,"connected_time":3175000000000,"state":"active","ping":60},{"user_id":323,"name":"seventh dose (sleep)","steam_id":76561198033351858,"connected_time":1369000000000,"state":"active","ping":58},{"user_id":311,"name":"crippling fumo addiction","steam_id":76561198115874625,"connected_time":2264000000000,"state":"active","ping":55},{"user_id":325,"name":"4ling","steam_id":76561197994398381,"connected_time":1103000000000,"state":"active","ping":61},{"user_id":293,"name":"Chechens Spotted","steam_id":76561199028910893,"connected_time":3508000000000,"state":"active","ping":73},{"user_id":330,"name":"tethys","steam_id":76561199022899220,"connected_time":801000000000,"state":"active","ping":46},{"user_id":266,"name":"Pluto","steam_id":76561198012630802,"connected_time":5128000000000,"state":"active","ping":121},{"user_id":249,"name":"WarpdriveEngineer","steam_id":76561198073530973,"connected_time":7049000000000,"state":"active","ping":67},{"user_id":334,"name":"Morbi","steam_id":76561198126853838,"connected_time":122000000000,"state":"active","ping":62},{"user_id":324,"name":"fudo myoo","steam_id":76561198456258164,"connected_time":1133000000000,"state":"active","ping":69},{"user_id":320,"name":"Sigiferd","steam_id":76561198148788110,"connected_time":1706000000000,"state":"active","ping":117},{"user_id":333,"name":"yeah but can you","steam_id":76561198019476636,"connected_time":214000000000,"state":"active","ping":62},{"user_id":209,"name":"PizzaPasta","steam_id":76561199125109082,"connected_time":9090000000000,"state":"active","ping":66},{"user_id":308,"name":"GardenOfStone","steam_id":76561199069870534,"connected_time":2520000000000,"state":"active","ping":105},{"user_id":328,"name":"Goatsifer Grassmuncher The III","steam_id":76561199328079799,"connected_time":894000000000,"state":"active","ping":70},{"user_id":322,"name":"Zigadox","steam_id":76561198079813479,"connected_time":1665000000000,"state":"active","ping":86},{"user_id":329,"name":"DumbScout","steam_id":76561198059646395,"connected_time":893000000000,"state":"active","ping":55}]},{"server_id":14,"name":"Uncletopia | New York City | 2 | All Maps","name_short":"nyc-2","host":"nyc-1.us.uncletopia.com","port":27025,"enabled":true,"region":"us-east","cc":"us","latitude":40.73061,"longitude":-73.93524,"reserved":0,"last_update":"0001-01-01T00:00:00Z","name_a2s":"Uncletopia | New York City | 2 | All Maps","protocol":17,"map":"pl_snowycoast","folder":"tf","game":"Team Fortress","app_id":440,"player_count":24,"max_players":24,"Bots":0,"server_type":"Dedicated","server_os":"Linux","password":true,"vac":true,"version":"7757534","steam_id":85568392924469994,"keywords":["nocrits","nodmgspread","payload","uncletopia"],"game_id":440,"stv_port":27026,"stv_name":"Uncletopia | New York City | 2 | All Maps | STV","players":[{"user_id":120,"name":"The Zoidberg Medic","steam_id":76561197994285087,"connected_time":87000000000,"state":"active","ping":46},{"user_id":73,"name":"YourFriendJessie #savetf2","steam_id":76561198176883097,"connected_time":3931000000000,"state":"active","ping":58},{"user_id":98,"name":"super lesbian animal","steam_id":76561198082753631,"connected_time":2565000000000,"state":"active","ping":46},{"user_id":76,"name":"e","steam_id":76561198311704368,"connected_time":3764000000000,"state":"active","ping":61},{"user_id":108,"name":"PingoTTV","steam_id":76561198104602620,"connected_time":1575000000000,"state":"active","ping":85},{"user_id":77,"name":"z","steam_id":76561198801214349,"connected_time":3753000000000,"state":"active","ping":63},{"user_id":33,"name":"beethan","steam_id":76561198148199120,"connected_time":5788000000000,"state":"active","ping":85},{"user_id":117,"name":"racecar","steam_id":76561198246481616,"connected_time":210000000000,"state":"active","ping":72},{"user_id":118,"name":"DPC | JigglyBuff","steam_id":76561198168330697,"connected_time":204000000000,"state":"active","ping":54},{"user_id":90,"name":"The Greendale Human Beings","steam_id":76561198055433422,"connected_time":3058000000000,"state":"active","ping":65},{"user_id":57,"name":"SaltySeaBiscuts","steam_id":76561199204549005,"connected_time":4814000000000,"state":"active","ping":69},{"user_id":110,"name":"MurpAMurp","steam_id":76561198374437261,"connected_time":1453000000000,"state":"active","ping":68},{"user_id":79,"name":"Filthy Acts at Reasonable Price","steam_id":76561198354615890,"connected_time":3666000000000,"state":"active","ping":93},{"user_id":103,"name":"guyinatophat51","steam_id":76561198180230694,"connected_time":1905000000000,"state":"active","ping":92},{"user_id":102,"name":"coatch gamign (*·¥óÕàÀ¨·¥óÕà)\ufffd\ufffd","steam_id":76561198060886742,"connected_time":1921000000000,"state":"active","ping":65},{"user_id":99,"name":"THE BULLDOZER","steam_id":76561199122232082,"connected_time":2488000000000,"state":"active","ping":57},{"user_id":91,"name":"gigacat","steam_id":76561198055638231,"connected_time":2922000000000,"state":"active","ping":59},{"user_id":105,"name":"Bri","steam_id":76561198089908485,"connected_time":1744000000000,"state":"active","ping":90},{"user_id":119,"name":"AbandonedGhost","steam_id":76561198986255057,"connected_time":196000000000,"state":"active","ping":55},{"user_id":113,"name":"Mong","steam_id":76561198802104171,"connected_time":1212000000000,"state":"active","ping":79},{"user_id":116,"name":"pencilneck","steam_id":76561198865971290,"connected_time":305000000000,"state":"active","ping":89},{"user_id":121,"name":"floppy muppet","steam_id":76561198003076261,"connected_time":52000000000,"state":"active","ping":94},{"user_id":115,"name":"Satan","steam_id":76561198049821475,"connected_time":549000000000,"state":"active","ping":67},{"user_id":122,"name":"Ham Fatty","steam_id":76561198071454198,"connected_time":46000000000,"state":"active","ping":89}]},{"server_id":15,"name":"Uncletopia | New York City | 3 | Stopwatch Beta","name_short":"nyc-3","host":"nyc-1.us.uncletopia.com","port":27035,"enabled":true,"region":"us-east","cc":"us","latitude":40.73061,"longitude":-73.93524,"reserved":0,"last_update":"0001-01-01T00:00:00Z","name_a2s":"Uncletopia | New York City | 3 | Stopwatch Beta","protocol":17,"map":"workshop/koth_bagel_rc5.ugc2514036946","folder":"tf","game":"Team Fortress","app_id":440,"player_count":0,"max_players":24,"Bots":0,"server_type":"Dedicated","server_os":"Linux","password":true,"vac":true,"version":"7757534","steam_id":85568392924742820,"keywords":["cp","nocrits","nodmgspread","uncletopia"],"game_id":440,"stv_port":27036,"stv_name":"Uncletopia | New York City | 3 | Stopwatch Beta | STV","players":null},{"server_id":16,"name":"Uncletopia | New York City | 4 | Community","name_short":"nyc-4","host":"nyc-1.us.uncletopia.com","port":27045,"enabled":true,"region":"us-east","cc":"us","latitude":40.73061,"longitude":-73.93524,"reserved":0,"last_update":"0001-01-01T00:00:00Z","name_a2s":"Uncletopia | New York City | 4 | Community","protocol":17,"map":"workshop/koth_product_final.ugc454272353","folder":"tf","game":"Team Fortress","app_id":440,"player_count":0,"max_players":24,"Bots":0,"server_type":"Dedicated","server_os":"Linux","password":true,"vac":true,"version":"7757534","steam_id":85568392924742821,"keywords":["cp","nocrits","nodmgspread","uncletopia"],"game_id":440,"stv_port":27046,"stv_name":"Uncletopia | New York City | 4 | Community | STV","players":null},{"server_id":142,"name":"Uncletopia | S√£o Paulo | 1 | All Maps","name_short":"sao-1","host":"sao-1.br.uncletopia.com","port":27015,"enabled":true,"region":"sa","cc":"br","latitude":-23.533773,"longitude":-46.62529,"reserved":0,"last_update":"0001-01-01T00:00:00Z","name_a2s":"Uncletopia | S√£o Paulo | 1 | All Maps","protocol":17,"map":"koth_viaduct","folder":"tf","game":"Team Fortress","app_id":440,"player_count":0,"max_players":24,"Bots":0,"server_type":"Dedicated","server_os":"Linux","password":true,"vac":true,"version":"7757534","steam_id":85568392924469996,"keywords":["cp","nocrits","nodmgspread","uncletopia"],"game_id":440,"stv_port":27016,"stv_name":"Uncletopia | S√£o Paulo | 1 | All Maps | STV","players":null},{"server_id":143,"name":"Uncletopia | S√£o Paulo | 2 | All Maps","name_short":"sao-2","host":"sao-2.br.uncletopia.com","port":27015,"enabled":true,"region":"sa","cc":"br","latitude":-23.533773,"longitude":-46.62529,"reserved":0,"last_update":"0001-01-01T00:00:00Z","name_a2s":"Uncletopia | S√£o Paulo | 2 | All Maps","protocol":17,"map":"pl_barnblitz","folder":"tf","game":"Team Fortress","app_id":440,"player_count":0,"max_players":24,"Bots":0,"server_type":"Dedicated","server_os":"Linux","password":true,"vac":true,"version":"7757534","steam_id":85568392924485349,"keywords":["nocrits","nodmgspread","payload","uncletopia"],"game_id":440,"stv_port":27016,"stv_name":"Uncletopia | S√£o Paulo | 2 | All Maps | STV","players":null},{"server_id":7,"name":"Uncletopia | Seattle | 1 | All Maps","name_short":"sea-1","host":"sea-1.us.uncletopia.com","port":27015,"enabled":true,"region":"us-west","cc":"us","latitude":47.608013,"longitude":-122.33517,"reserved":0,"last_update":"0001-01-01T00:00:00Z","name_a2s":"Uncletopia | Seattle | 1 | All Maps","protocol":17,"map":"cp_dustbowl","folder":"tf","game":"Team Fortress","app_id":440,"player_count":24,"max_players":24,"Bots":0,"server_type":"Dedicated","server_os":"Linux","password":true,"vac":true,"version":"7757534","steam_id":85568392924469997,"keywords":["cp","nocrits","nodmgspread","uncletopia"],"game_id":440,"stv_port":27016,"stv_name":"Uncletopia | Seattle | 1 | All Maps | STV","players":[{"user_id":105,"name":"Samiho","steam_id":76561198984374561,"connected_time":1602000000000,"state":"active","ping":60},{"user_id":119,"name":"O'brien","steam_id":76561198289339403,"connected_time":585000000000,"state":"active","ping":128},{"user_id":39,"name":"HavocGDI","steam_id":76561199388371914,"connected_time":5775000000000,"state":"active","ping":160},{"user_id":106,"name":"Mad dog of Shimano","steam_id":76561198797266817,"connected_time":1576000000000,"state":"active","ping":154},{"user_id":93,"name":"Spud","steam_id":76561198878000618,"connected_time":1861000000000,"state":"active","ping":72},{"user_id":118,"name":"Transbian mommy GF","steam_id":76561198153233822,"connected_time":593000000000,"state":"active","ping":113},{"user_id":120,"name":"Thequirka (not NC ready)","steam_id":76561198968058652,"connected_time":564000000000,"state":"active","ping":52},{"user_id":115,"name":"Genius Meme","steam_id":76561198162911254,"connected_time":726000000000,"state":"active","ping":64},{"user_id":123,"name":"HanakoToast","steam_id":76561198045233131,"connected_time":136000000000,"state":"active","ping":100},{"user_id":104,"name":"nescoceo","steam_id":76561198040801160,"connected_time":1635000000000,"state":"active","ping":75},{"user_id":124,"name":"jimbo","steam_id":76561199052822567,"connected_time":81000000000,"state":"active","ping":92},{"user_id":125,"name":"\u003cM\u003e","steam_id":76561198028068603,"connected_time":70000000000,"state":"active","ping":76},{"user_id":116,"name":"T.w¬≤ | Sliced Bread","steam_id":76561198128489595,"connected_time":689000000000,"state":"active","ping":91},{"user_id":108,"name":"DJ Absolute Garbage","steam_id":76561198068000747,"connected_time":1542000000000,"state":"active","ping":120},{"user_id":84,"name":"Lolxdloldx","steam_id":76561198136887125,"connected_time":2424000000000,"state":"active","ping":99},{"user_id":76,"name":"Murgatroyd","steam_id":76561198077350331,"connected_time":2713000000000,"state":"active","ping":85},{"user_id":85,"name":"SlurpyTheDog","steam_id":76561198799733154,"connected_time":2396000000000,"state":"active","ping":116},{"user_id":96,"name":"Ory","steam_id":76561198183370571,"connected_time":1819000000000,"state":"active","ping":128},{"user_id":100,"name":"MerkyWaters","steam_id":76561197998853063,"connected_time":1715000000000,"state":"active","ping":101},{"user_id":68,"name":"Flickerr","steam_id":76561198080190967,"connected_time":3735000000000,"state":"active","ping":59},{"user_id":101,"name":"AnalConquest666","steam_id":76561198218558897,"connected_time":1704000000000,"state":"active","ping":64},{"user_id":117,"name":"some nerd","steam_id":76561198297272878,"connected_time":666000000000,"state":"active","ping":75},{"user_id":112,"name":"MasterDoge17","steam_id":76561198917443549,"connected_time":1449000000000,"state":"active","ping":127},{"user_id":126,"name":"Mike Bean Burritos","steam_id":76561198173430607,"connected_time":68000000000,"state":"active","ping":56}]},{"server_id":119,"name":"Uncletopia | Seattle | 2 | All Maps","name_short":"sea-2","host":"sea-1.us.uncletopia.com","port":27025,"enabled":true,"region":"us-west","cc":"us","latitude":47.608013,"longitude":-122.33517,"reserved":0,"last_update":"0001-01-01T00:00:00Z","name_a2s":"Uncletopia | Seattle | 2 | All Maps","protocol":17,"map":"pl_upward","folder":"tf","game":"Team Fortress","app_id":440,"player_count":24,"max_players":24,"Bots":0,"server_type":"Dedicated","server_os":"Linux","password":true,"vac":true,"version":"7757534","steam_id":85568392924469998,"keywords":["nocrits","nodmgspread","payload","uncletopia"],"game_id":440,"stv_port":27026,"stv_name":"Uncletopia | Seattle | 2 | All Maps | STV","players":[{"user_id":190,"name":"Salad","steam_id":76561198120907230,"connected_time":495000000000,"state":"active","ping":48},{"user_id":169,"name":"Coolshroomish","steam_id":76561199109440924,"connected_time":1442000000000,"state":"active","ping":46},{"user_id":186,"name":"gabapentin","steam_id":76561198259529793,"connected_time":1040000000000,"state":"active","ping":114},{"user_id":165,"name":"oil","steam_id":76561198099980149,"connected_time":1951000000000,"state":"active","ping":76},{"user_id":130,"name":"radicalPolio","steam_id":76561197961561855,"connected_time":4103000000000,"state":"active","ping":90},{"user_id":166,"name":"HUIEI","steam_id":76561198073763735,"connected_time":1821000000000,"state":"active","ping":75},{"user_id":188,"name":"awesomegirl9","steam_id":76561199245670274,"connected_time":787000000000,"state":"active","ping":76},{"user_id":196,"name":"sheamus the dank engine","steam_id":76561198161824724,"connected_time":293000000000,"state":"active","ping":119},{"user_id":197,"name":"Milano","steam_id":76561198051889174,"connected_time":258000000000,"state":"active","ping":73},{"user_id":183,"name":"spacetoven","steam_id":76561198115821131,"connected_time":1267000000000,"state":"active","ping":66},{"user_id":185,"name":"Lavernius41","steam_id":76561198807274102,"connected_time":1174000000000,"state":"active","ping":75},{"user_id":194,"name":"Isopentyl Ethanoate","steam_id":76561198116389072,"connected_time":326000000000,"state":"active","ping":60},{"user_id":163,"name":"trapper wit som swag+i lurk too","steam_id":76561198885055475,"connected_time":2172000000000,"state":"active","ping":59},{"user_id":189,"name":"PopcornBucketGames","steam_id":76561199089562026,"connected_time":715000000000,"state":"active","ping":51},{"user_id":113,"name":"Sweatpants","steam_id":76561198097188001,"connected_time":5140000000000,"state":"active","ping":61},{"user_id":145,"name":"Lavalace","steam_id":76561198073757592,"connected_time":3283000000000,"state":"active","ping":65},{"user_id":191,"name":"bronk","steam_id":76561198181109553,"connected_time":484000000000,"state":"active","ping":74},{"user_id":164,"name":"Squid121","steam_id":76561198038832034,"connected_time":2157000000000,"state":"active","ping":54},{"user_id":172,"name":"sock","steam_id":76561199117597830,"connected_time":1428000000000,"state":"active","ping":109},{"user_id":192,"name":"Vem","steam_id":76561198117273112,"connected_time":376000000000,"state":"active","ping":129},{"user_id":115,"name":"Dank Memes, Dead Dreams","steam_id":76561198437122566,"connected_time":5114000000000,"state":"active","ping":64},{"user_id":175,"name":"North ‚òÜ","steam_id":76561199173696836,"connected_time":1350000000000,"state":"active","ping":72},{"user_id":158,"name":"JTcatlord","steam_id":76561199079397866,"connected_time":2484000000000,"state":"active","ping":44},{"user_id":138,"name":"Dimple","steam_id":76561198980324190,"connected_time":3757000000000,"state":"active","ping":56}]},{"server_id":406,"name":"Uncletopia | Seattle | 3 | Stopwatch Beta","name_short":"sea-3","host":"sea-1.us.uncletopia.com","port":27035,"enabled":true,"region":"us-west","cc":"us","latitude":47.608013,"longitude":-122.33517,"reserved":0,"last_update":"0001-01-01T00:00:00Z","name_a2s":"Uncletopia | Seattle | 3 | Stopwatch Beta","protocol":17,"map":"workshop/pl_badwater_pro_v12.ugc2142942074","folder":"tf","game":"Team Fortress","app_id":440,"player_count":0,"max_players":24,"Bots":0,"server_type":"Dedicated","server_os":"Linux","password":true,"vac":true,"version":"7757534","steam_id":85568392924515217,"keywords":["nocrits","nodmgspread","payload","uncletopia"],"game_id":440,"stv_port":27036,"stv_name":"Uncletopia | Seattle | 3 | Stopwatch Beta | STV","players":null},{"server_id":17,"name":"Uncletopia | San Francisco | 1 | All Maps","name_short":"sfo-1","host":"sfo-1.us.uncletopia.com","port":27015,"enabled":true,"region":"us-west","cc":"us","latitude":37.77397,"longitude":-122.4313,"reserved":0,"last_update":"0001-01-01T00:00:00Z","name_a2s":"Uncletopia | San Francisco | 1 | All Maps","protocol":17,"map":"pl_swiftwater_final1","folder":"tf","game":"Team Fortress","app_id":440,"player_count":0,"max_players":24,"Bots":0,"server_type":"Dedicated","server_os":"Linux","password":true,"vac":true,"version":"7757534","steam_id":85568392924469999,"keywords":["nocrits","nodmgspread","payload","uncletopia"],"game_id":440,"stv_port":27016,"stv_name":"Uncletopia | San Francisco | 1 | All Maps | STV","players":null},{"server_id":18,"name":"Uncletopia | San Francisco | 2 | All Maps","name_short":"sfo-2","host":"sfo-1.us.uncletopia.com","port":27025,"enabled":true,"region":"us-west","cc":"us","latitude":37.77397,"longitude":-122.4313,"reserved":0,"last_update":"0001-01-01T00:00:00Z","name_a2s":"Uncletopia | San Francisco | 2 | All Maps","protocol":17,"map":"cp_mountainlab","folder":"tf","game":"Team Fortress","app_id":440,"player_count":0,"max_players":24,"Bots":0,"server_type":"Dedicated","server_os":"Linux","password":true,"vac":true,"version":"7757534","steam_id":85568392924470000,"keywords":["cp","nocrits","nodmgspread","uncletopia"],"game_id":440,"stv_port":27026,"stv_name":"Uncletopia | San Francisco | 2 | All Maps | STV","players":null},{"server_id":19,"name":"Uncletopia | San Francisco | 3 | Stopwatch Beta","name_short":"sfo-3","host":"sfo-1.us.uncletopia.com","port":27035,"enabled":true,"region":"us-west","cc":"us","latitude":37.77397,"longitude":-122.4313,"reserved":0,"last_update":"0001-01-01T00:00:00Z","name_a2s":"Uncletopia | San Francisco | 3 | Stopwatch Beta","protocol":17,"map":"koth_viaduct","folder":"tf","game":"Team Fortress","app_id":440,"player_count":0,"max_players":24,"Bots":0,"server_type":"Dedicated","server_os":"Linux","password":true,"vac":true,"version":"7757534","steam_id":85568392924742824,"keywords":["cp","nocrits","nodmgspread","uncletopia"],"game_id":440,"stv_port":27036,"stv_name":"Uncletopia | San Francisco | 3 | Stopwatch Beta | STV","players":null},{"server_id":20,"name":"Uncletopia | San Francisco | 4 | Community","name_short":"sfo-4","host":"sfo-1.us.uncletopia.com","port":27045,"enabled":true,"region":"us-west","cc":"us","latitude":37.77397,"longitude":-122.4313,"reserved":0,"last_update":"0001-01-01T00:00:00Z","name_a2s":"Uncletopia | San Francisco | 4 | Community","protocol":17,"map":"workshop/cp_villa_b19.ugc2113052569","folder":"tf","game":"Team Fortress","app_id":440,"player_count":0,"max_players":24,"Bots":0,"server_type":"Dedicated","server_os":"Linux","password":true,"vac":true,"version":"7757534","steam_id":85568392924742826,"keywords":["cp","nocrits","nodmgspread","uncletopia"],"game_id":440,"stv_port":27046,"stv_name":"Uncletopia | San Francisco | 4 | Community | STV","players":null},{"server_id":141,"name":"Uncletopia | Sydney | 1 | All Maps","name_short":"syd-1","host":"syd-1.au.uncletopia.com","port":27015,"enabled":true,"region":"au","cc":"au","latitude":-33.865143,"longitude":151.2099,"reserved":0,"last_update":"0001-01-01T00:00:00Z","name_a2s":"Uncletopia | Sydney | 1 | All Maps","protocol":17,"map":"koth_lakeside_final","folder":"tf","game":"Team Fortress","app_id":440,"player_count":0,"max_players":24,"Bots":0,"server_type":"Dedicated","server_os":"Linux","password":true,"vac":true,"version":"7757534","steam_id":85568392924470001,"keywords":["cp","nocrits","nodmgspread","uncletopia"],"game_id":440,"stv_port":27016,"stv_name":"Uncletopia | Sydney | 1 | All Maps | STV","players":null},{"server_id":123,"name":"Uncletopia | Sydney | 2 | All Maps","name_short":"syd-2","host":"syd-1.au.uncletopia.com","port":27025,"enabled":true,"region":"au","cc":"au","latitude":-33.865143,"longitude":151.2099,"reserved":0,"last_update":"0001-01-01T00:00:00Z","name_a2s":"Uncletopia | Sydney | 2 | All Maps","protocol":17,"map":"koth_viaduct","folder":"tf","game":"Team Fortress","app_id":440,"player_count":0,"max_players":24,"Bots":0,"server_type":"Dedicated","server_os":"Linux","password":true,"vac":true,"version":"7757534","steam_id":85568392924470002,"keywords":["cp","nocrits","nodmgspread","uncletopia"],"game_id":440,"stv_port":27026,"stv_name":"Uncletopia | Sydney | 2 | All Maps | STV","players":null},{"server_id":395,"name":"Uncletopia | Sydney | 3 | All Maps","name_short":"syd-3","host":"syd-1.au.uncletopia.com","port":27035,"enabled":true,"region":"au","cc":"au","latitude":-33.865143,"longitude":151.2099,"reserved":0,"last_update":"0001-01-01T00:00:00Z","name_a2s":"Uncletopia | Sydney | 3 | All Maps","protocol":17,"map":"koth_viaduct","folder":"tf","game":"Team Fortress","app_id":440,"player_count":0,"max_players":24,"Bots":0,"server_type":"Dedicated","server_os":"Linux","password":true,"vac":true,"version":"7757534","steam_id":85568392925194467,"keywords":["cp","nocrits","nodmgspread","uncletopia"],"game_id":440,"stv_port":27036,"stv_name":"Uncletopia | Sydney | 3 | All Maps | STV","players":null},{"server_id":396,"name":"Uncletopia | Sydney | 4 | All Maps","name_short":"syd-4","host":"syd-1.au.uncletopia.com","port":27045,"enabled":true,"region":"au","cc":"au","latitude":-33.865143,"longitude":151.2099,"reserved":0,"last_update":"0001-01-01T00:00:00Z","name_a2s":"Uncletopia | Sydney | 4 | All Maps","protocol":17,"map":"cp_snakewater_final1","folder":"tf","game":"Team Fortress","app_id":440,"player_count":0,"max_players":24,"Bots":0,"server_type":"Dedicated","server_os":"Linux","password":true,"vac":true,"version":"7757534","steam_id":85568392925397958,"keywords":["cp","nocrits","nodmgspread","uncletopia"],"game_id":440,"stv_port":27046,"stv_name":"Uncletopia | Sydney | 4 | All Maps | STV","players":null},{"server_id":58,"name":"Uncletopia | Sydney | 5 | Stopwatch Beta","name_short":"syd-5","host":"syd-1.au.uncletopia.com","port":27055,"enabled":true,"region":"au","cc":"au","latitude":-33.865143,"longitude":151.2099,"reserved":0,"last_update":"0001-01-01T00:00:00Z","name_a2s":"Uncletopia | Sydney | 5 | Stopwatch Beta","protocol":17,"map":"pl_barnblitz","folder":"tf","game":"Team Fortress","app_id":440,"player_count":0,"max_players":24,"Bots":0,"server_type":"Dedicated","server_os":"Linux","password":true,"vac":true,"version":"7757534","steam_id":85568392925397959,"keywords":["nocrits","nodmgspread","payload","uncletopia"],"game_id":440,"stv_port":27056,"stv_name":"Uncletopia | Sydney | 5 | Stopwatch Beta | STV","players":null},{"server_id":59,"name":"Uncletopia | Sydney | 6 | Community","name_short":"syd-6","host":"syd-1.au.uncletopia.com","port":27065,"enabled":true,"region":"au","cc":"au","latitude":-33.865143,"longitude":151.2099,"reserved":0,"last_update":"0001-01-01T00:00:00Z","name_a2s":"Uncletopia | Sydney | 6 | Community","protocol":17,"map":"cp_mountainlab","folder":"tf","game":"Team Fortress","app_id":440,"player_count":0,"max_players":24,"Bots":0,"server_type":"Dedicated","server_os":"Linux","password":true,"vac":true,"version":"7757534","steam_id":85568392925397960,"keywords":["cp","nocrits","nodmgspread","uncletopia"],"game_id":440,"stv_port":27066,"stv_name":"Uncletopia | Sydney | 6 | Community | STV","players":null},{"server_id":49,"name":"Uncletopia | Warsaw | 1 | All Maps","name_short":"waw-1","host":"waw-1.pl.uncletopia.com","port":27015,"enabled":true,"region":"eu","cc":"pl","latitude":52.2297,"longitude":21.017532,"reserved":0,"last_update":"0001-01-01T00:00:00Z","name_a2s":"","protocol":0,"map":"","folder":"","game":"","app_id":0,"player_count":0,"max_players":0,"Bots":0,"server_type":"","server_os":"","password":false,"vac":false,"version":"","steam_id":0,"keywords":null,"game_id":0,"stv_port":0,"stv_name":"","players":null},{"server_id":50,"name":"Uncletopia | Warsaw | 2 | All Maps","name_short":"waw-2","host":"waw-1.pl.uncletopia.com","port":27025,"enabled":true,"region":"eu","cc":"pl","latitude":52.2297,"longitude":21.017532,"reserved":0,"last_update":"0001-01-01T00:00:00Z","name_a2s":"Uncletopia | Warsaw | 2 | All Maps","protocol":17,"map":"pl_frontier_final","folder":"tf","game":"Team Fortress","app_id":440,"player_count":12,"max_players":24,"Bots":0,"server_type":"Dedicated","server_os":"Linux","password":true,"vac":true,"version":"7757534","steam_id":85568392925397851,"keywords":["nocrits","nodmgspread","payload","uncletopia"],"game_id":440,"stv_port":27026,"stv_name":"Uncletopia | Warsaw | 2 | All Maps | STV","players":[{"user_id":111,"name":"Sotviing","steam_id":76561198154311159,"connected_time":266000000000,"state":"active","ping":97},{"user_id":114,"name":"TylowStar","steam_id":76561198357107806,"connected_time":43000000000,"state":"active","ping":76},{"user_id":87,"name":"Scoobydemon BUFF THE SPEED","steam_id":76561199164326321,"connected_time":2805000000000,"state":"active","ping":158},{"user_id":90,"name":"Duke","steam_id":76561198046536854,"connected_time":2082000000000,"state":"active","ping":76},{"user_id":107,"name":"The Fellow Feller","steam_id":76561198188864306,"connected_time":1067000000000,"state":"active","ping":71},{"user_id":108,"name":"Drdarlekzzz","steam_id":76561198160141785,"connected_time":1053000000000,"state":"active","ping":71},{"user_id":109,"name":"typicalkula","steam_id":76561198885677283,"connected_time":1002000000000,"state":"active","ping":70},{"user_id":113,"name":"stoppen","steam_id":76561197960281482,"connected_time":147000000000,"state":"active","ping":89},{"user_id":101,"name":"oneinfiniteloop","steam_id":76561198040475835,"connected_time":1568000000000,"state":"active","ping":90},{"user_id":74,"name":"Dr.stupid","steam_id":76561198308493925,"connected_time":4859000000000,"state":"active","ping":61},{"user_id":105,"name":"STiNGHAN","steam_id":76561198023989090,"connected_time":1464000000000,"state":"active","ping":60},{"user_id":110,"name":"typicalcrimson","steam_id":76561198295439747,"connected_time":996000000000,"state":"active","ping":46}]},{"server_id":51,"name":"Uncletopia | Warsaw | 3 | All Maps","name_short":"waw-3","host":"waw-1.pl.uncletopia.com","port":27035,"enabled":true,"region":"eu","cc":"pl","latitude":52.2297,"longitude":21.017532,"reserved":0,"last_update":"0001-01-01T00:00:00Z","name_a2s":"Uncletopia | Warsaw | 3 | All Maps","protocol":17,"map":"cp_altitude","folder":"tf","game":"Team Fortress","app_id":440,"player_count":0,"max_players":24,"Bots":0,"server_type":"Dedicated","server_os":"Linux","password":true,"vac":true,"version":"7757534","steam_id":85568392925397852,"keywords":["cp","nocrits","nodmgspread","uncletopia"],"game_id":440,"stv_port":27036,"stv_name":"Uncletopia | Warsaw | 3 | All Maps | STV","players":null},{"server_id":52,"name":"Uncletopia | Warsaw | 4 | All Maps","name_short":"waw-4","host":"waw-1.pl.uncletopia.com","port":27045,"enabled":true,"region":"eu","cc":"pl","latitude":52.2297,"longitude":21.017532,"reserved":0,"last_update":"0001-01-01T00:00:00Z","name_a2s":"Uncletopia | Warsaw | 4 | All Maps","protocol":17,"map":"koth_cascade","folder":"tf","game":"Team Fortress","app_id":440,"player_count":0,"max_players":24,"Bots":0,"server_type":"Dedicated","server_os":"Linux","password":true,"vac":true,"version":"7757534","steam_id":85568392925397853,"keywords":["cp","nocrits","nodmgspread","uncletopia"],"game_id":440,"stv_port":27046,"stv_name":"Uncletopia | Warsaw | 4 | All Maps | STV","players":null},{"server_id":53,"name":"Uncletopia | Warsaw | 5 | Stopwatch Beta","name_short":"waw-5","host":"waw-1.pl.uncletopia.com","port":27055,"enabled":true,"region":"eu","cc":"pl","latitude":52.2297,"longitude":21.017532,"reserved":0,"last_update":"0001-01-01T00:00:00Z","name_a2s":"Uncletopia | Warsaw | 5 | Stopwatch Beta","protocol":17,"map":"pl_upward","folder":"tf","game":"Team Fortress","app_id":440,"player_count":2,"max_players":24,"Bots":0,"server_type":"Dedicated","server_os":"Linux","password":true,"vac":true,"version":"7757534","steam_id":85568392925397854,"keywords":["nocrits","nodmgspread","payload","uncletopia"],"game_id":440,"stv_port":27056,"stv_name":"Uncletopia | Warsaw | 5 | Stopwatch Beta | STV","players":[{"user_id":15,"name":"smart fella","steam_id":76561198315732431,"connected_time":69000000000,"state":"active","ping":159},{"user_id":16,"name":"Cosmic Yoshi","steam_id":76561199195528497,"connected_time":21000000000,"state":"active","ping":170}]},{"server_id":54,"name":"Uncletopia | Warsaw | 6 | Community","name_short":"waw-6","host":"waw-1.pl.uncletopia.com","port":27065,"enabled":true,"region":"eu","cc":"pl","latitude":52.2297,"longitude":21.017532,"reserved":0,"last_update":"0001-01-01T00:00:00Z","name_a2s":"Uncletopia | Warsaw | 6 | Community","protocol":17,"map":"workshop/koth_synthetic_rc6a.ugc1549817316","folder":"tf","game":"Team Fortress","app_id":440,"player_count":2,"max_players":24,"Bots":0,"server_type":"Dedicated","server_os":"Linux","password":true,"vac":true,"version":"7757534","steam_id":85568392925397856,"keywords":["cp","nocrits","nodmgspread","uncletopia"],"game_id":440,"stv_port":27066,"stv_name":"Uncletopia | Warsaw | 6 | Community | STV","players":[{"user_id":28,"name":"Wojowniczek.pl","steam_id":76561199228645329,"connected_time":99000000000,"state":"spawning","ping":887},{"user_id":27,"name":"CzarnyRycerzMomon","steam_id":76561199028465810,"connected_time":230000000000,"state":"active","ping":46}]}]}