{"status":true,"message":"","result":[{"server_id":9,"name":"Uncletopia | Atlanta | 1 | All Maps","name_short":"atl-1","host":"atl-1.us.uncletopia.com","port":27015,"enabled":true,"region":"us-east","cc":"us","latitude":33.753746,"longitude":-84.38633,"reserved":0,"last_update":"0001-01-01T00:00:00Z","name_a2s":"Uncletopia | Atlanta | 1 | All Maps","protocol":17,"map":"pl_pier","folder":"tf","game":"Team Fortress","app_id":440,"player_count":24,"max_players":24,"Bots":0,"server_type":"Dedicated","server_os":"Linux","password":true,"vac":true,"version":"7757534","steam_id":85568392924469982,"keywords":["nocrits","nodmgspread","payload","uncletopia"],"game_id":440,"stv_port":27016,"stv_name":"Uncletopia | Atlanta | 1 | All Maps | STV","players":[{"user_id":387,"name":"{[F.H]} Hydroida","steam_id":76561197999797274,"connected_time":14615000000000,"state":"active","ping":73},{"user_id":537,"name":"cyro","steam_id":76561198146241989,"connected_time":3031000000000,"state":"active","ping":58},{"user_id":577,"name":"French Toast","steam_id":76561198179826881,"connected_time":457000000000,"state":"active","ping":104},{"user_id":545,"name":"shaderoses","steam_id":76561198070800500,"connected_time":2578000000000,"state":"active","ping":68},{"user_id":581,"name":"Vagabond","steam_id":76561198191189053,"connected_time":215000000000,"state":"active","ping":60},{"user_id":534,"name":"♥Furry Whore♥","steam_id":76561198054925421,"connected_time":3054000000000,"state":"active","ping":71},{"user_id":571,"name":"riri ᗜᴗᗜ","steam_id":76561198055462404,"connected_time":876000000000,"state":"active","ping":87},{"user_id":578,"name":"FemboyNate","steam_id":76561198146636410,"connected_time":444000000000,"state":"active","ping":73},{"user_id":582,"name":"LeTonzy","steam_id":76561198005806699,"connected_time":177000000000,"state":"active","ping":117},{"user_id":580,"name":"dordaz76","steam_id":76561198216466729,"connected_time":388000000000,"state":"active","ping":88},{"user_id":536,"name":"lite","steam_id":76561198300633951,"connected_time":3051000000000,"state":"active","ping":155},{"user_id":572,"name":"♦SpaceCatPro♦","steam_id":76561199243795978,"connected_time":860000000000,"state":"active","ping":60},{"user_id":529,"name":"[txc] garf","steam_id":76561198083078030,"connected_time":4000000000000,"state":"active","ping":63},{"user_id":500,"name":"RED1 | Le4n!!!","steam_id":76561198045522596,"connected_time":6314000000000,"state":"active","ping":68},{"user_id":583,"name":"Popedesu","steam_id":76561198064206331,"connected_time":115000000000,"state":"active","ping":110},{"user_id":575,"name":"IrfanZn","steam_id":76561199468828920,"connected_time":490000000000,"state":"active","ping":84},{"user_id":558,"name":"Atlas","steam_id":76561198127975050,"connected_time":1437000000000,"state":"active","ping":56},{"user_id":503,"name":"♡Alyx♡","steam_id":76561198024303978,"connected_time":6276000000000,"state":"active","ping":55},{"user_id":561,"name":"SMHTMFTTF","steam_id":76561199079614516,"connected_time":1405000000000,"state":"active","ping":73},{"user_id":576,"name":"puke","steam_id":76561197999279693,"connected_time":486000000000,"state":"active","ping":90},{"user_id":569,"name":"About That Beer I Owed Ya","steam_id":76561198071506287,"connected_time":1196000000000,"state":"active","ping":106},{"user_id":574,"name":"Galactic Boarder Control","steam_id":76561198062763756,"connected_time":816000000000,"state":"active","ping":78},{"user_id":543,"name":"DFR sun ra","steam_id":76561198904898274,"connected_time":2912000000000,"state":"active","ping":71},{"user_id":526,"name":"[txc] milk","steam_id":76561198127457787,"connected_time":4832000000000,"state":"active","ping":71}]},{"server_id":400,"name":"Uncletopia | Atlanta | 3 | Stopwatch Beta","name_short":"atl-3","host":"atl-1.us.uncletopia.com","port":27035,"enabled":true,"region":"us-east","cc":"us","latitude":33.753746,"longitude":-84.38633,"reserved":0,"last_update":"0001-01-01T00:00:00Z","name_a2s":"Uncletopia | Atlanta | 3 | Stopwatch Beta","protocol":17,"map":"workshop/pl_badwater_pro_v12.ugc2142942074","folder":"tf","game":"Team Fortress","app_id":440,"player_count":0,"max_players":24,"Bots":0,"server_type":"Dedicated","server_os":"Linux","password":true,"vac":true,"version":"7757534","steam_id":85568392924515187,"keywords":["nocrits","nodmgspread","payload","uncletopia"],"game_id":440,"stv_port":27036,"stv_name":"Uncletopia | Atlanta | 3 | Stopwatch Beta | STV","players":null},{"server_id":401,"name":"Uncletopia | Atlanta | 4 | No Payload","name_short":"atl-4","host":"atl-1.us.uncletopia.com","port":27045,"enabled":true,"region":"us-east","cc":"us","latitude":33.753746,"longitude":-84.38633,"reserved":0,"last_update":"0001-01-01T00:00:00Z","name_a2s":"Uncletopia | Atlanta | 4 | No Payload","protocol":17,"map":"pl_pier","folder":"tf","game":"Team Fortress","app_id":440,"player_count":0,"max_players":24,"Bots":0,"server_type":"Dedicated","server_os":"Linux","password":true,"vac":true,"version":"7723704","steam_id":85568392924515188,"keywords":["nocrits","nodmgspread","payload","uncletopia"],"game_id":440,"stv_port":27046,"stv_name":"Uncletopia | Atlanta | 4 | No Payload | STV","players":null},{"server_id":2,"name":"Uncletopia | Chicago | 1 | All Maps","name_short":"chi-1","host":"chi-1.us.uncletopia.com","port":27015,"enabled":true,"region":"us-central","cc":"us","latitude":41.881832,"longitude":-87.62318,"reserved":0,"last_update":"0001-01-01T00:00:00Z","name_a2s":"Uncletopia | Chicago | 1 | All Maps","protocol":17,"map":"koth_lakeside_final","folder":"tf","game":"Team Fortress","app_id":440,"player_count":24,"max_players":24,"Bots":0,"server_type":"Dedicated","server_os":"Linux","password":true,"vac":true,"version":"7757534","steam_id":85568392924469984,"keywords":["cp","nocrits","nodmgspread","uncletopia"],"game_id":440,"stv_port":27016,"stv_name":"Uncletopia | Chicago | 1 | All Maps | STV","players":[{"user_id":657,"name":"Dr. Bob","steam_id":76561198250215874,"connected_time":2943000000000,"state":"active","ping":69},{"user_id":701,"name":"SuperEvilPasta","steam_id":76561198078258907,"connected_time":331000000000,"state":"active","ping":82},{"user_id":684,"name":"Insidiousy #ShaveTF2","steam_id":76561199018015150,"connected_time":1768000000000,"state":"active","ping":65},{"user_id":673,"name":"Dornz","steam_id":76561198055762034,"connected_time":2160000000000,"state":"active","ping":61},{"user_id":700,"name":"Juanelo","steam_id":76561199096390505,"connected_time":383000000000,"state":"active","ping":102},{"user_id":677,"name":"HTA","steam_id":76561198043879140,"connected_time":1989000000000,"state":"active","ping":44},{"user_id":710,"name":"LATINO BEAST UNIT 75","steam_id":76561198077789424,"connected_time":41000000000,"state":"active","ping":123},{"user_id":679,"name":"Sirius","steam_id":76561198031295225,"connected_time":1986000000000,"state":"active","ping":44},{"user_id":703,"name":"[TGP] T-Virus","steam_id":76561198001963208,"connected_time":278000000000,"state":"active","ping":100},{"user_id":644,"name":"Pepsi-Man","steam_id":76561198052061790,"connected_time":5068000000000,"state":"active","ping":80},{"user_id":681,"name":"Mokaaaa","steam_id":76561198043659301,"connected_time":1952000000000,"state":"active","ping":62},{"user_id":664,"name":"THExPIZZAxGUY","steam_id":76561198215829667,"connected_time":2692000000000,"state":"active","ping":71},{"user_id":695,"name":"Capt.Swag","steam_id":76561198088340994,"connected_time":913000000000,"state":"active","ping":80},{"user_id":704,"name":"Chumpy","steam_id":76561198010169419,"connected_time":276000000000,"state":"active","ping":84},{"user_id":693,"name":"s.Twig™ [WTB Lvl. 42 Items]","steam_id":76561198070138375,"connected_time":1033000000000,"state":"active","ping":82},{"user_id":656,"name":"Hexalina","steam_id":76561198163665060,"connected_time":3760000000000,"state":"active","ping":144},{"user_id":705,"name":"Dzhoshua","steam_id":76561198071915251,"connected_time":227000000000,"state":"active","ping":61},{"user_id":663,"name":"braindead idiot","steam_id":76561198035679918,"connected_time":2695000000000,"state":"active","ping":76},{"user_id":707,"name":"punaise","steam_id":76561198095105411,"connected_time":213000000000,"state":"active","ping":71},{"user_id":708,"name":"loser","steam_id":76561198132182386,"connected_time":210000000000,"state":"active","ping":105},{"user_id":709,"name":"ShadowBolt","steam_id":76561198061610985,"connected_time":178000000000,"state":"active","ping":86},{"user_id":711,"name":"Grammer","steam_id":76561197977007845,"connected_time":7000000000,"state":"spawning","ping":173},{"user_id":683,"name":"Star","steam_id":76561198150115757,"connected_time":1921000000000,"state":"active","ping":103},{"user_id":643,"name":"movement shooter enthusiast","steam_id":76561198841593464,"connected_time":5072000000000,"state":"active","ping":70}]},{"server_id":106,"name":"Uncletopia | Chicago | 2 | All Maps","name_short":"chi-2","host":"chi-1.us.uncletopia.com","port":27025,"enabled":true,"region":"us-central","cc":"us","latitude":41.881832,"longitude":-87.62318,"reserved":0,"last_update":"0001-01-01T00:00:00Z","name_a2s":"Uncletopia | Chicago | 2 | All Maps","protocol":17,"map":"koth_lazarus","folder":"tf","game":"Team Fortress","app_id":440,"player_count":0,"max_players":24,"Bots":0,"server_type":"Dedicated","server_os":"Linux","password":true,"vac":true,"version":"7757534","steam_id":85568392924469985,"keywords":["cp","nocrits","nodmgspread","uncletopia"],"game_id":440,"stv_port":27026,"stv_name":"Uncletopia | Chicago | 2 | All Maps | STV","players":null},{"server_id":402,"name":"Uncletopia | Chicago | 3 | All Maps","name_short":"chi-3","host":"chi-1.us.uncletopia.com","port":27035,"enabled":true,"region":"us-central","cc":"us","latitude":41.881832,"longitude":-87.62318,"reserved":0,"last_update":"0001-01-01T00:00:00Z","name_a2s":"Uncletopia | Chicago | 3 | All Maps","protocol":17,"map":"cp_process_final","folder":"tf","game":"Team Fortress","app_id":440,"player_count":0,"max_players":24,"Bots":0,"server_type":"Dedicated","server_os":"Linux","password":true,"vac":true,"version":"7757534","steam_id":85568392924515191,"keywords":["cp","nocrits","nodmgspread","uncletopia"],"game_id":440,"stv_port":27036,"stv_name":"Uncletopia | Chicago | 3 | All Maps | STV","players":null},{"server_id":403,"name":"Uncletopia | Chicago | 4 | All Maps","name_short":"chi-4","host":"chi-1.us.uncletopia.com","port":27045,"enabled":true,"region":"us-central","cc":"us","latitude":41.881832,"longitude":-87.62318,"reserved":0,"last_update":"0001-01-01T00:00:00Z","name_a2s":"Uncletopia | Chicago | 4 | All Maps","protocol":17,"map":"koth_viaduct","folder":"tf","game":"Team Fortress","app_id":440,"player_count":0,"max_players":24,"Bots":0,"server_type":"Dedicated","server_os":"Linux","password":true,"vac":true,"version":"7757534","steam_id":85568392924515193,"keywords":["cp","nocrits","nodmgspread","uncletopia"],"game_id":440,"stv_port":27046,"stv_name":"Uncletopia | Chicago | 4 | All Maps | STV","players":null},{"server_id":36,"name":"Uncletopia | Chicago | 5 | All Maps","name_short":"chi-5","host":"chi-2.us.uncletopia.com","port":27015,"enabled":true,"region":"us-central","cc":"us","latitude":41.881832,"longitude":-87.62318,"reserved":0,"last_update":"0001-01-01T00:00:00Z","name_a2s":"Uncletopia | Chicago | 5 | All Maps","protocol":17,"map":"cp_altitude","folder":"tf","game":"Team Fortress","app_id":440,"player_count":0,"max_players":24,"Bots":0,"server_type":"Dedicated","server_os":"Linux","password":true,"vac":true,"version":"7757534","steam_id":85568392924866362,"keywords":["cp","nocrits","nodmgspread","uncletopia"],"game_id":440,"stv_port":27016,"stv_name":"Uncletopia | Chicago | 5 | All Maps | STV","players":null},{"server_id":37,"name":"Uncletopia | Chicago | 6 | All Maps","name_short":"chi-6","host":"chi-2.us.uncletopia.com","port":27025,"enabled":true,"region":"us-central","cc":"us","latitude":41.881832,"longitude":-87.62318,"reserved":0,"last_update":"0001-01-01T00:00:00Z","name_a2s":"Uncletopia | Chicago | 6 | All Maps","protocol":17,"map":"koth_cascade","folder":"tf","game":"Team Fortress","app_id":440,"player_count":0,"max_players":24,"Bots":0,"server_type":"Dedicated","server_os":"Linux","password":true,"vac":true,"version":"7757534","steam_id":85568392924866363,"keywords":["cp","nocrits","nodmgspread","uncletopia"],"game_id":440,"stv_port":27026,"stv_name":"Uncletopia | Chicago | 6 | All Maps | STV","players":null},{"server_id":38,"name":"Uncletopia | Chicago | 7 | Stopwatch Beta","name_short":"chi-7","host":"chi-2.us.uncletopia.com","port":27035,"enabled":true,"region":"us-central","cc":"us","latitude":41.881832,"longitude":-87.62318,"reserved":0,"last_update":"0001-01-01T00:00:00Z","name_a2s":"Uncletopia | Chicago | 7 | Stopwatch Beta","protocol":17,"map":"pl_upward","folder":"tf","game":"Team Fortress","app_id":440,"player_count":0,"max_players":24,"Bots":0,"server_type":"Dedicated","server_os":"Linux","password":true,"vac":true,"version":"7757534","steam_id":85568392924866364,"keywords":["nocrits","nodmgspread","payload","uncletopia"],"game_id":440,"stv_port":27036,"stv_name":"Uncletopia | Chicago | 7 | Stopwatch Beta | STV","players":null},{"server_id":39,"name":"Uncletopia | Chicago | 8 | Community","name_short":"chi-8","host":"chi-2.us.uncletopia.com","port":27045,"enabled":true,"region":"us-central","cc":"us","latitude":41.881832,"longitude":-87.62318,"reserved":0,"last_update":"0001-01-01T00:00:00Z","name_a2s":"Uncletopia | Chicago | 8 | Community","protocol":17,"map":"workshop/koth_ashville_final.ugc2130459942","folder":"tf","game":"Team Fortress","app_id":440,"player_count":0,"max_players":24,"Bots":0,"server_type":"Dedicated","server_os":"Linux","password":true,"vac":true,"version":"7757534","steam_id":85568392924866365,"keywords":["cp","nocrits","nodmgspread","uncletopia"],"game_id":440,"stv_port":27046,"stv_name":"Uncletopia | Chicago | 8 | Community | STV","players":null},{"server_id":8,"name":"Uncletopia | Dallas | 1 | All Maps","name_short":"dal-1","host":"dal-1.us.uncletopia.com","port":27015,"enabled":true,"region":"us-central","cc":"us","latitude":32.779167,"longitude":-96.80889,"reserved":0,"last_update":"0001-01-01T00:00:00Z","name_a2s":"Uncletopia | Dallas | 1 | All Maps","protocol":17,"map":"cp_altitude","folder":"tf","game":"Team Fortress","app_id":440,"player_count":0,"max_players":24,"Bots":0,"server_type":"Dedicated","server_os":"Linux","password":true,"vac":true,"version":"7757534","steam_id":85568392924469986,"keywords":["cp","nocrits","nodmgspread","uncletopia"],"game_id":440,"stv_port":27016,"stv_name":"Uncletopia | Dallas | 1 | All Maps | STV","players":null},{"server_id":108,"name":"Uncletopia | Dallas | 2 | All Maps","name_short":"dal-2","host":"dal-1.us.uncletopia.com","port":27025,"enabled":true,"region":"us-central","cc":"us","latitude":32.779167,"longitude":-96.80889,"reserved":0,"last_update":"0001-01-01T00:00:00Z","name_a2s":"Uncletopia | Dallas | 2 | All Maps","protocol":17,"map":"pl_badwater","folder":"tf","game":"Team Fortress","app_id":440,"player_count":24,"max_players":24,"Bots":0,"server_type":"Dedicated","server_os":"Linux","password":true,"vac":true,"version":"7757534","steam_id":85568392924469988,"keywords":["nocrits","nodmgspread","payload","uncletopia"],"game_id":440,"stv_port":27026,"stv_name":"Uncletopia | Dallas | 2 | All Maps | STV","players":[{"user_id":499,"name":"Diamond Rivlz","steam_id":76561198064210289,"connected_time":2744000000000,"state":"active","ping":60},{"user_id":535,"name":"dP | I'm in a Wookie Suit","steam_id":76561198083307644,"connected_time":319000000000,"state":"active","ping":100},{"user_id":485,"name":"Melody","steam_id":76561198407789232,"connected_time":4318000000000,"state":"active","ping":114},{"user_id":501,"name":"Ecliptica","steam_id":76561198171951333,"connected_time":2662000000000,"state":"active","ping":111},{"user_id":502,"name":"[δ] Delta","steam_id":76561198287190116,"connected_time":2661000000000,"state":"active","ping":64},{"user_id":534,"name":"dysphoria","steam_id":76561198076067588,"connected_time":507000000000,"state":"active","ping":134},{"user_id":503,"name":"Scunt_Bot.exe","steam_id":76561198325350546,"connected_time":2582000000000,"state":"active","ping":96},{"user_id":527,"name":"brk","steam_id":76561198079634017,"connected_time":1220000000000,"state":"active","ping":62},{"user_id":533,"name":"Nicklouse","steam_id":76561198852629024,"connected_time":886000000000,"state":"active","ping":78},{"user_id":494,"name":"bolainassr0","steam_id":76561199079078845,"connected_time":3437000000000,"state":"active","ping":104},{"user_id":511,"name":"many men wish death upon me","steam_id":76561198063128310,"connected_time":2069000000000,"state":"active","ping":82},{"user_id":475,"name":"BATTLE GUY","steam_id":76561197983903966,"connected_time":4928000000000,"state":"active","ping":85},{"user_id":476,"name":"world machine","steam_id":76561198020689909,"connected_time":4926000000000,"state":"active","ping":75},{"user_id":513,"name":"ianh221","steam_id":76561199069008958,"connected_time":2024000000000,"state":"active","ping":87},{"user_id":528,"name":"goop","steam_id":76561198311256085,"connected_time":1194000000000,"state":"active","ping":75},{"user_id":506,"name":"Randy \"the Man\" Johnson","steam_id":76561198039124445,"connected_time":2439000000000,"state":"active","ping":103},{"user_id":514,"name":"umbrelllaboi92","steam_id":76561198178901702,"connected_time":2017000000000,"state":"active","ping":90},{"user_id":515,"name":"stoned jester","steam_id":76561198079609974,"connected_time":1988000000000,"state":"active","ping":82},{"user_id":517,"name":"Soap","steam_id":76561198074619142,"connected_time":1858000000000,"state":"active","ping":88},{"user_id":518,"name":"The Assistant Regional Manager","steam_id":76561199221484936,"connected_time":1807000000000,"state":"active","ping":89},{"user_id":529,"name":"JasonIsGold79","steam_id":76561198101441539,"connected_time":1187000000000,"state":"active","ping":91},{"user_id":538,"name":"PhatBoi","steam_id":76561198055859578,"connected_time":51000000000,"state":"active","ping":116},{"user_id":537,"name":"Krazen","steam_id":76561198084257161,"connected_time":118000000000,"state":"active","ping":69},{"user_id":523,"name":"Herr Müller","steam_id":76561198064876829,"connected_time":1500000000000,"state":"active","ping":97}]},{"server_id":5,"name":"Uncletopia | Frankfurt | 1 | All Maps","name_short":"frk-1","host":"frk-1.de.uncletopia.com","port":27015,"enabled":true,"region":"eu","cc":"de","latitude":50.110924,"longitude":8.682127,"reserved":0,"last_update":"0001-01-01T00:00:00Z","name_a2s":"Uncletopia | Frankfurt | 1 | All Maps","protocol":17,"map":"koth_highpass","folder":"tf","game":"Team Fortress","app_id":440,"player_count":0,"max_players":24,"Bots":0,"server_type":"Dedicated","server_os":"Linux","password":true,"vac":true,"version":"7757534","steam_id":85568392924469989,"keywords":["cp","nocrits","nodmgspread","uncletopia"],"game_id":440,"stv_port":27016,"stv_name":"Uncletopia | Frankfurt | 1 | All Maps | STV","players":null},{"server_id":110,"name":"Uncletopia | Frankfurt | 2 | All Maps","name_short":"frk-2","host":"frk-1.de.uncletopia.com","port":27025,"enabled":true,"region":"eu","cc":"de","latitude":50.110924,"longitude":8.682127,"reserved":0,"last_update":"0001-01-01T00:00:00Z","name_a2s":"Uncletopia | Frankfurt | 2 | All Maps","protocol":17,"map":"koth_cascade","folder":"tf","game":"Team Fortress","app_id":440,"player_count":0,"max_players":24,"Bots":0,"server_type":"Dedicated","server_os":"Linux","password":true,"vac":true,"version":"7757534","steam_id":85568392924469990,"keywords":["cp","nocrits","nodmgspread","uncletopia"],"game_id":440,"stv_port":27026,"stv_name":"Uncletopia | Frankfurt | 2 | All Maps | STV","players":null},{"server_id":308,"name":"Uncletopia | Frankfurt | 3 | All Maps","name_short":"frk-3","host":"frk-1.de.uncletopia.com","port":27035,"enabled":true,"region":"eu","cc":"de","latitude":50.110924,"longitude":8.682127,"reserved":0,"last_update":"0001-01-01T00:00:00Z","name_a2s":"Uncletopia | Frankfurt | 3 | All Maps","protocol":17,"map":"pl_barnblitz","folder":"tf","game":"Team Fortress","app_id":440,"player_count":0,"max_players":24,"Bots":0,"server_type":"Dedicated","server_os":"Linux","password":true,"vac":true,"version":"7757534","steam_id":85568392924504274,"keywords":["nocrits","nodmgspread","payload","uncletopia"],"game_id":440,"stv_port":27036,"stv_name":"Uncletopia | Frankfurt | 3 | All Maps | STV","players":null},{"server_id":309,"name":"Uncletopia | Frankfurt | 4 | All Maps","name_short":"frk-4","host":"frk-1.de.uncletopia.com","port":27045,"enabled":true,"region":"eu","cc":"de","latitude":50.110924,"longitude":8.682127,"reserved":0,"last_update":"0001-01-01T00:00:00Z","name_a2s":"Uncletopia | Frankfurt | 4 | All Maps","protocol":17,"map":"pl_snowycoast","folder":"tf","game":"Team Fortress","app_id":440,"player_count":17,"max_players":24,"Bots":0,"server_type":"Dedicated","server_os":"Linux","password":true,"vac":true,"version":"7757534","steam_id":85568392924504275,"keywords":["nocrits","nodmgspread","payload","uncletopia"],"game_id":440,"stv_port":27046,"stv_name":"Uncletopia | Frankfurt | 4 | All Maps | STV","players":[{"user_id":7,"name":"❖ RazzorBee","steam_id":76561198092493838,"connected_time":920000000000,"state":"active","ping":90},{"user_id":24,"name":"RiX","steam_id":76561197969053733,"connected_time":172000000000,"state":"active","ping":66},{"user_id":8,"name":"Haghehog","steam_id":76561198075729793,"connected_time":910000000000,"state":"active","ping":113},{"user_id":17,"name":"Rolprev","steam_id":76561198047275939,"connected_time":544000000000,"state":"active","ping":71},{"user_id":11,"name":"Skeletros","steam_id":76561198130969152,"connected_time":806000000000,"state":"active","ping":131},{"user_id":14,"name":"Green Banana","steam_id":76561198055480280,"connected_time":619000000000,"state":"active","ping":80},{"user_id":23,"name":"gjhkgfkjfh","steam_id":76561198031181349,"connected_time":199000000000,"state":"active","ping":77},{"user_id":18,"name":"☯ Zer0Paradox","steam_id":76561198375097079,"connected_time":536000000000,"state":"active","ping":110},{"user_id":19,"name":"Cobb Salads","steam_id":76561197971140507,"connected_time":531000000000,"state":"active","ping":60},{"user_id":25,"name":"The one True Mads","steam_id":76561197999204692,"connected_time":143000000000,"state":"active","ping":67},{"user_id":21,"name":"ShizzOidVoid","steam_id":76561198840835416,"connected_time":489000000000,"state":"active","ping":122},{"user_id":22,"name":"sev//","steam_id":76561198797730418,"connected_time":423000000000,"state":"active","ping":53},{"user_id":26,"name":"Dom.","steam_id":76561199065917088,"connected_time":112000000000,"state":"active","ping":64},{"user_id":27,"name":"Your Local Idoit","steam_id":76561198449229817,"connected_time":107000000000,"state":"active","ping":96},{"user_id":28,"name":"Acxsa","steam_id":76561198098979449,"connected_time":89000000000,"state":"active","ping":77},{"user_id":29,"name":"Jedi Knight","steam_id":76561198039030709,"connected_time":23000000000,"state":"active","ping":37},{"user_id":30,"name":"joona","steam_id":76561198156305446,"connected_time":15000000000,"state":"spawning","ping":102}]},{"server_id":310,"name":"Uncletopia | Frankfurt | 5 | All Maps","name_short":"frk-5","host":"frk-1.de.uncletopia.com","port":27055,"enabled":true,"region":"eu","cc":"de","latitude":50.110924,"longitude":8.682127,"reserved":0,"last_update":"0001-01-01T00:00:00Z","name_a2s":"Uncletopia | Frankfurt | 5 | All Maps","protocol":17,"map":"cp_mountainlab","folder":"tf","game":"Team Fortress","app_id":440,"player_count":0,"max_players":24,"Bots":0,"server_type":"Dedicated","server_os":"Linux","password":true,"vac":true,"version":"7757534","steam_id":85568392924504277,"keywords":["cp","nocrits","nodmgspread","uncletopia"],"game_id":440,"stv_port":27056,"stv_name":"Uncletopia | Frankfurt | 5 | All Maps | STV","players":null},{"server_id":311,"name":"Uncletopia | Frankfurt | 6 | All Maps","name_short":"frk-6","host":"frk-1.de.uncletopia.com","port":27065,"enabled":true,"region":"eu","cc":"de","latitude":50.110924,"longitude":8.682127,"reserved":0,"last_update":"0001-01-01T00:00:00Z","name_a2s":"Uncletopia | Frankfurt | 6 | All Maps","protocol":17,"map":"koth_highpass","folder":"tf","game":"Team Fortress","app_id":440,"player_count":0,"max_players":24,"Bots":0,"server_type":"Dedicated","server_os":"Linux","password":true,"vac":true,"version":"7757534","steam_id":85568392924504278,"keywords":["cp","nocrits","nodmgspread","uncletopia"],"game_id":440,"stv_port":27066,"stv_name":"Uncletopia | Frankfurt | 6 | All Maps | STV","players":null},{"server_id":23,"name":"Uncletopia | Frankfurt | 7 | Stopwatch Beta","name_short":"frk-7","host":"frk-1.de.uncletopia.com","port":27075,"enabled":true,"region":"eu","cc":"de","latitude":50.110924,"longitude":8.682127,"reserved":0,"last_update":"0001-01-01T00:00:00Z","name_a2s":"Uncletopia | Frankfurt | 7 | Stopwatch Beta","protocol":17,"map":"pl_borneo","folder":"tf","game":"Team Fortress","app_id":440,"player_count":0,"max_players":24,"Bots":0,"server_type":"Dedicated","server_os":"Linux","password":true,"vac":true,"version":"7757534","steam_id":85568392924742827,"keywords":["nocrits","nodmgspread","payload","uncletopia"],"game_id":440,"stv_port":27076,"stv_name":"Uncletopia | Frankfurt | 7 | Stopwatch Beta | STV","players":null},{"server_id":24,"name":"Uncletopia | Frankfurt | 8 | Community","name_short":"frk-8","host":"frk-1.de.uncletopia.com","port":27085,"enabled":true,"region":"eu","cc":"de","latitude":50.110924,"longitude":8.682127,"reserved":0,"last_update":"0001-01-01T00:00:00Z","name_a2s":"Uncletopia | Frankfurt | 8 | Community","protocol":17,"map":"koth_cascade","folder":"tf","game":"Team Fortress","app_id":440,"player_count":0,"max_players":24,"Bots":0,"server_type":"Dedicated","server_os":"Linux","password":true,"vac":true,"version":"7757534","steam_id":85568392924742828,"keywords":["cp","nocrits","nodmgspread","uncletopia"],"game_id":440,"stv_port":27086,"stv_name":"Uncletopia | Frankfurt | 8 | Community | STV","players":null},{"server_id":202,"name":"Uncletopia | Hong Kong | 1 | All Maps","name_short":"hgk-1","host":"hgk-1.hk.uncletopia.com","port":27015,"enabled":true,"region":"asia","cc":"hk","latitude":22.302711,"longitude":114.177216,"reserved":0,"last_update":"0001-01-01T00:00:00Z","name_a2s":"Uncletopia | Hong Kong | 1 | All Maps","protocol":17,"map":"pl_swiftwater_final1","folder":"tf","game":"Team Fortress","app_id":440,"player_count":24,"max_players":24,"Bots":0,"server_type":"Dedicated","server_os":"Linux","password":true,"vac":true,"version":"7757534","steam_id":85568392924494504,"keywords":["nocrits","nodmgspread","payload","uncletopia"],"game_id":440,"stv_port":27016,"stv_name":"Uncletopia | Hong Kong | 1 | All Maps | STV","players":[{"user_id":54,"name":"why wont my gun shoot?","steam_id":76561199249938987,"connected_time":2169000000000,"state":"active","ping":34},{"user_id":55,"name":"Lym0n","steam_id":76561199192420260,"connected_time":2168000000000,"state":"active","ping":121},{"user_id":56,"name":"timmy.1366","steam_id":76561199065433547,"connected_time":2165000000000,"state":"active","ping":81},{"user_id":78,"name":"Leroy","steam_id":76561199137927625,"connected_time":694000000000,"state":"active","ping":105},{"user_id":75,"name":"leddington","steam_id":76561199279650909,"connected_time":764000000000,"state":"active","ping":76},{"user_id":87,"name":"uptriste","steam_id":76561198158666692,"connected_time":384000000000,"state":"active","ping":29},{"user_id":61,"name":"Esperesso","steam_id":76561199105427733,"connected_time":1706000000000,"state":"active","ping":154},{"user_id":76,"name":"Milk❤ (most loved guy in ut)","steam_id":76561198163911560,"connected_time":761000000000,"state":"active","ping":160},{"user_id":66,"name":"Momoxhien","steam_id":76561198414997429,"connected_time":1319000000000,"state":"active","ping":54},{"user_id":64,"name":"uzr","steam_id":76561198799343084,"connected_time":1569000000000,"state":"active","ping":142},{"user_id":89,"name":"Starry","steam_id":76561198329126870,"connected_time":199000000000,"state":"active","ping":45},{"user_id":79,"name":"전통차","steam_id":76561199224096189,"connected_time":610000000000,"state":"active","ping":81},{"user_id":80,"name":"여름","steam_id":76561198274438558,"connected_time":587000000000,"state":"active","ping":80},{"user_id":71,"name":"jerrybel","steam_id":76561198055553140,"connected_time":1128000000000,"state":"active","ping":76},{"user_id":74,"name":"LudE","steam_id":76561198828840546,"connected_time":1097000000000,"state":"active","ping":74},{"user_id":73,"name":"Urotsuki","steam_id":76561198074339034,"connected_time":1101000000000,"state":"active","ping":77},{"user_id":81,"name":"帕","steam_id":76561198439343999,"connected_time":518000000000,"state":"active","ping":77},{"user_id":82,"name":"GreggieBoi","steam_id":76561199085200364,"connected_time":509000000000,"state":"active","ping":59},{"user_id":92,"name":"Marika","steam_id":76561198212649929,"connected_time":122000000000,"state":"active","ping":123},{"user_id":84,"name":"Degenerate With Standards","steam_id":76561199174449723,"connected_time":466000000000,"state":"active","ping":103},{"user_id":85,"name":"伐蒙古喀爾喀紥魯特部8","steam_id":76561199035566361,"connected_time":452000000000,"state":"active","ping":76},{"user_id":86,"name":"tiden2000","steam_id":76561198092969425,"connected_time":438000000000,"state":"active","ping":98},{"user_id":88,"name":"A Weapon to surpass Metal Gear","steam_id":76561199003477951,"connected_time":349000000000,"state":"active","ping":145},{"user_id":91,"name":"flying rocket","steam_id":76561199401766251,"connected_time":162000000000,"state":"active","ping":93}]},{"server_id":1,"name":"Uncletopia | Los Angeles | 1 | All Maps","name_short":"lax-1","host":"lax-1.us.uncletopia.com","port":27015,"enabled":true,"region":"us-west","cc":"us","latitude":33.94279,"longitude":-118.41004,"reserved":0,"last_update":"0001-01-01T00:00:00Z","name_a2s":"Uncletopia | Los Angeles | 1 | All Maps","protocol":17,"map":"koth_viaduct","folder":"tf","game":"Team Fortress","app_id":440,"player_count":0,"max_players":24,"Bots":0,"server_type":"Dedicated","server_os":"Linux","password":true,"vac":true,"version":"7757534","steam_id":85568392924469991,"keywords":["cp","nocrits","nodmgspread","uncletopia"],"game_id":440,"stv_port":27016,"stv_name":"Uncletopia | Los Angeles | 1 | All Maps | STV","players":null},{"server_id":112,"name":"Uncletopia | Los Angeles | 2 | All Maps","name_short":"lax-2","host":"lax-1.us.uncletopia.com","port":27025,"enabled":true,"region":"us-west","cc":"us","latitude":33.94279,"longitude":-118.41004,"reserved":0,"last_update":"0001-01-01T00:00:00Z","name_a2s":"Uncletopia | Los Angeles | 2 | All Maps","protocol":17,"map":"pl_pier","folder":"tf","game":"Team Fortress","app_id":440,"player_count":0,"max_players":24,"Bots":0,"server_type":"Dedicated","server_os":"Linux","password":true,"vac":true,"version":"7757534","steam_id":85568392924469992,"keywords":["nocrits","nodmgspread","payload","uncletopia"],"game_id":440,"stv_port":27026,"stv_name":"Uncletopia | Los Angeles | 2 | All Maps | STV","players":null},{"server_id":324,"name":"Uncletopia | Los Angeles | 3 | All Maps","name_short":"lax-3","host":"lax-1.us.uncletopia.com","port":27035,"enabled":true,"region":"us-west","cc":"us","latitude":33.94279,"longitude":-118.41004,"reserved":0,"last_update":"0001-01-01T00:00:00Z","name_a2s":"Uncletopia | Los Angeles | 3 | All Maps","protocol":17,"map":"koth_highpass","folder":"tf","game":"Team Fortress","app_id":440,"player_count":0,"max_players":24,"Bots":0,"server_type":"Dedicated","server_os":"Linux","password":true,"vac":true,"version":"7757534","steam_id":85568392924510198,"keywords":["cp","nocrits","nodmgspread","uncletopia"],"game_id":440,"stv_port":27036,"stv_name":"Uncletopia | Los Angeles | 3 | All Maps | STV","players":null},{"server_id":25,"name":"Uncletopia | Los Angeles | 4 | Stopwatch Beta","name_short":"lax-4","host":"lax-1.us.uncletopia.com","port":27045,"enabled":true,"region":"us-west","cc":"us","latitude":33.94279,"longitude":-118.41004,"reserved":0,"last_update":"0001-01-01T00:00:00Z","name_a2s":"Uncletopia | Los Angeles | 4 | Stopwatch Beta","protocol":17,"map":"koth_viaduct","folder":"tf","game":"Team Fortress","app_id":440,"player_count":0,"max_players":24,"Bots":0,"server_type":"Dedicated","server_os":"Linux","password":true,"vac":true,"version":"7757534","steam_id":85568392924510199,"keywords":["cp","nocrits","nodmgspread","uncletopia"],"game_id":440,"stv_port":27046,"stv_name":"Uncletopia | Los Angeles | 4 | Stopwatch Beta | STV","players":null},{"server_id":11,"name":"Uncletopia | London | 1 | All Maps","name_short":"lon-1","host":"lon-1.uk.uncletopia.com","port":27015,"enabled":true,"region":"eu","cc":"gb","latitude":51.509865,"longitude":-0.118092,"reserved":0,"last_update":"0001-01-01T00:00:00Z","name_a2s":"Uncletopia | London | 1 | All Maps","protocol":17,"map":"ctf_2fort","folder":"tf","game":"Team Fortress","app_id":440,"player_count":22,"max_players":24,"Bots":0,"server_type":"Dedicated","server_os":"Linux","password":true,"vac":true,"version":"7757534","steam_id":85568392924367362,"keywords":["ctf","nocrits","nodmgspread","uncletopia"],"game_id":440,"stv_port":27016,"stv_name":"Uncletopia | London | 1 | All Maps | STV","players":[{"user_id":155,"name":"desu!","steam_id":76561198052878585,"connected_time":381000000000,"state":"active","ping":125},{"user_id":77,"name":"MRLOLENO","steam_id":76561198450911838,"connected_time":6135000000000,"state":"active","ping":72},{"user_id":140,"name":"p2wta","steam_id":76561199467969775,"connected_time":1729000000000,"state":"active","ping":146},{"user_id":115,"name":"re","steam_id":76561198202816899,"connected_time":3359000000000,"state":"active","ping":40},{"user_id":152,"name":"SLEEPY CATBOY ZZZZZ","steam_id":76561198059713483,"connected_time":489000000000,"state":"active","ping":44},{"user_id":156,"name":"theblackfire","steam_id":76561198883641136,"connected_time":356000000000,"state":"active","ping":98},{"user_id":125,"name":"Fellas","steam_id":76561198845162162,"connected_time":2769000000000,"state":"active","ping":62},{"user_id":157,"name":"raime","steam_id":76561198024903775,"connected_time":336000000000,"state":"active","ping":98},{"user_id":161,"name":"Montrose","steam_id":76561198338911736,"connected_time":157000000000,"state":"active","ping":178},{"user_id":146,"name":"Jude","steam_id":76561198976155630,"connected_time":993000000000,"state":"active","ping":65},{"user_id":162,"name":"Salty_shark","steam_id":76561198300798280,"connected_time":97000000000,"state":"active","ping":68},{"user_id":136,"name":"дон ягон","steam_id":76561199086100360,"connected_time":2053000000000,"state":"active","ping":113},{"user_id":71,"name":"333res","steam_id":76561198148106704,"connected_time":7007000000000,"state":"active","ping":89},{"user_id":154,"name":"Lobsternator","steam_id":76561198183530775,"connected_time":423000000000,"state":"active","ping":63},{"user_id":150,"name":"LAMC","steam_id":76561199066888917,"connected_time":700000000000,"state":"active","ping":76},{"user_id":91,"name":"brass beast 1","steam_id":76561198042774930,"connected_time":5460000000000,"state":"active","ping":61},{"user_id":127,"name":"Sneaky boi","steam_id":76561199195985387,"connected_time":2554000000000,"state":"active","ping":87},{"user_id":142,"name":"Warlord Of Nations","steam_id":76561198417999443,"connected_time":1132000000000,"state":"active","ping":104},{"user_id":143,"name":"Rezolt","steam_id":76561198069074807,"connected_time":1101000000000,"state":"active","ping":123},{"user_id":153,"name":"Deva Path","steam_id":76561198085763542,"connected_time":458000000000,"state":"active","ping":83},{"user_id":158,"name":"Fat Pigeon","steam_id":76561198817940142,"connected_time":331000000000,"state":"active","ping":45},{"user_id":123,"name":"1ostSou1","steam_id":76561199316324276,"connected_time":2910000000000,"state":"active","ping":108}]},{"server_id":114,"name":"Uncletopia | London | 2 | All Maps","name_short":"lon-2","host":"lon-1.uk.uncletopia.com","port":27025,"enabled":true,"region":"eu","cc":"gb","latitude":51.509865,"longitude":-0.118092,"reserved":0,"last_update":"0001-01-01T00:00:00Z","name_a2s":"Uncletopia | London | 2 | All Maps","protocol":17,"map":"pl_borneo","folder":"tf","game":"Team Fortress","app_id":440,"player_count":0,"max_players":24,"Bots":0,"server_type":"Dedicated","server_os":"Linux","password":true,"vac":true,"version":"7757534","steam_id":85568392924470941,"keywords":["nocrits","nodmgspread","payload","uncletopia"],"game_id":440,"stv_port":27026,"stv_name":"Uncletopia | London | 2 | All Maps | STV","players":null},{"server_id":320,"name":"Uncletopia | London | 3 | All Maps","name_short":"lon-3","host":"lon-1.uk.uncletopia.com","port":27035,"enabled":true,"region":"eu","cc":"gb","latitude":51.509865,"longitude":-0.118092,"reserved":0,"last_update":"0001-01-01T00:00:00Z","name_a2s":"Uncletopia | London | 3 | All Maps","protocol":17,"map":"pl_badwater","folder":"tf","game":"Team Fortress","app_id":440,"player_count":0,"max_players":24,"Bots":0,"server_type":"Dedicated","server_os":"Linux","password":true,"vac":true,"version":"7757534","steam_id":85568392924510192,"keywords":["nocrits","nodmgspread","payload","uncletopia"],"game_id":440,"stv_port":27036,"stv_name":"Uncletopia | London | 3 | All Maps | STV","players":null},{"server_id":321,"name":"Uncletopia | London | 4 | All Maps","name_short":"lon-4","host":"lon-1.uk.uncletopia.com","port":27045,"enabled":true,"region":"eu","cc":"gb","latitude":51.509865,"longitude":-0.118092,"reserved":0,"last_update":"0001-01-01T00:00:00Z","name_a2s":"Uncletopia | London | 4 | All Maps","protocol":17,"map":"cp_snakewater_final1","folder":"tf","game":"Team Fortress","app_id":440,"player_count":0,"max_players":24,"Bots":0,"server_type":"Dedicated","server_os":"Linux","password":true,"vac":true,"version":"7757534","steam_id":85568392924510193,"keywords":["cp","nocrits","nodmgspread","uncletopia"],"game_id":440,"stv_port":27046,"stv_name":"Uncletopia | London | 4 | All Maps | STV","players":null},{"server_id":21,"name":"Uncletopia | London | 5 | All Maps","name_short":"lon-5","host":"lon-1.uk.uncletopia.com","port":27055,"enabled":true,"region":"eu","cc":"gb","latitude":51.509865,"longitude":-0.118092,"reserved":0,"last_update":"0001-01-01T00:00:00Z","name_a2s":"Uncletopia | London | 5 | All Maps","protocol":17,"map":"pl_snowycoast","folder":"tf","game":"Team Fortress","app_id":440,"player_count":0,"max_players":24,"Bots":0,"server_type":"Dedicated","server_os":"Linux","password":true,"vac":true,"version":"7757534","steam_id":85568392924742829,"keywords":["nocrits","nodmgspread","payload","uncletopia"],"game_id":440,"stv_port":27056,"stv_name":"Uncletopia | London | 5 | All Maps | STV","players":null},{"server_id":22,"name":"Uncletopia | London | 6 | All Maps","name_short":"lon-6","host":"lon-1.uk.uncletopia.com","port":27065,"enabled":true,"region":"eu","cc":"gb","latitude":51.509865,"longitude":-0.118092,"reserved":0,"last_update":"0001-01-01T00:00:00Z","name_a2s":"Uncletopia | London | 6 | All Maps","protocol":17,"map":"pl_snowycoast","folder":"tf","game":"Team Fortress","app_id":440,"player_count":0,"max_players":24,"Bots":0,"server_type":"Dedicated","server_os":"Linux","password":true,"vac":true,"version":"7757534","steam_id":85568392924742830,"keywords":["nocrits","nodmgspread","payload","uncletopia"],"game_id":440,"stv_port":27066,"stv_name":"Uncletopia | London | 6 | All Maps | STV","players":null},{"server_id":40,"name":"Uncletopia | London | 7 | No Payload","name_short":"lon-7","host":"lon-1.uk.uncletopia.com","port":27075,"enabled":true,"region":"eu","cc":"gb","latitude":51.509865,"longitude":-0.118092,"reserved":0,"last_update":"0001-01-01T00:00:00Z","name_a2s":"Uncletopia | London | 7 | No Payload","protocol":17,"map":"pl_upward","folder":"tf","game":"Team Fortress","app_id":440,"player_count":0,"max_players":24,"Bots":0,"server_type":"Dedicated","server_os":"Linux","password":true,"vac":true,"version":"7757534","steam_id":85568392924964314,"keywords":["nocrits","nodmgspread","payload","uncletopia"],"game_id":440,"stv_port":27076,"stv_name":"Uncletopia | London | 7 | No Payload | STV","players":null},{"server_id":41,"name":"Uncletopia | London | 8 | Community","name_short":"lon-8","host":"lon-1.uk.uncletopia.com","port":27085,"enabled":true,"region":"eu","cc":"gb","latitude":51.509865,"longitude":-0.118092,"reserved":0,"last_update":"0001-01-01T00:00:00Z","name_a2s":"Uncletopia | London | 8 | Community","protocol":17,"map":"cp_snakewater_final1","folder":"tf","game":"Team Fortress","app_id":440,"player_count":0,"max_players":24,"Bots":0,"server_type":"Dedicated","server_os":"Linux","password":true,"vac":true,"version":"7757534","steam_id":85568392924964315,"keywords":["cp","nocrits","nodmgspread","uncletopia"],"game_id":440,"stv_port":27086,"stv_name":"Uncletopia | London | 8 | Community | STV","players":null},{"server_id":300,"name":"Uncletopia | Montréal | 1 | All Maps","name_short":"mtl-1","host":"mtl-1.ca.uncletopia.com","port":27015,"enabled":true,"region":"us-east","cc":"ca","latitude":45.50889,"longitude":-73.56167,"reserved":0,"last_update":"0001-01-01T00:00:00Z","name_a2s":"Uncletopia | Montréal | 1 | All Maps","protocol":17,"map":"koth_cascade","folder":"tf","game":"Team Fortress","app_id":440,"player_count":0,"max_players":24,"Bots":0,"server_type":"Dedicated","server_os":"Linux","password":true,"vac":true,"version":"7757534","steam_id":85568392924500087,"keywords":["cp","nocrits","nodmgspread","uncletopia"],"game_id":440,"stv_port":27016,"stv_name":"Uncletopia | Montréal | 1 | All Maps | STV","players":null},{"server_id":301,"name":"Uncletopia | Montréal | 2 | All Maps","name_short":"mtl-2","host":"mtl-1.ca.uncletopia.com","port":27025,"enabled":true,"region":"us-east","cc":"ca","latitude":45.50889,"longitude":-73.56167,"reserved":0,"last_update":"0001-01-01T00:00:00Z","name_a2s":"Uncletopia | Montréal | 2 | All Maps","protocol":17,"map":"koth_viaduct","folder":"tf","game":"Team Fortress","app_id":440,"player_count":0,"max_players":24,"Bots":0,"server_type":"Dedicated","server_os":"Linux","password":true,"vac":true,"version":"7757534","steam_id":85568392924500088,"keywords":["cp","nocrits","nodmgspread","uncletopia"],"game_id":440,"stv_port":27026,"stv_name":"Uncletopia | Montréal | 2 | All Maps | STV","players":null},{"server_id":302,"name":"Uncletopia | Montréal | 3 | All Maps","name_short":"mtl-3","host":"mtl-1.ca.uncletopia.com","port":27035,"enabled":true,"region":"us-east","cc":"ca","latitude":45.50889,"longitude":-73.56167,"reserved":0,"last_update":"0001-01-01T00:00:00Z","name_a2s":"Uncletopia | Montréal | 3 | All Maps","protocol":17,"map":"pl_swiftwater_final1","folder":"tf","game":"Team Fortress","app_id":440,"player_count":0,"max_players":24,"Bots":0,"server_type":"Dedicated","server_os":"Linux","password":true,"vac":true,"version":"7757534","steam_id":85568392924500089,"keywords":["nocrits","nodmgspread","payload","uncletopia"],"game_id":440,"stv_port":27036,"stv_name":"Uncletopia | Montréal | 3 | All Maps | STV","players":null},{"server_id":303,"name":"Uncletopia | Montréal | 4 | No Payload","name_short":"mtl-4","host":"mtl-1.ca.uncletopia.com","port":27045,"enabled":true,"region":"us-east","cc":"ca","latitude":45.50889,"longitude":-73.56167,"reserved":0,"last_update":"0001-01-01T00:00:00Z","name_a2s":"Uncletopia | Montréal | 4 | No Payload","protocol":17,"map":"koth_lakeside_final","folder":"tf","game":"Team Fortress","app_id":440,"player_count":0,"max_players":24,"Bots":0,"server_type":"Dedicated","server_os":"Linux","password":true,"vac":true,"version":"7757534","steam_id":85568392924500090,"keywords":["cp","nocrits","nodmgspread","uncletopia"],"game_id":440,"stv_port":27046,"stv_name":"Uncletopia | Montréal | 4 | No Payload | STV","players":null},{"server_id":13,"name":"Uncletopia | New York City | 1 | All Maps","name_short":"nyc-1","host":"nyc-1.us.uncletopia.com","port":27015,"enabled":true,"region":"us-east","cc":"us","latitude":40.73061,"longitude":-73.93524,"reserved":0,"last_update":"0001-01-01T00:00:00Z","name_a2s":"Uncletopia | New York City | 1 | All Maps","protocol":17,"map":"pl_barnblitz","folder":"tf","game":"Team Fortress","app_id":440,"player_count":14,"max_players":24,"Bots":0,"server_type":"Dedicated","server_os":"Linux","password":true,"vac":true,"version":"7757534","steam_id":85568392924469993,"keywords":["nocrits","nodmgspread","payload","uncletopia"],"game_id":440,"stv_port":27016,"stv_name":"Uncletopia | New York City | 1 | All Maps | STV","players":[{"user_id":566,"name":"Banana Lord","steam_id":76561198169966346,"connected_time":455000000000,"state":"active","ping":65},{"user_id":523,"name":"Fish Politics","steam_id":76561198214754864,"connected_time":3389000000000,"state":"active","ping":59},{"user_id":568,"name":"mothball","steam_id":76561197982515124,"connected_time":22000000000,"state":"active","ping":85},{"user_id":557,"name":"Yoshimelon","steam_id":76561198253054325,"connected_time":1093000000000,"state":"active","ping":74},{"user_id":508,"name":"washy","steam_id":76561198046622670,"connected_time":4533000000000,"state":"active","ping":82},{"user_id":544,"name":"Brass beast heavy","steam_id":76561198274197623,"connected_time":1895000000000,"state":"active","ping":123},{"user_id":548,"name":"Seer","steam_id":76561198013492052,"connected_time":1593000000000,"state":"active","ping":68},{"user_id":559,"name":"CornBreadedGuy","steam_id":76561199304050211,"connected_time":1038000000000,"state":"active","ping":121},{"user_id":528,"name":"W + M1","steam_id":76561198220464631,"connected_time":3033000000000,"state":"active","ping":45},{"user_id":490,"name":"Laelaps","steam_id":76561198100061416,"connected_time":6394000000000,"state":"active","ping":68},{"user_id":507,"name":"shokie","steam_id":76561197997961542,"connected_time":4540000000000,"state":"active","ping":61},{"user_id":562,"name":"komantoN^-","steam_id":76561198017929662,"connected_time":900000000000,"state":"active","ping":119},{"user_id":502,"name":"Ghost","steam_id":76561198110914180,"connected_time":5481000000000,"state":"active","ping":157},{"user_id":546,"name":"DO NOT call me BART SIMPSON!!","steam_id":76561198069113375,"connected_time":1770000000000,"state":"active","ping":64}]},{"server_id":14,"name":"Uncletopia | New York City | 2 | All Maps","name_short":"nyc-2","host":"nyc-1.us.uncletopia.com","port":27025,"enabled":true,"region":"us-east","cc":"us","latitude":40.73061,"longitude":-73.93524,"reserved":0,"last_update":"0001-01-01T00:00:00Z","name_a2s":"Uncletopia | New York City | 2 | All Maps","protocol":17,"map":"pl_frontier_final","folder":"tf","game":"Team Fortress","app_id":440,"player_count":0,"max_players":24,"Bots":0,"server_type":"Dedicated","server_os":"Linux","password":true,"vac":true,"version":"7757534","steam_id":85568392924469994,"keywords":["nocrits","nodmgspread","payload","uncletopia"],"game_id":440,"stv_port":27026,"stv_name":"Uncletopia | New York City | 2 | All Maps | STV","players":null},{"server_id":15,"name":"Uncletopia | New York City | 3 | Stopwatch Beta","name_short":"nyc-3","host":"nyc-1.us.uncletopia.com","port":27035,"enabled":true,"region":"us-east","cc":"us","latitude":40.73061,"longitude":-73.93524,"reserved":0,"last_update":"0001-01-01T00:00:00Z","name_a2s":"Uncletopia | New York City | 3 | Stopwatch Beta","protocol":17,"map":"workshop/pl_barnblitz_pro7.ugc582280235","folder":"tf","game":"Team Fortress","app_id":440,"player_count":0,"max_players":24,"Bots":0,"server_type":"Dedicated","server_os":"Linux","password":true,"vac":true,"version":"7757534","steam_id":85568392924742820,"keywords":["nocrits","nodmgspread","payload","uncletopia"],"game_id":440,"stv_port":27036,"stv_name":"Uncletopia | New York City | 3 | Stopwatch Beta | STV","players":null},{"server_id":16,"name":"Uncletopia | New York City | 4 | Community","name_short":"nyc-4","host":"nyc-1.us.uncletopia.com","port":27045,"enabled":true,"region":"us-east","cc":"us","latitude":40.73061,"longitude":-73.93524,"reserved":0,"last_update":"0001-01-01T00:00:00Z","name_a2s":"Uncletopia | New York City | 4 | Community","protocol":17,"map":"workshop/koth_ashville_final.ugc2130459942","folder":"tf","game":"Team Fortress","app_id":440,"player_count":0,"max_players":24,"Bots":0,"server_type":"Dedicated","server_os":"Linux","password":true,"vac":true,"version":"7757534","steam_id":85568392924742821,"keywords":["cp","nocrits","nodmgspread","uncletopia"],"game_id":440,"stv_port":27046,"stv_name":"Uncletopia | New York City | 4 | Community | STV","players":null},{"server_id":142,"name":"Uncletopia | São Paulo | 1 | All Maps","name_short":"sao-1","host":"sao-1.br.uncletopia.com","port":27015,"enabled":true,"region":"sa","cc":"br","latitude":-23.533773,"longitude":-46.62529,"reserved":0,"last_update":"0001-01-01T00:00:00Z","name_a2s":"Uncletopia | São Paulo | 1 | All Maps","protocol":17,"map":"koth_highpass","folder":"tf","game":"Team Fortress","app_id":440,"player_count":0,"max_players":24,"Bots":0,"server_type":"Dedicated","server_os":"Linux","password":true,"vac":true,"version":"7757534","steam_id":85568392924469996,"keywords":["cp","nocrits","nodmgspread","uncletopia"],"game_id":440,"stv_port":27016,"stv_name":"Uncletopia | São Paulo | 1 | All Maps | STV","players":null},{"server_id":143,"name":"Uncletopia | São Paulo | 2 | All Maps","name_short":"sao-2","host":"sao-2.br.uncletopia.com","port":27015,"enabled":true,"region":"sa","cc":"br","latitude":-23.533773,"longitude":-46.62529,"reserved":0,"last_update":"0001-01-01T00:00:00Z","name_a2s":"Uncletopia | São Paulo | 2 | All Maps","protocol":17,"map":"koth_highpass","folder":"tf","game":"Team Fortress","app_id":440,"player_count":2,"max_players":24,"Bots":0,"server_type":"Dedicated","server_os":"Linux","password":true,"vac":true,"version":"7757534","steam_id":85568392924485349,"keywords":["cp","nocrits","nodmgspread","uncletopia"],"game_id":440,"stv_port":27016,"stv_name":"Uncletopia | São Paulo | 2 | All Maps | STV","players":[{"user_id":239,"name":"FBrrws","steam_id":76561198253365247,"connected_time":993000000000,"state":"active","ping":93},{"user_id":240,"name":"spcifc","steam_id":76561198345915863,"connected_time":988000000000,"state":"active","ping":95}]},{"server_id":7,"name":"Uncletopia | Seattle | 1 | All Maps","name_short":"sea-1","host":"sea-1.us.uncletopia.com","port":27015,"enabled":true,"region":"us-west","cc":"us","latitude":47.608013,"longitude":-122.33517,"reserved":0,"last_update":"0001-01-01T00:00:00Z","name_a2s":"Uncletopia | Seattle | 1 | All Maps","protocol":17,"map":"cp_altitude","folder":"tf","game":"Team Fortress","app_id":440,"player_count":23,"max_players":24,"Bots":0,"server_type":"Dedicated","server_os":"Linux","password":true,"vac":true,"version":"7757534","steam_id":85568392924469997,"keywords":["cp","nocrits","nodmgspread","uncletopia"],"game_id":440,"stv_port":27016,"stv_name":"Uncletopia | Seattle | 1 | All Maps | STV","players":[{"user_id":831,"name":"Bubbamanme","steam_id":76561198119778504,"connected_time":2380000000000,"state":"active","ping":57},{"user_id":854,"name":"Pubk","steam_id":76561198095939571,"connected_time":634000000000,"state":"active","ping":33},{"user_id":860,"name":"vaping cat","steam_id":76561198192060655,"connected_time":29000000000,"state":"active","ping":45},{"user_id":782,"name":"Luca","steam_id":76561198125087140,"connected_time":7660000000000,"state":"active","ping":51},{"user_id":858,"name":"Feel the bern","steam_id":76561198078824519,"connected_time":108000000000,"state":"active","ping":87},{"user_id":846,"name":"PheebsyDeebsy","steam_id":76561198101509436,"connected_time":1341000000000,"state":"active","ping":62},{"user_id":857,"name":"AndrewTateHustlersUniversity","steam_id":76561198036162718,"connected_time":136000000000,"state":"active","ping":110},{"user_id":849,"name":"RURU","steam_id":76561198039758987,"connected_time":1187000000000,"state":"active","ping":50},{"user_id":840,"name":"h u r t","steam_id":76561198046073848,"connected_time":1727000000000,"state":"active","ping":46},{"user_id":859,"name":"squid game","steam_id":76561199248960166,"connected_time":84000000000,"state":"active","ping":36},{"user_id":721,"name":"Ayayahuasca","steam_id":76561199002906056,"connected_time":12450000000000,"state":"active","ping":45},{"user_id":790,"name":"Username","steam_id":76561198855586261,"connected_time":6936000000000,"state":"active","ping":64},{"user_id":856,"name":"hotdog every meal","steam_id":76561198392514273,"connected_time":532000000000,"state":"active","ping":60},{"user_id":822,"name":"JERMA BUT CRYING AND TRANS","steam_id":76561198210734407,"connected_time":3623000000000,"state":"active","ping":118},{"user_id":836,"name":"Interrobang","steam_id":76561198385044529,"connected_time":2251000000000,"state":"active","ping":130},{"user_id":784,"name":"Sweets","steam_id":76561198998446307,"connected_time":7562000000000,"state":"active","ping":64},{"user_id":796,"name":"Sniff","steam_id":76561198010270922,"connected_time":6630000000000,"state":"active","ping":45},{"user_id":837,"name":"Not Dentist","steam_id":76561198103189993,"connected_time":2229000000000,"state":"active","ping":71},{"user_id":841,"name":"Cassandra (She/her)","steam_id":76561198094123940,"connected_time":1595000000000,"state":"active","ping":124},{"user_id":847,"name":"MALLION","steam_id":76561198125539384,"connected_time":1324000000000,"state":"active","ping":122},{"user_id":819,"name":"shane","steam_id":76561198060491451,"connected_time":4199000000000,"state":"active","ping":89},{"user_id":844,"name":"Ignignokt","steam_id":76561198162207470,"connected_time":1428000000000,"state":"active","ping":61},{"user_id":801,"name":"An Old Lady","steam_id":76561198047480318,"connected_time":5824000000000,"state":"active","ping":72}]},{"server_id":119,"name":"Uncletopia | Seattle | 2 | All Maps","name_short":"sea-2","host":"sea-1.us.uncletopia.com","port":27025,"enabled":true,"region":"us-west","cc":"us","latitude":47.608013,"longitude":-122.33517,"reserved":0,"last_update":"0001-01-01T00:00:00Z","name_a2s":"Uncletopia | Seattle | 2 | All Maps","protocol":17,"map":"cp_altitude","folder":"tf","game":"Team Fortress","app_id":440,"player_count":0,"max_players":24,"Bots":0,"server_type":"Dedicated","server_os":"Linux","password":true,"vac":true,"version":"7757534","steam_id":85568392924469998,"keywords":["cp","nocrits","nodmgspread","uncletopia"],"game_id":440,"stv_port":27026,"stv_name":"Uncletopia | Seattle | 2 | All Maps | STV","players":null},{"server_id":406,"name":"Uncletopia | Seattle | 3 | Stopwatch Beta","name_short":"sea-3","host":"sea-1.us.uncletopia.com","port":27035,"enabled":true,"region":"us-west","cc":"us","latitude":47.608013,"longitude":-122.33517,"reserved":0,"last_update":"0001-01-01T00:00:00Z","name_a2s":"Uncletopia | Seattle | 3 | Stopwatch Beta","protocol":17,"map":"workshop/koth_ramjam_rc1.ugc459778887","folder":"tf","game":"Team Fortress","app_id":440,"player_count":0,"max_players":24,"Bots":0,"server_type":"Dedicated","server_os":"Linux","password":true,"vac":true,"version":"7757534","steam_id":85568392924515217,"keywords":["cp","nocrits","nodmgspread","uncletopia"],"game_id":440,"stv_port":27036,"stv_name":"Uncletopia | Seattle | 3 | Stopwatch Beta | STV","players":null},{"server_id":17,"name":"Uncletopia | San Francisco | 1 | All Maps","name_short":"sfo-1","host":"sfo-1.us.uncletopia.com","port":27015,"enabled":true,"region":"us-west","cc":"us","latitude":37.77397,"longitude":-122.4313,"reserved":0,"last_update":"0001-01-01T00:00:00Z","name_a2s":"Uncletopia | San Francisco | 1 | All Maps","protocol":17,"map":"koth_viaduct","folder":"tf","game":"Team Fortress","app_id":440,"player_count":0,"max_players":24,"Bots":0,"server_type":"Dedicated","server_os":"Linux","password":true,"vac":true,"version":"7757534","steam_id":85568392924469999,"keywords":["cp","nocrits","nodmgspread","uncletopia"],"game_id":440,"stv_port":27016,"stv_name":"Uncletopia | San Francisco | 1 | All Maps | STV","players":null},{"server_id":18,"name":"Uncletopia | San Francisco | 2 | All Maps","name_short":"sfo-2","host":"sfo-1.us.uncletopia.com","port":27025,"enabled":true,"region":"us-west","cc":"us","latitude":37.77397,"longitude":-122.4313,"reserved":0,"last_update":"0001-01-01T00:00:00Z","name_a2s":"Uncletopia | San Francisco | 2 | All Maps","protocol":17,"map":"pl_upward","folder":"tf","game":"Team Fortress","app_id":440,"player_count":24,"max_players":24,"Bots":0,"server_type":"Dedicated","server_os":"Linux","password":true,"vac":true,"version":"7757534","steam_id":85568392924470000,"keywords":["nocrits","nodmgspread","payload","uncletopia"],"game_id":440,"stv_port":27026,"stv_name":"Uncletopia | San Francisco | 2 | All Maps | STV","players":[{"user_id":510,"name":"mommy","steam_id":76561198129195009,"connected_time":994000000000,"state":"active","ping":76},{"user_id":505,"name":"Twisted Freaking Cyclepath","steam_id":76561198080775161,"connected_time":1318000000000,"state":"active","ping":68},{"user_id":492,"name":"Prof. Anesthesia","steam_id":76561198993250002,"connected_time":1759000000000,"state":"active","ping":89},{"user_id":508,"name":"gamer","steam_id":76561198334059206,"connected_time":1176000000000,"state":"active","ping":53},{"user_id":506,"name":"lurch","steam_id":76561198055365166,"connected_time":1314000000000,"state":"active","ping":68},{"user_id":519,"name":"Ryle","steam_id":76561198216682264,"connected_time":464000000000,"state":"active","ping":53},{"user_id":485,"name":"nescoceo","steam_id":76561198040801160,"connected_time":2793000000000,"state":"active","ping":59},{"user_id":441,"name":"bigman1","steam_id":76561198050225055,"connected_time":5023000000000,"state":"active","ping":59},{"user_id":494,"name":"Army Ant12","steam_id":76561198121029250,"connected_time":1723000000000,"state":"active","ping":45},{"user_id":518,"name":"rice white","steam_id":76561198320732910,"connected_time":506000000000,"state":"active","ping":123},{"user_id":464,"name":"Some Dood on the Internet","steam_id":76561198054657687,"connected_time":3794000000000,"state":"active","ping":82},{"user_id":462,"name":"Google","steam_id":76561198857237473,"connected_time":3906000000000,"state":"active","ping":88},{"user_id":512,"name":"Goob","steam_id":76561198256918638,"connected_time":820000000000,"state":"active","ping":45},{"user_id":465,"name":"King of the birds","steam_id":76561198891152046,"connected_time":3737000000000,"state":"active","ping":135},{"user_id":496,"name":"MA BEETS","steam_id":76561198168981607,"connected_time":1697000000000,"state":"active","ping":68},{"user_id":433,"name":"Bashful Boi (0w0)","steam_id":76561198297585031,"connected_time":5756000000000,"state":"active","ping":63},{"user_id":520,"name":"Chan","steam_id":76561198319764811,"connected_time":345000000000,"state":"active","ping":81},{"user_id":513,"name":"master_minion","steam_id":76561198170693990,"connected_time":766000000000,"state":"active","ping":60},{"user_id":515,"name":"Cornsauce","steam_id":76561198085007342,"connected_time":618000000000,"state":"active","ping":46},{"user_id":516,"name":"schwicky shwag","steam_id":76561198037921140,"connected_time":607000000000,"state":"active","ping":51},{"user_id":500,"name":"PunishedCrab","steam_id":76561198079650017,"connected_time":1562000000000,"state":"active","ping":71},{"user_id":501,"name":"Rusty","steam_id":76561198055585129,"connected_time":1545000000000,"state":"active","ping":61},{"user_id":502,"name":"DORATHEEXPLORER","steam_id":76561198124773931,"connected_time":1540000000000,"state":"active","ping":62},{"user_id":517,"name":"spookyturtle","steam_id":76561198079622859,"connected_time":576000000000,"state":"active","ping":63}]},{"server_id":19,"name":"Uncletopia | San Francisco | 3 | Stopwatch Beta","name_short":"sfo-3","host":"sfo-1.us.uncletopia.com","port":27035,"enabled":true,"region":"us-west","cc":"us","latitude":37.77397,"longitude":-122.4313,"reserved":0,"last_update":"0001-01-01T00:00:00Z","name_a2s":"Uncletopia | San Francisco | 3 | Stopwatch Beta","protocol":17,"map":"koth_viaduct","folder":"tf","game":"Team Fortress","app_id":440,"player_count":0,"max_players":24,"Bots":0,"server_type":"Dedicated","server_os":"Linux","password":true,"vac":true,"version":"7757534","steam_id":85568392924742824,"keywords":["cp","nocrits","nodmgspread","uncletopia"],"game_id":440,"stv_port":27036,"stv_name":"Uncletopia | San Francisco | 3 | Stopwatch Beta | STV","players":null},{"server_id":20,"name":"Uncletopia | San Francisco | 4 | Community","name_short":"sfo-4","host":"sfo-1.us.uncletopia.com","port":27045,"enabled":true,"region":"us-west","cc":"us","latitude":37.77397,"longitude":-122.4313,"reserved":0,"last_update":"0001-01-01T00:00:00Z","name_a2s":"Uncletopia | San Francisco | 4 | Community","protocol":17,"map":"workshop/rd_asteroid_redux_b1.ugc2154902912","folder":"tf","game":"Team Fortress","app_id":440,"player_count":0,"max_players":24,"Bots":0,"server_type":"Dedicated","server_os":"Linux","password":true,"vac":true,"version":"7757534","steam_id":85568392924742826,"keywords":["beta","nocrits","nodmgspread","rd","uncletopia"],"game_id":440,"stv_port":27046,"stv_name":"Uncletopia | San Francisco | 4 | Community | STV","players":null},{"server_id":141,"name":"Uncletopia | Sydney | 1 | All Maps","name_short":"syd-1","host":"syd-1.au.uncletopia.com","port":27015,"enabled":true,"region":"au","cc":"au","latitude":-33.865143,"longitude":151.2099,"reserved":0,"last_update":"0001-01-01T00:00:00Z","name_a2s":"Uncletopia | Sydney | 1 | All Maps","protocol":17,"map":"koth_lakeside_final","folder":"tf","game":"Team Fortress","app_id":440,"player_count":0,"max_players":24,"Bots":0,"server_type":"Dedicated","server_os":"Linux","password":true,"vac":true,"version":"7757534","steam_id":85568392924470001,"keywords":["cp","nocrits","nodmgspread","uncletopia"],"game_id":440,"stv_port":27016,"stv_name":"Uncletopia | Sydney | 1 | All Maps | STV","players":null},{"server_id":123,"name":"Uncletopia | Sydney | 2 | All Maps","name_short":"syd-2","host":"syd-1.au.uncletopia.com","port":27025,"enabled":true,"region":"au","cc":"au","latitude":-33.865143,"longitude":151.2099,"reserved":0,"last_update":"0001-01-01T00:00:00Z","name_a2s":"Uncletopia | Sydney | 2 | All Maps","protocol":17,"map":"pl_snowycoast","folder":"tf","game":"Team Fortress","app_id":440,"player_count":24,"max_players":24,"Bots":0,"server_type":"Dedicated","server_os":"Linux","password":true,"vac":true,"version":"7757534","steam_id":85568392924470002,"keywords":["nocrits","nodmgspread","payload","uncletopia"],"game_id":440,"stv_port":27026,"stv_name":"Uncletopia | Sydney | 2 | All Maps | STV","players":[{"user_id":280,"name":"EpicGuy4227","steam_id":76561198094132328,"connected_time":3633000000000,"state":"active","ping":53},{"user_id":331,"name":"Xp3 Lex","steam_id":76561198195478589,"connected_time":392000000000,"state":"active","ping":61},{"user_id":309,"name":"Neep","steam_id":76561198391424737,"connected_time":2066000000000,"state":"active","ping":60},{"user_id":322,"name":"clout","steam_id":76561198073310502,"connected_time":1051000000000,"state":"active","ping":69},{"user_id":326,"name":"Tofu","steam_id":76561198025637573,"connected_time":739000000000,"state":"active","ping":27},{"user_id":335,"name":"A fine gentlemann","steam_id":76561198108179408,"connected_time":91000000000,"state":"active","ping":100},{"user_id":325,"name":"strong pottery W","steam_id":76561198076598436,"connected_time":805000000000,"state":"active","ping":60},{"user_id":282,"name":"Lobarté","steam_id":76561198090116136,"connected_time":3562000000000,"state":"active","ping":58},{"user_id":316,"name":"jim :)","steam_id":76561198127508905,"connected_time":1741000000000,"state":"active","ping":36},{"user_id":327,"name":"👣","steam_id":76561198216065131,"connected_time":642000000000,"state":"active","ping":64},{"user_id":320,"name":"-Ech0-","steam_id":76561199121536801,"connected_time":1322000000000,"state":"active","ping":54},{"user_id":313,"name":"Sleepy","steam_id":76561198799503871,"connected_time":1786000000000,"state":"active","ping":39},{"user_id":317,"name":"pigeon","steam_id":76561198135180841,"connected_time":1686000000000,"state":"active","ping":55},{"user_id":319,"name":"Google Chrome","steam_id":76561198042064910,"connected_time":1383000000000,"state":"active","ping":43},{"user_id":338,"name":"FIX","steam_id":76561197995157189,"connected_time":38000000000,"state":"active","ping":51},{"user_id":297,"name":"john fitzgerald kennedy","steam_id":76561198998542066,"connected_time":2918000000000,"state":"active","ping":61},{"user_id":329,"name":"Saker","steam_id":76561198044795783,"connected_time":489000000000,"state":"active","ping":45},{"user_id":332,"name":"sweet","steam_id":76561198075311236,"connected_time":365000000000,"state":"active","ping":48},{"user_id":308,"name":"Trins","steam_id":76561198040922808,"connected_time":2258000000000,"state":"active","ping":57},{"user_id":245,"name":"justifiedly delirious person","steam_id":76561198340730741,"connected_time":5675000000000,"state":"active","ping":61},{"user_id":296,"name":"Bing Soy","steam_id":76561198057093383,"connected_time":3125000000000,"state":"active","ping":54},{"user_id":260,"name":"Cup","steam_id":76561198038485845,"connected_time":4649000000000,"state":"active","ping":30},{"user_id":334,"name":"Piklz","steam_id":76561198043384139,"connected_time":217000000000,"state":"active","ping":57},{"user_id":337,"name":"shirt without the r","steam_id":76561199071810220,"connected_time":89000000000,"state":"spawning","ping":104}]},{"server_id":395,"name":"Uncletopia | Sydney | 3 | All Maps","name_short":"syd-3","host":"syd-1.au.uncletopia.com","port":27035,"enabled":true,"region":"au","cc":"au","latitude":-33.865143,"longitude":151.2099,"reserved":0,"last_update":"0001-01-01T00:00:00Z","name_a2s":"Uncletopia | Sydney | 3 | All Maps","protocol":17,"map":"koth_viaduct","folder":"tf","game":"Team Fortress","app_id":440,"player_count":8,"max_players":24,"Bots":0,"server_type":"Dedicated","server_os":"Linux","password":true,"vac":true,"version":"7757534","steam_id":85568392925194467,"keywords":["cp","nocrits","nodmgspread","uncletopia"],"game_id":440,"stv_port":27036,"stv_name":"Uncletopia | Sydney | 3 | All Maps | STV","players":[{"user_id":67,"name":"is_epic_stickman","steam_id":76561199078297170,"connected_time":1616000000000,"state":"active","ping":77},{"user_id":68,"name":"PanMan","steam_id":76561199027390996,"connected_time":1182000000000,"state":"active","ping":60},{"user_id":69,"name":"Del Davis","steam_id":76561199365669004,"connected_time":451000000000,"state":"active","ping":52},{"user_id":70,"name":"um erm uh","steam_id":76561198838208913,"connected_time":392000000000,"state":"active","ping":69},{"user_id":72,"name":"blaze","steam_id":76561198241303512,"connected_time":111000000000,"state":"active","ping":55},{"user_id":73,"name":"Bolzen","steam_id":76561198046093482,"connected_time":77000000000,"state":"active","ping":62},{"user_id":74,"name":"Doctor Ashley","steam_id":76561198216094064,"connected_time":55000000000,"state":"active","ping":65},{"user_id":57,"name":"ree boy","steam_id":76561199024189820,"connected_time":4459000000000,"state":"active","ping":90}]},{"server_id":396,"name":"Uncletopia | Sydney | 4 | All Maps","name_short":"syd-4","host":"syd-1.au.uncletopia.com","port":27045,"enabled":true,"region":"au","cc":"au","latitude":-33.865143,"longitude":151.2099,"reserved":0,"last_update":"0001-01-01T00:00:00Z","name_a2s":"Uncletopia | Sydney | 4 | All Maps","protocol":17,"map":"koth_highpass","folder":"tf","game":"Team Fortress","app_id":440,"player_count":0,"max_players":24,"Bots":0,"server_type":"Dedicated","server_os":"Linux","password":true,"vac":true,"version":"7757534","steam_id":85568392925397958,"keywords":["cp","nocrits","nodmgspread","uncletopia"],"game_id":440,"stv_port":27046,"stv_name":"Uncletopia | Sydney | 4 | All Maps | STV","players":null},{"server_id":58,"name":"Uncletopia | Sydney | 5 | Stopwatch Beta","name_short":"syd-5","host":"syd-1.au.uncletopia.com","port":27055,"enabled":true,"region":"au","cc":"au","latitude":-33.865143,"longitude":151.2099,"reserved":0,"last_update":"0001-01-01T00:00:00Z","name_a2s":"Uncletopia | Sydney | 5 | Stopwatch Beta","protocol":17,"map":"pl_barnblitz","folder":"tf","game":"Team Fortress","app_id":440,"player_count":0,"max_players":24,"Bots":0,"server_type":"Dedicated","server_os":"Linux","password":true,"vac":true,"version":"7757534","steam_id":85568392925397959,"keywords":["nocrits","nodmgspread","payload","uncletopia"],"game_id":440,"stv_port":27056,"stv_name":"Uncletopia | Sydney | 5 | Stopwatch Beta | STV","players":null},{"server_id":59,"name":"Uncletopia | Sydney | 6 | Community","name_short":"syd-6","host":"syd-1.au.uncletopia.com","port":27065,"enabled":true,"region":"au","cc":"au","latitude":-33.865143,"longitude":151.2099,"reserved":0,"last_update":"0001-01-01T00:00:00Z","name_a2s":"Uncletopia | Sydney | 6 | Community","protocol":17,"map":"workshop/cp_logjam_rc12.ugc454812035","folder":"tf","game":"Team Fortress","app_id":440,"player_count":0,"max_players":24,"Bots":0,"server_type":"Dedicated","server_os":"Linux","password":true,"vac":true,"version":"7757534","steam_id":85568392925397960,"keywords":["cp","nocrits","nodmgspread","uncletopia"],"game_id":440,"stv_port":27066,"stv_name":"Uncletopia | Sydney | 6 | Community | STV","players":null},{"server_id":49,"name":"Uncletopia | Warsaw | 1 | All Maps","name_short":"waw-1","host":"waw-1.pl.uncletopia.com","port":27015,"enabled":true,"region":"eu","cc":"pl","latitude":52.2297,"longitude":21.017532,"reserved":0,"last_update":"0001-01-01T00:00:00Z","name_a2s":"","protocol":0,"map":"","folder":"","game":"","app_id":0,"player_count":0,"max_players":0,"Bots":0,"server_type":"","server_os":"","password":false,"vac":false,"version":"","steam_id":0,"keywords":null,"game_id":0,"stv_port":0,"stv_name":"","players":null},{"server_id":50,"name":"Uncletopia | Warsaw | 2 | All Maps","name_short":"waw-2","host":"waw-1.pl.uncletopia.com","port":27025,"enabled":true,"region":"eu","cc":"pl","latitude":52.2297,"longitude":21.017532,"reserved":0,"last_update":"0001-01-01T00:00:00Z","name_a2s":"Uncletopia | Warsaw | 2 | All Maps","protocol":17,"map":"cp_snakewater_final1","folder":"tf","game":"Team Fortress","app_id":440,"player_count":0,"max_players":24,"Bots":0,"server_type":"Dedicated","server_os":"Linux","password":true,"vac":true,"version":"7757534","steam_id":85568392925397851,"keywords":["cp","nocrits","nodmgspread","uncletopia"],"game_id":440,"stv_port":27026,"stv_name":"Uncletopia | Warsaw | 2 | All Maps | STV","players":null},{"server_id":51,"name":"Uncletopia | Warsaw | 3 | All Maps","name_short":"waw-3","host":"waw-1.pl.uncletopia.com","port":27035,"enabled":true,"region":"eu","cc":"pl","latitude":52.2297,"longitude":21.017532,"reserved":0,"last_update":"0001-01-01T00:00:00Z","name_a2s":"Uncletopia | Warsaw | 3 | All Maps","protocol":17,"map":"cp_sunshine","folder":"tf","game":"Team Fortress","app_id":440,"player_count":0,"max_players":24,"Bots":0,"server_type":"Dedicated","server_os":"Linux","password":true,"vac":true,"version":"7757534","steam_id":85568392925397852,"keywords":["cp","nocrits","nodmgspread","uncletopia"],"game_id":440,"stv_port":27036,"stv_name":"Uncletopia | Warsaw | 3 | All Maps | STV","players":null},{"server_id":52,"name":"Uncletopia | Warsaw | 4 | All Maps","name_short":"waw-4","host":"waw-1.pl.uncletopia.com","port":27045,"enabled":true,"region":"eu","cc":"pl","latitude":52.2297,"longitude":21.017532,"reserved":0,"last_update":"0001-01-01T00:00:00Z","name_a2s":"Uncletopia | Warsaw | 4 | All Maps","protocol":17,"map":"pl_borneo","folder":"tf","game":"Team Fortress","app_id":440,"player_count":0,"max_players":24,"Bots":0,"server_type":"Dedicated","server_os":"Linux","password":true,"vac":true,"version":"7757534","steam_id":85568392925397853,"keywords":["nocrits","nodmgspread","payload","uncletopia"],"game_id":440,"stv_port":27046,"stv_name":"Uncletopia | Warsaw | 4 | All Maps | STV","players":null},{"server_id":53,"name":"Uncletopia | Warsaw | 5 | Stopwatch Beta","name_short":"waw-5","host":"waw-1.pl.uncletopia.com","port":27055,"enabled":true,"region":"eu","cc":"pl","latitude":52.2297,"longitude":21.017532,"reserved":0,"last_update":"0001-01-01T00:00:00Z","name_a2s":"Uncletopia | Warsaw | 5 | Stopwatch Beta","protocol":17,"map":"pl_upward","folder":"tf","game":"Team Fortress","app_id":440,"player_count":0,"max_players":24,"Bots":0,"server_type":"Dedicated","server_os":"Linux","password":true,"vac":true,"version":"7757534","steam_id":85568392925397854,"keywords":["nocrits","nodmgspread","payload","uncletopia"],"game_id":440,"stv_port":27056,"stv_name":"Uncletopia | Warsaw | 5 | Stopwatch Beta | STV","players":null},{"server_id":54,"name":"Uncletopia | Warsaw | 6 | Community","name_short":"waw-6","host":"waw-1.pl.uncletopia.com","port":27065,"enabled":true,"region":"eu","cc":"pl","latitude":52.2297,"longitude":21.017532,"reserved":0,"last_update":"0001-01-01T00:00:00Z","name_a2s":"Uncletopia | Warsaw | 6 | Community","protocol":17,"map":"pl_barnblitz","folder":"tf","game":"Team Fortress","app_id":440,"player_count":0,"max_players":24,"Bots":0,"server_type":"Dedicated","server_os":"Linux","password":true,"vac":true,"version":"7757534","steam_id":85568392925397856,"keywords":["nocrits","nodmgspread","payload","uncletopia"],"game_id":440,"stv_port":27066,"stv_name":"Uncletopia | Warsaw | 6 | Community | STV","players":null}]}