{"status":true,"message":"","result":[{"server_id":9,"name":"Uncletopia | Atlanta | 1 | All Maps","name_short":"atl-1","host":"atl-1.us.uncletopia.com","port":27015,"enabled":true,"region":"us-east","cc":"us","latitude":33.753746,"longitude":-84.38633,"reserved":0,"last_update":"0001-01-01T00:00:00Z","name_a2s":"Uncletopia | Atlanta | 1 | All Maps","protocol":17,"map":"pl_upward","folder":"tf","game":"Team Fortress","app_id":440,"player_count":24,"max_players":24,"Bots":0,"server_type":"Dedicated","server_os":"Linux","password":true,"vac":true,"version":"7757534","steam_id":85568392924469982,"keywords":["nocrits","nodmgspread","payload","uncletopia"],"game_id":440,"stv_port":27016,"stv_name":"Uncletopia | Atlanta | 1 | All Maps | STV","players":[{"user_id":301,"name":"Pulp Free Fiction","steam_id":76561198095396514,"connected_time":660000000000,"state":"active","ping":68},{"user_id":242,"name":"SparkStorm","steam_id":76561198095817025,"connected_time":4230000000000,"state":"active","ping":34},{"user_id":287,"name":"Dynamo","steam_id":76561198057875639,"connected_time":1581000000000,"state":"active","ping":105},{"user_id":289,"name":"thomasdee725!!!","steam_id":76561199189526173,"connected_time":1495000000000,"state":"active","ping":93},{"user_id":274,"name":"Dreszerg","steam_id":76561198838757422,"connected_time":2221000000000,"state":"active","ping":78},{"user_id":282,"name":"Furious George","steam_id":76561198405111646,"connected_time":1945000000000,"state":"active","ping":115},{"user_id":292,"name":"Just PYE","steam_id":76561199439622967,"connected_time":1051000000000,"state":"active","ping":83},{"user_id":307,"name":"metal pipe","steam_id":76561198849461209,"connected_time":166000000000,"state":"active","ping":93},{"user_id":275,"name":"Cloud","steam_id":76561198954987128,"connected_time":2221000000000,"state":"active","ping":51},{"user_id":285,"name":"Mince_CantDRAW","steam_id":76561199456345008,"connected_time":1869000000000,"state":"active","ping":114},{"user_id":302,"name":"Intro Bonito","steam_id":76561198119478838,"connected_time":411000000000,"state":"active","ping":53},{"user_id":297,"name":"Winter the Witchie","steam_id":76561198151971178,"connected_time":916000000000,"state":"active","ping":84},{"user_id":279,"name":"xX_HimboSwallower_Xx","steam_id":76561198016029965,"connected_time":2016000000000,"state":"active","ping":68},{"user_id":291,"name":"Ashes!","steam_id":76561197998475441,"connected_time":1077000000000,"state":"active","ping":77},{"user_id":273,"name":"HarryjusttHarry","steam_id":76561198982810452,"connected_time":2250000000000,"state":"active","ping":79},{"user_id":171,"name":"ATL 1 | Save your wifi","steam_id":76561198286147372,"connected_time":10606000000000,"state":"active","ping":51},{"user_id":168,"name":"Wren","steam_id":76561198071109787,"connected_time":11556000000000,"state":"active","ping":88},{"user_id":290,"name":"Vote for Foundry","steam_id":76561198140517330,"connected_time":1488000000000,"state":"active","ping":98},{"user_id":254,"name":"xiii","steam_id":76561198079416036,"connected_time":3959000000000,"state":"active","ping":85},{"user_id":303,"name":"Lil hog pocket #1","steam_id":76561198968337022,"connected_time":410000000000,"state":"active","ping":56},{"user_id":237,"name":"fortnite.jimmy.2014","steam_id":76561199177672325,"connected_time":4689000000000,"state":"active","ping":45},{"user_id":300,"name":"ƐՌѴƳ","steam_id":76561198099470277,"connected_time":672000000000,"state":"active","ping":69},{"user_id":252,"name":"porfer","steam_id":76561199118049168,"connected_time":4001000000000,"state":"active","ping":111},{"user_id":257,"name":"freyja #LetsEat","steam_id":76561198249206656,"connected_time":3493000000000,"state":"active","ping":85}]},{"server_id":104,"name":"Uncletopia | Atlanta | 2 | All Maps","name_short":"atl-2","host":"atl-1.us.uncletopia.com","port":27025,"enabled":true,"region":"us-east","cc":"us","latitude":33.753746,"longitude":-84.38633,"reserved":0,"last_update":"0001-01-01T00:00:00Z","name_a2s":"Uncletopia | Atlanta | 2 | All Maps","protocol":17,"map":"cp_powerhouse","folder":"tf","game":"Team Fortress","app_id":440,"player_count":24,"max_players":24,"Bots":0,"server_type":"Dedicated","server_os":"Linux","password":true,"vac":true,"version":"7757534","steam_id":85568392924469983,"keywords":["cp","nocrits","nodmgspread","uncletopia"],"game_id":440,"stv_port":27026,"stv_name":"Uncletopia | Atlanta | 2 | All Maps | STV","players":[{"user_id":201,"name":"SciFurLycan","steam_id":76561198809333252,"connected_time":576000000000,"state":"active","ping":69},{"user_id":58,"name":"Mike Charlie","steam_id":76561199470538309,"connected_time":10559000000000,"state":"active","ping":78},{"user_id":183,"name":"drdoofus123","steam_id":76561198016826181,"connected_time":1265000000000,"state":"active","ping":63},{"user_id":196,"name":"Broken Cereal√","steam_id":76561198087489795,"connected_time":923000000000,"state":"active","ping":60},{"user_id":200,"name":"ArrowOmega","steam_id":76561198079364917,"connected_time":612000000000,"state":"active","ping":62},{"user_id":158,"name":"nft airshotter","steam_id":76561198158137522,"connected_time":2917000000000,"state":"active","ping":45},{"user_id":186,"name":"Walmart Employee","steam_id":76561198840373909,"connected_time":1217000000000,"state":"active","ping":74},{"user_id":102,"name":"sex (real)","steam_id":76561198396414319,"connected_time":6829000000000,"state":"active","ping":112},{"user_id":207,"name":"EpicGamer48484","steam_id":76561199230935031,"connected_time":117000000000,"state":"active","ping":86},{"user_id":188,"name":"Doc","steam_id":76561198014548140,"connected_time":1207000000000,"state":"active","ping":119},{"user_id":206,"name":"Gary Budussy","steam_id":76561197969793969,"connected_time":165000000000,"state":"active","ping":71},{"user_id":202,"name":"warscout101bro","steam_id":76561198813489938,"connected_time":432000000000,"state":"active","ping":111},{"user_id":191,"name":"Larrys","steam_id":76561198010205693,"connected_time":1180000000000,"state":"active","ping":71},{"user_id":192,"name":"Coult","steam_id":76561198025913944,"connected_time":1174000000000,"state":"active","ping":152},{"user_id":197,"name":"RANDALL","steam_id":76561198026734458,"connected_time":906000000000,"state":"active","ping":63},{"user_id":166,"name":"Atomik","steam_id":76561199070549800,"connected_time":2837000000000,"state":"active","ping":57},{"user_id":193,"name":"Gene","steam_id":76561197989409721,"connected_time":1171000000000,"state":"active","ping":75},{"user_id":179,"name":"Demoman With One Joke","steam_id":76561197993467034,"connected_time":1670000000000,"state":"active","ping":75},{"user_id":171,"name":"gardener","steam_id":76561199013705323,"connected_time":2395000000000,"state":"active","ping":74},{"user_id":199,"name":"nav","steam_id":76561198872608266,"connected_time":657000000000,"state":"active","ping":78},{"user_id":204,"name":"GodandTitans","steam_id":76561198070070155,"connected_time":319000000000,"state":"active","ping":104},{"user_id":194,"name":"Beef","steam_id":76561198019013312,"connected_time":1171000000000,"state":"active","ping":87},{"user_id":195,"name":"ark","steam_id":76561198041066271,"connected_time":1142000000000,"state":"active","ping":92},{"user_id":205,"name":"Sea Raider","steam_id":76561198055654064,"connected_time":215000000000,"state":"active","ping":104}]},{"server_id":400,"name":"Uncletopia | Atlanta | 3 | Community","name_short":"atl-3","host":"atl-1.us.uncletopia.com","port":27035,"enabled":true,"region":"us-east","cc":"us","latitude":33.753746,"longitude":-84.38633,"reserved":0,"last_update":"0001-01-01T00:00:00Z","name_a2s":"Uncletopia | Atlanta | 3 | Community","protocol":17,"map":"workshop/cp_kalinka_rc6a.ugc1272700588","folder":"tf","game":"Team Fortress","app_id":440,"player_count":0,"max_players":24,"Bots":0,"server_type":"Dedicated","server_os":"Linux","password":true,"vac":true,"version":"7757534","steam_id":85568392924515187,"keywords":["cp","nocrits","nodmgspread","uncletopia"],"game_id":440,"stv_port":27036,"stv_name":"Uncletopia | Atlanta | 3 | Community | STV","players":null},{"server_id":401,"name":"Uncletopia | Atlanta | 4 | No Payload","name_short":"atl-4","host":"atl-1.us.uncletopia.com","port":27045,"enabled":true,"region":"us-east","cc":"us","latitude":33.753746,"longitude":-84.38633,"reserved":0,"last_update":"0001-01-01T00:00:00Z","name_a2s":"","protocol":0,"map":"","folder":"","game":"","app_id":0,"player_count":0,"max_players":0,"Bots":0,"server_type":"","server_os":"","password":false,"vac":false,"version":"","steam_id":0,"keywords":null,"game_id":0,"stv_port":0,"stv_name":"","players":null},{"server_id":2,"name":"Uncletopia | Chicago | 1 | All Maps","name_short":"chi-1","host":"chi-1.us.uncletopia.com","port":27015,"enabled":true,"region":"us-central","cc":"us","latitude":41.881832,"longitude":-87.62318,"reserved":0,"last_update":"0001-01-01T00:00:00Z","name_a2s":"Uncletopia | Chicago | 1 | All Maps","protocol":17,"map":"pl_upward","folder":"tf","game":"Team Fortress","app_id":440,"player_count":24,"max_players":24,"Bots":0,"server_type":"Dedicated","server_os":"Linux","password":true,"vac":true,"version":"7757534","steam_id":85568392924469984,"keywords":["nocrits","nodmgspread","payload","uncletopia"],"game_id":440,"stv_port":27016,"stv_name":"Uncletopia | Chicago | 1 | All Maps | STV","players":[{"user_id":241,"name":"Creamster","steam_id":76561198828624384,"connected_time":257000000000,"state":"active","ping":116},{"user_id":247,"name":"Shtupid","steam_id":76561198842691655,"connected_time":172000000000,"state":"active","ping":88},{"user_id":242,"name":"twitch.tv/kegaman_","steam_id":76561198043632775,"connected_time":252000000000,"state":"active","ping":100},{"user_id":243,"name":"fasterbum","steam_id":76561198142577444,"connected_time":251000000000,"state":"active","ping":54},{"user_id":217,"name":"Name","steam_id":76561199111748012,"connected_time":2591000000000,"state":"active","ping":69},{"user_id":199,"name":"fatphobic (unless ass)","steam_id":76561197996908579,"connected_time":3958000000000,"state":"active","ping":71},{"user_id":238,"name":"wakeupbdot","steam_id":76561198160786631,"connected_time":471000000000,"state":"active","ping":95},{"user_id":248,"name":"The Domb Loid","steam_id":76561198295791203,"connected_time":116000000000,"state":"active","ping":59},{"user_id":237,"name":"newt","steam_id":76561198964101426,"connected_time":1041000000000,"state":"active","ping":54},{"user_id":220,"name":"FiddyFoMike","steam_id":76561198057072581,"connected_time":2407000000000,"state":"active","ping":92},{"user_id":244,"name":"01","steam_id":76561198025437192,"connected_time":248000000000,"state":"active","ping":91},{"user_id":245,"name":"for lore reasons","steam_id":76561198083345384,"connected_time":246000000000,"state":"active","ping":81},{"user_id":223,"name":"Bitblock","steam_id":76561198359772017,"connected_time":1937000000000,"state":"active","ping":105},{"user_id":190,"name":"asbestos","steam_id":76561198079178866,"connected_time":4734000000000,"state":"active","ping":68},{"user_id":246,"name":"INSIDIOUS321|T.I.D.K","steam_id":76561198828302846,"connected_time":230000000000,"state":"active","ping":80},{"user_id":230,"name":"Lynx181","steam_id":76561198090949585,"connected_time":1406000000000,"state":"active","ping":46},{"user_id":177,"name":"Ringo x Seiran","steam_id":76561198357437908,"connected_time":5697000000000,"state":"active","ping":63},{"user_id":240,"name":"the_Qcumber","steam_id":76561199152515819,"connected_time":302000000000,"state":"active","ping":164},{"user_id":239,"name":"Isildur","steam_id":76561198125947844,"connected_time":463000000000,"state":"active","ping":95},{"user_id":221,"name":"Lia_Rein","steam_id":76561198151569597,"connected_time":2353000000000,"state":"active","ping":149},{"user_id":205,"name":"money getting 1 percenter","steam_id":76561198012796388,"connected_time":3526000000000,"state":"active","ping":54},{"user_id":181,"name":"Mixomin","steam_id":76561198295061570,"connected_time":5247000000000,"state":"active","ping":59},{"user_id":171,"name":"Training Arc","steam_id":76561198038832034,"connected_time":6469000000000,"state":"active","ping":105},{"user_id":215,"name":"popfulmail","steam_id":76561198865971290,"connected_time":2617000000000,"state":"active","ping":106}]},{"server_id":106,"name":"Uncletopia | Chicago | 2 | All Maps","name_short":"chi-2","host":"chi-1.us.uncletopia.com","port":27025,"enabled":true,"region":"us-central","cc":"us","latitude":41.881832,"longitude":-87.62318,"reserved":0,"last_update":"0001-01-01T00:00:00Z","name_a2s":"Uncletopia | Chicago | 2 | All Maps","protocol":17,"map":"pl_barnblitz","folder":"tf","game":"Team Fortress","app_id":440,"player_count":24,"max_players":24,"Bots":0,"server_type":"Dedicated","server_os":"Linux","password":true,"vac":true,"version":"7757534","steam_id":85568392924469985,"keywords":["nocrits","nodmgspread","payload","uncletopia"],"game_id":440,"stv_port":27026,"stv_name":"Uncletopia | Chicago | 2 | All Maps | STV","players":[{"user_id":202,"name":"Maybe","steam_id":76561198268304564,"connected_time":1461000000000,"state":"active","ping":74},{"user_id":183,"name":"Doubting Dave","steam_id":76561198066410749,"connected_time":1970000000000,"state":"active","ping":76},{"user_id":205,"name":"threethree","steam_id":76561198177354155,"connected_time":922000000000,"state":"active","ping":64},{"user_id":213,"name":"Blargh","steam_id":76561198044095816,"connected_time":497000000000,"state":"active","ping":70},{"user_id":180,"name":"Tony Pajamas","steam_id":76561198102299438,"connected_time":2454000000000,"state":"active","ping":56},{"user_id":209,"name":"Lost","steam_id":76561198093713427,"connected_time":652000000000,"state":"active","ping":60},{"user_id":214,"name":"Sacrificial Wormy","steam_id":76561198054539200,"connected_time":474000000000,"state":"active","ping":87},{"user_id":215,"name":"rat eater","steam_id":76561199216874750,"connected_time":471000000000,"state":"active","ping":57},{"user_id":198,"name":"gumbort","steam_id":76561199161322235,"connected_time":1633000000000,"state":"active","ping":63},{"user_id":210,"name":"hud7on","steam_id":76561198185811389,"connected_time":647000000000,"state":"active","ping":73},{"user_id":151,"name":"Smoker Lung","steam_id":76561198077167395,"connected_time":5101000000000,"state":"active","ping":46},{"user_id":211,"name":"I THINK COOLSVILLE SUCKS","steam_id":76561198066855998,"connected_time":608000000000,"state":"active","ping":90},{"user_id":208,"name":"Motreir","steam_id":76561198151717946,"connected_time":795000000000,"state":"active","ping":77},{"user_id":131,"name":"R-Bison Loyalist","steam_id":76561198032259680,"connected_time":5330000000000,"state":"active","ping":77},{"user_id":216,"name":"Donnie Oats","steam_id":76561198091111592,"connected_time":426000000000,"state":"active","ping":64},{"user_id":190,"name":"t.tv/ibbKitty ∑:3","steam_id":76561198110858518,"connected_time":1864000000000,"state":"active","ping":60},{"user_id":217,"name":"Mmmmm Bricks","steam_id":76561198199627909,"connected_time":425000000000,"state":"active","ping":59},{"user_id":191,"name":"clamchowder.clarence1989","steam_id":76561198070923665,"connected_time":1855000000000,"state":"active","ping":85},{"user_id":218,"name":"Sam","steam_id":76561198079393512,"connected_time":421000000000,"state":"active","ping":81},{"user_id":222,"name":"Majami","steam_id":76561198054365738,"connected_time":83000000000,"state":"active","ping":163},{"user_id":192,"name":"ChebJeb","steam_id":76561198981377081,"connected_time":1817000000000,"state":"active","ping":83},{"user_id":212,"name":"George","steam_id":76561198020046873,"connected_time":577000000000,"state":"active","ping":64},{"user_id":221,"name":"silver_lama","steam_id":76561198101132894,"connected_time":367000000000,"state":"active","ping":99},{"user_id":179,"name":"Eviscerator","steam_id":76561197980073637,"connected_time":2646000000000,"state":"active","ping":74}]},{"server_id":402,"name":"Uncletopia | Chicago | 3 | All Maps","name_short":"chi-3","host":"chi-1.us.uncletopia.com","port":27035,"enabled":true,"region":"us-central","cc":"us","latitude":41.881832,"longitude":-87.62318,"reserved":0,"last_update":"0001-01-01T00:00:00Z","name_a2s":"Uncletopia | Chicago | 3 | All Maps","protocol":17,"map":"pl_upward","folder":"tf","game":"Team Fortress","app_id":440,"player_count":24,"max_players":24,"Bots":0,"server_type":"Dedicated","server_os":"Linux","password":true,"vac":true,"version":"7757534","steam_id":85568392924515191,"keywords":["nocrits","nodmgspread","payload","uncletopia"],"game_id":440,"stv_port":27036,"stv_name":"Uncletopia | Chicago | 3 | All Maps | STV","players":[{"user_id":67,"name":"yes, i am on controller","steam_id":76561198977523626,"connected_time":1187000000000,"state":"active","ping":58},{"user_id":61,"name":"Monday Morning","steam_id":76561198993933309,"connected_time":1555000000000,"state":"active","ping":201},{"user_id":49,"name":"Griffin","steam_id":76561198159339442,"connected_time":2839000000000,"state":"active","ping":60},{"user_id":70,"name":"Mug Moment Gaming","steam_id":76561198233098136,"connected_time":772000000000,"state":"active","ping":54},{"user_id":18,"name":"ORANGE","steam_id":76561198000401769,"connected_time":3926000000000,"state":"active","ping":92},{"user_id":19,"name":"BLU3","steam_id":76561198059652670,"connected_time":3915000000000,"state":"active","ping":92},{"user_id":21,"name":"Dreamzapp","steam_id":76561199084936632,"connected_time":3745000000000,"state":"active","ping":120},{"user_id":65,"name":"Doctobob","steam_id":76561198095283669,"connected_time":1229000000000,"state":"active","ping":80},{"user_id":55,"name":"Gock","steam_id":76561198197045587,"connected_time":1819000000000,"state":"active","ping":90},{"user_id":24,"name":"Pain007R1","steam_id":76561198216606992,"connected_time":3658000000000,"state":"active","ping":169},{"user_id":56,"name":"vareh","steam_id":76561197993190926,"connected_time":1805000000000,"state":"active","ping":108},{"user_id":75,"name":"drwwby","steam_id":76561198067741339,"connected_time":292000000000,"state":"active","ping":60},{"user_id":74,"name":"Space Cops","steam_id":76561198032414253,"connected_time":458000000000,"state":"active","ping":72},{"user_id":28,"name":"Xii","steam_id":76561198860209947,"connected_time":3571000000000,"state":"active","ping":49},{"user_id":29,"name":"FoodzAreGoodz","steam_id":76561198309262052,"connected_time":3541000000000,"state":"active","ping":103},{"user_id":30,"name":"Carlos Spartan","steam_id":76561198362047478,"connected_time":3513000000000,"state":"active","ping":97},{"user_id":58,"name":"Cthulwho?","steam_id":76561198165550810,"connected_time":1738000000000,"state":"active","ping":60},{"user_id":71,"name":"diversity hire","steam_id":76561198022967929,"connected_time":735000000000,"state":"active","ping":89},{"user_id":76,"name":"Flak Maniak","steam_id":76561198005653808,"connected_time":227000000000,"state":"active","ping":76},{"user_id":72,"name":"DungeonKeeper","steam_id":76561199475507686,"connected_time":720000000000,"state":"active","ping":78},{"user_id":73,"name":"dirty30","steam_id":76561198021226566,"connected_time":589000000000,"state":"active","ping":91},{"user_id":41,"name":"Javaris Jamar Javarison-Lamar","steam_id":76561198146951387,"connected_time":3262000000000,"state":"active","ping":81},{"user_id":42,"name":"Buttfuck Armstrong","steam_id":76561198075547905,"connected_time":3255000000000,"state":"active","ping":64},{"user_id":60,"name":"tomas","steam_id":76561198982129074,"connected_time":1689000000000,"state":"active","ping":182}]},{"server_id":403,"name":"Uncletopia | Chicago | 4 | All Maps","name_short":"chi-4","host":"chi-1.us.uncletopia.com","port":27045,"enabled":true,"region":"us-central","cc":"us","latitude":41.881832,"longitude":-87.62318,"reserved":0,"last_update":"0001-01-01T00:00:00Z","name_a2s":"Uncletopia | Chicago | 4 | All Maps","protocol":17,"map":"pl_swiftwater_final1","folder":"tf","game":"Team Fortress","app_id":440,"player_count":24,"max_players":24,"Bots":0,"server_type":"Dedicated","server_os":"Linux","password":true,"vac":true,"version":"7757534","steam_id":85568392924515193,"keywords":["nocrits","nodmgspread","payload","uncletopia"],"game_id":440,"stv_port":27046,"stv_name":"Uncletopia | Chicago | 4 | All Maps | STV","players":[{"user_id":205,"name":"rfed","steam_id":76561198194789617,"connected_time":541000000000,"state":"active","ping":77},{"user_id":128,"name":"Kami","steam_id":76561199039249396,"connected_time":2216000000000,"state":"active","ping":77},{"user_id":147,"name":"Mrakan","steam_id":76561199239780769,"connected_time":1797000000000,"state":"active","ping":149},{"user_id":154,"name":"Cyber Glitch","steam_id":76561199277801462,"connected_time":1523000000000,"state":"active","ping":78},{"user_id":211,"name":"Zoot","steam_id":76561198121944243,"connected_time":348000000000,"state":"active","ping":83},{"user_id":203,"name":"0vii","steam_id":76561198117084598,"connected_time":543000000000,"state":"active","ping":69},{"user_id":204,"name":"Coco","steam_id":76561198213155565,"connected_time":541000000000,"state":"active","ping":73},{"user_id":206,"name":"sam LFT","steam_id":76561198080951077,"connected_time":537000000000,"state":"active","ping":82},{"user_id":213,"name":"boii","steam_id":76561199267535506,"connected_time":153000000000,"state":"active","ping":78},{"user_id":56,"name":"volta","steam_id":76561199214283884,"connected_time":7043000000000,"state":"active","ping":109},{"user_id":108,"name":"Squatchamo","steam_id":76561198012968239,"connected_time":2866000000000,"state":"active","ping":75},{"user_id":162,"name":"hud_saytext_time 0","steam_id":76561198010327228,"connected_time":1336000000000,"state":"active","ping":167},{"user_id":98,"name":"Lightatex","steam_id":76561199068097196,"connected_time":3359000000000,"state":"active","ping":59},{"user_id":208,"name":"Bitter","steam_id":76561198146532457,"connected_time":504000000000,"state":"active","ping":94},{"user_id":143,"name":"The Woman Disrespecter","steam_id":76561198964373968,"connected_time":1952000000000,"state":"active","ping":101},{"user_id":151,"name":"i dont have a gimmick RN, sorry","steam_id":76561199181433764,"connected_time":1627000000000,"state":"active","ping":82},{"user_id":166,"name":"Styx","steam_id":76561198158334494,"connected_time":1266000000000,"state":"active","ping":52},{"user_id":201,"name":"cavelife","steam_id":76561198091369097,"connected_time":568000000000,"state":"active","ping":76},{"user_id":100,"name":"waffen's kid","steam_id":76561197972661434,"connected_time":3278000000000,"state":"active","ping":85},{"user_id":96,"name":"４０ ＦＰＳ","steam_id":76561198272394965,"connected_time":3867000000000,"state":"active","ping":135},{"user_id":172,"name":"HollyBlocky","steam_id":76561198030156100,"connected_time":1195000000000,"state":"active","ping":70},{"user_id":209,"name":"Achtan","steam_id":76561198078189844,"connected_time":500000000000,"state":"active","ping":56},{"user_id":210,"name":"Aclexu","steam_id":76561198927090219,"connected_time":499000000000,"state":"active","ping":106},{"user_id":139,"name":"igotmail","steam_id":76561198070631899,"connected_time":2027000000000,"state":"active","ping":69}]},{"server_id":36,"name":"Uncletopia | Chicago | 5 | All Maps","name_short":"chi-5","host":"chi-2.us.uncletopia.com","port":27015,"enabled":true,"region":"us-central","cc":"us","latitude":41.881832,"longitude":-87.62318,"reserved":0,"last_update":"0001-01-01T00:00:00Z","name_a2s":"Uncletopia | Chicago | 5 | All Maps","protocol":17,"map":"pl_snowycoast","folder":"tf","game":"Team Fortress","app_id":440,"player_count":24,"max_players":24,"Bots":0,"server_type":"Dedicated","server_os":"Linux","password":true,"vac":true,"version":"7757534","steam_id":85568392924866362,"keywords":["nocrits","nodmgspread","payload","uncletopia"],"game_id":440,"stv_port":27016,"stv_name":"Uncletopia | Chicago | 5 | All Maps | STV","players":[{"user_id":112,"name":"capeeKo","steam_id":76561197970346623,"connected_time":490000000000,"state":"active","ping":93},{"user_id":68,"name":"Furry Femboy","steam_id":76561198123549027,"connected_time":3441000000000,"state":"active","ping":60},{"user_id":69,"name":"whats an egg","steam_id":76561198991039398,"connected_time":3170000000000,"state":"active","ping":71},{"user_id":98,"name":"reverendericd","steam_id":76561198086173783,"connected_time":1700000000000,"state":"active","ping":76},{"user_id":12,"name":"Fresh Lychee","steam_id":76561198045399559,"connected_time":5901000000000,"state":"active","ping":58},{"user_id":13,"name":"The World's Softest Sandwich","steam_id":76561198015577707,"connected_time":5898000000000,"state":"active","ping":76},{"user_id":99,"name":"BoopBerry","steam_id":76561198871571711,"connected_time":1697000000000,"state":"active","ping":66},{"user_id":61,"name":"Dive(z)","steam_id":76561198140843225,"connected_time":4058000000000,"state":"active","ping":119},{"user_id":71,"name":"Sirpiggy","steam_id":76561198294985303,"connected_time":3149000000000,"state":"active","ping":95},{"user_id":81,"name":".jpg","steam_id":76561198137237377,"connected_time":2734000000000,"state":"active","ping":72},{"user_id":94,"name":"Skullypoo","steam_id":76561198067912022,"connected_time":2295000000000,"state":"active","ping":62},{"user_id":104,"name":"lifted tater","steam_id":76561198404564240,"connected_time":1287000000000,"state":"active","ping":62},{"user_id":63,"name":"yellow ᗜˬᗜ","steam_id":76561198366474647,"connected_time":3779000000000,"state":"active","ping":92},{"user_id":109,"name":"TheSnipersHat","steam_id":76561198057684066,"connected_time":721000000000,"state":"active","ping":59},{"user_id":102,"name":"Bean (real)","steam_id":76561199215043894,"connected_time":1635000000000,"state":"active","ping":86},{"user_id":62,"name":"Goober","steam_id":76561198988863807,"connected_time":3955000000000,"state":"active","ping":77},{"user_id":90,"name":"Inkmix (F2P","steam_id":76561198854070384,"connected_time":2401000000000,"state":"active","ping":110},{"user_id":28,"name":"anhedonia","steam_id":76561198014557455,"connected_time":5485000000000,"state":"active","ping":62},{"user_id":103,"name":"Jimmy","steam_id":76561198133680783,"connected_time":1463000000000,"state":"active","ping":162},{"user_id":110,"name":"Professional Clicker","steam_id":76561199210799428,"connected_time":651000000000,"state":"active","ping":60},{"user_id":111,"name":"Diesel of Alrest","steam_id":76561198143450491,"connected_time":613000000000,"state":"active","ping":72},{"user_id":107,"name":"loyaldandan0764","steam_id":76561199231020424,"connected_time":1057000000000,"state":"active","ping":114},{"user_id":85,"name":"Jackal","steam_id":76561199126774713,"connected_time":2646000000000,"state":"active","ping":73},{"user_id":118,"name":"Fossil","steam_id":76561199199494199,"connected_time":120000000000,"state":"active","ping":68}]},{"server_id":37,"name":"Uncletopia | Chicago | 6 | All Maps","name_short":"chi-6","host":"chi-2.us.uncletopia.com","port":27025,"enabled":true,"region":"us-central","cc":"us","latitude":41.881832,"longitude":-87.62318,"reserved":0,"last_update":"0001-01-01T00:00:00Z","name_a2s":"Uncletopia | Chicago | 6 | All Maps","protocol":17,"map":"koth_lakeside_final","folder":"tf","game":"Team Fortress","app_id":440,"player_count":0,"max_players":24,"Bots":0,"server_type":"Dedicated","server_os":"Linux","password":true,"vac":true,"version":"7757534","steam_id":85568392924866363,"keywords":["cp","nocrits","nodmgspread","uncletopia"],"game_id":440,"stv_port":27026,"stv_name":"Uncletopia | Chicago | 6 | All Maps | STV","players":null},{"server_id":38,"name":"Uncletopia | Chicago | 7 | Stopwatch Beta","name_short":"chi-7","host":"chi-2.us.uncletopia.com","port":27035,"enabled":true,"region":"us-central","cc":"us","latitude":41.881832,"longitude":-87.62318,"reserved":0,"last_update":"0001-01-01T00:00:00Z","name_a2s":"Uncletopia | Chicago | 7 | Stopwatch Beta","protocol":17,"map":"pl_barnblitz","folder":"tf","game":"Team Fortress","app_id":440,"player_count":0,"max_players":24,"Bots":0,"server_type":"Dedicated","server_os":"Linux","password":true,"vac":true,"version":"7757534","steam_id":85568392924866364,"keywords":["nocrits","nodmgspread","payload","uncletopia"],"game_id":440,"stv_port":27036,"stv_name":"Uncletopia | Chicago | 7 | Stopwatch Beta | STV","players":null},{"server_id":39,"name":"Uncletopia | Chicago | 8 | Community","name_short":"chi-8","host":"chi-2.us.uncletopia.com","port":27045,"enabled":true,"region":"us-central","cc":"us","latitude":41.881832,"longitude":-87.62318,"reserved":0,"last_update":"0001-01-01T00:00:00Z","name_a2s":"Uncletopia | Chicago | 8 | Community","protocol":17,"map":"workshop/koth_slaughter_rc1.ugc1712845210","folder":"tf","game":"Team Fortress","app_id":440,"player_count":0,"max_players":24,"Bots":0,"server_type":"Dedicated","server_os":"Linux","password":true,"vac":true,"version":"7757534","steam_id":85568392924866365,"keywords":["cp","nocrits","nodmgspread","uncletopia"],"game_id":440,"stv_port":27046,"stv_name":"Uncletopia | Chicago | 8 | Community | STV","players":null},{"server_id":8,"name":"Uncletopia | Dallas | 1 | All Maps","name_short":"dal-1","host":"dal-1.us.uncletopia.com","port":27015,"enabled":true,"region":"us-central","cc":"us","latitude":32.779167,"longitude":-96.80889,"reserved":0,"last_update":"0001-01-01T00:00:00Z","name_a2s":"Uncletopia | Dallas | 1 | All Maps","protocol":17,"map":"cp_powerhouse","folder":"tf","game":"Team Fortress","app_id":440,"player_count":24,"max_players":24,"Bots":0,"server_type":"Dedicated","server_os":"Linux","password":true,"vac":true,"version":"7757534","steam_id":85568392924469986,"keywords":["cp","nocrits","nodmgspread","uncletopia"],"game_id":440,"stv_port":27016,"stv_name":"Uncletopia | Dallas | 1 | All Maps | STV","players":[{"user_id":308,"name":"ehkeh logo","steam_id":76561198067844419,"connected_time":3175000000000,"state":"active","ping":98},{"user_id":319,"name":"YouAreReadingThis","steam_id":76561198367831600,"connected_time":1491000000000,"state":"active","ping":91},{"user_id":334,"name":"PhoneI","steam_id":76561199218194540,"connected_time":225000000000,"state":"active","ping":85},{"user_id":327,"name":"Tommy Provolone","steam_id":76561198170062377,"connected_time":1209000000000,"state":"active","ping":66},{"user_id":335,"name":"Icarus the legend","steam_id":76561199013250091,"connected_time":202000000000,"state":"active","ping":48},{"user_id":317,"name":"Bingus","steam_id":76561199225054690,"connected_time":1529000000000,"state":"active","ping":75},{"user_id":298,"name":"Succubus_Lilith","steam_id":76561198240578890,"connected_time":4219000000000,"state":"active","ping":46},{"user_id":304,"name":"RC Cola ®","steam_id":76561198165074941,"connected_time":3727000000000,"state":"active","ping":63},{"user_id":329,"name":"Archane","steam_id":76561198367500389,"connected_time":798000000000,"state":"active","ping":91},{"user_id":331,"name":"Pepe Silvia","steam_id":76561198071775268,"connected_time":652000000000,"state":"active","ping":84},{"user_id":336,"name":"CashBin","steam_id":76561199382865598,"connected_time":162000000000,"state":"active","ping":60},{"user_id":285,"name":"Kyle H. McCloud","steam_id":76561198025050432,"connected_time":5464000000000,"state":"active","ping":86},{"user_id":337,"name":"Skill Saw Stan","steam_id":76561199013064727,"connected_time":146000000000,"state":"active","ping":105},{"user_id":300,"name":"Rose","steam_id":76561198955581861,"connected_time":4185000000000,"state":"active","ping":85},{"user_id":284,"name":"Coolshroomish","steam_id":76561199109440924,"connected_time":5536000000000,"state":"active","ping":106},{"user_id":318,"name":"blakejack226","steam_id":76561199128917566,"connected_time":1525000000000,"state":"active","ping":82},{"user_id":339,"name":"Peace Sells...But Who`s Buying?","steam_id":76561198063156236,"connected_time":66000000000,"state":"active","ping":186},{"user_id":323,"name":"Unlock The Shock (She/They)","steam_id":76561198823616667,"connected_time":1445000000000,"state":"active","ping":94},{"user_id":322,"name":"mr.dog","steam_id":76561199305637990,"connected_time":1453000000000,"state":"active","ping":40},{"user_id":278,"name":"Gad","steam_id":76561198020792373,"connected_time":5641000000000,"state":"active","ping":60},{"user_id":313,"name":"Shamrock Shake Oct.10.2020 @8pm","steam_id":76561198833313201,"connected_time":2846000000000,"state":"active","ping":85},{"user_id":332,"name":"Kid B8","steam_id":76561198086764710,"connected_time":510000000000,"state":"active","ping":80},{"user_id":326,"name":"who is gavin?","steam_id":76561198069415057,"connected_time":1282000000000,"state":"active","ping":79},{"user_id":338,"name":"Bailster","steam_id":76561198091530428,"connected_time":104000000000,"state":"active","ping":45}]},{"server_id":108,"name":"Uncletopia | Dallas | 2 | All Maps","name_short":"dal-2","host":"dal-1.us.uncletopia.com","port":27025,"enabled":true,"region":"us-central","cc":"us","latitude":32.779167,"longitude":-96.80889,"reserved":0,"last_update":"0001-01-01T00:00:00Z","name_a2s":"Uncletopia | Dallas | 2 | All Maps","protocol":17,"map":"pl_borneo","folder":"tf","game":"Team Fortress","app_id":440,"player_count":24,"max_players":24,"Bots":0,"server_type":"Dedicated","server_os":"Linux","password":true,"vac":true,"version":"7757534","steam_id":85568392924469988,"keywords":["nocrits","nodmgspread","payload","uncletopia"],"game_id":440,"stv_port":27026,"stv_name":"Uncletopia | Dallas | 2 | All Maps | STV","players":[{"user_id":87,"name":"armpit fetishist","steam_id":76561199008452637,"connected_time":360000000000,"state":"active","ping":90},{"user_id":95,"name":"The Sydney Sleeper Itself","steam_id":76561198180251763,"connected_time":226000000000,"state":"active","ping":56},{"user_id":89,"name":"cringe","steam_id":76561198104086771,"connected_time":320000000000,"state":"active","ping":75},{"user_id":103,"name":"O Dog","steam_id":76561198133498912,"connected_time":68000000000,"state":"active","ping":76},{"user_id":80,"name":"Deltaco","steam_id":76561198094572694,"connected_time":1421000000000,"state":"active","ping":122},{"user_id":18,"name":"lynks disease no sound","steam_id":76561198043465434,"connected_time":4949000000000,"state":"active","ping":89},{"user_id":48,"name":"???","steam_id":76561198200155343,"connected_time":4071000000000,"state":"active","ping":41},{"user_id":65,"name":"chiswola","steam_id":76561198046920142,"connected_time":2643000000000,"state":"active","ping":94},{"user_id":91,"name":"Tlaloc","steam_id":76561198375215983,"connected_time":280000000000,"state":"active","ping":123},{"user_id":92,"name":"ShitpostShaman","steam_id":76561198063533972,"connected_time":275000000000,"state":"active","ping":89},{"user_id":83,"name":"münn","steam_id":76561198111147624,"connected_time":1025000000000,"state":"active","ping":73},{"user_id":59,"name":"ayecodex","steam_id":76561199477598858,"connected_time":2860000000000,"state":"active","ping":78},{"user_id":84,"name":"Drapph","steam_id":76561199384213314,"connected_time":984000000000,"state":"active","ping":86},{"user_id":93,"name":"Frost","steam_id":76561198083694664,"connected_time":263000000000,"state":"active","ping":75},{"user_id":52,"name":"Bandanadee","steam_id":76561199014194373,"connected_time":3296000000000,"state":"active","ping":100},{"user_id":102,"name":"A Shiny Meat Bicycle","steam_id":76561198358757709,"connected_time":114000000000,"state":"active","ping":86},{"user_id":96,"name":"buh","steam_id":76561198331978812,"connected_time":219000000000,"state":"active","ping":59},{"user_id":85,"name":"goon prime minster","steam_id":76561198059245735,"connected_time":449000000000,"state":"active","ping":66},{"user_id":97,"name":"cold","steam_id":76561199017901552,"connected_time":196000000000,"state":"active","ping":53},{"user_id":99,"name":"Doc_Eevee","steam_id":76561199289204820,"connected_time":177000000000,"state":"active","ping":65},{"user_id":41,"name":"Lolxdloldx","steam_id":76561198136887125,"connected_time":4378000000000,"state":"active","ping":81},{"user_id":100,"name":"Ellis","steam_id":76561198993634489,"connected_time":170000000000,"state":"active","ping":83},{"user_id":67,"name":"Xan Hathaway","steam_id":76561198069816677,"connected_time":2487000000000,"state":"active","ping":96},{"user_id":101,"name":"voidpuppy","steam_id":76561198799922000,"connected_time":168000000000,"state":"active","ping":77}]},{"server_id":5,"name":"Uncletopia | Frankfurt | 1 | All Maps","name_short":"frk-1","host":"frk-1.de.uncletopia.com","port":27015,"enabled":true,"region":"eu","cc":"de","latitude":50.110924,"longitude":8.682127,"reserved":0,"last_update":"0001-01-01T00:00:00Z","name_a2s":"Uncletopia | Frankfurt | 1 | All Maps","protocol":17,"map":"pl_swiftwater_final1","folder":"tf","game":"Team Fortress","app_id":440,"player_count":23,"max_players":24,"Bots":0,"server_type":"Dedicated","server_os":"Linux","password":true,"vac":true,"version":"7757534","steam_id":85568392924469989,"keywords":["nocrits","nodmgspread","payload","uncletopia"],"game_id":440,"stv_port":27016,"stv_name":"Uncletopia | Frankfurt | 1 | All Maps | STV","players":[{"user_id":614,"name":"mercurial","steam_id":76561198046227550,"connected_time":1672000000000,"state":"active","ping":68},{"user_id":578,"name":"Syll","steam_id":76561198040736202,"connected_time":2703000000000,"state":"active","ping":99},{"user_id":605,"name":"Grim","steam_id":76561198141464555,"connected_time":1894000000000,"state":"active","ping":71},{"user_id":627,"name":"Dope","steam_id":76561198318858892,"connected_time":768000000000,"state":"active","ping":69},{"user_id":606,"name":"Tegnerud","steam_id":76561198214185612,"connected_time":1892000000000,"state":"active","ping":75},{"user_id":630,"name":"MrFelixll","steam_id":76561198439292774,"connected_time":516000000000,"state":"active","ping":99},{"user_id":636,"name":"Michael","steam_id":76561198003146906,"connected_time":126000000000,"state":"active","ping":59},{"user_id":626,"name":"Kestrel","steam_id":76561198144033005,"connected_time":916000000000,"state":"active","ping":61},{"user_id":600,"name":"...jla","steam_id":76561198052435481,"connected_time":2192000000000,"state":"active","ping":63},{"user_id":635,"name":"ric_dances_mambo","steam_id":76561198010084548,"connected_time":161000000000,"state":"active","ping":88},{"user_id":637,"name":"Dictatorial Karelian","steam_id":76561198196736457,"connected_time":99000000000,"state":"active","ping":73},{"user_id":624,"name":"Kleiner Engel","steam_id":76561198009922500,"connected_time":1106000000000,"state":"active","ping":67},{"user_id":610,"name":"NT4Chan","steam_id":76561199482763562,"connected_time":1782000000000,"state":"active","ping":63},{"user_id":602,"name":"screenshot2020-25-09","steam_id":76561198255275650,"connected_time":2180000000000,"state":"active","ping":60},{"user_id":563,"name":"Penis Contortionist","steam_id":76561198073663784,"connected_time":4342000000000,"state":"active","ping":51},{"user_id":611,"name":"rock","steam_id":76561198093488870,"connected_time":1771000000000,"state":"active","ping":80},{"user_id":639,"name":"John Nuts","steam_id":76561199079951047,"connected_time":78000000000,"state":"active","ping":96},{"user_id":613,"name":"Sammeh","steam_id":76561198001926428,"connected_time":1730000000000,"state":"active","ping":74},{"user_id":640,"name":"Dr.Sees [F2P]","steam_id":76561199219233587,"connected_time":62000000000,"state":"active","ping":75},{"user_id":641,"name":"Dolcelatte","steam_id":76561198038501770,"connected_time":60000000000,"state":"active","ping":53},{"user_id":642,"name":"lvl. 50 honkler","steam_id":76561198061688660,"connected_time":58000000000,"state":"active","ping":110},{"user_id":632,"name":"PONCHO 90","steam_id":76561198412197820,"connected_time":419000000000,"state":"active","ping":88},{"user_id":618,"name":"Hetmanych","steam_id":76561198870926865,"connected_time":1545000000000,"state":"active","ping":51}]},{"server_id":110,"name":"Uncletopia | Frankfurt | 2 | All Maps","name_short":"frk-2","host":"frk-1.de.uncletopia.com","port":27025,"enabled":true,"region":"eu","cc":"de","latitude":50.110924,"longitude":8.682127,"reserved":0,"last_update":"0001-01-01T00:00:00Z","name_a2s":"Uncletopia | Frankfurt | 2 | All Maps","protocol":17,"map":"cp_dustbowl","folder":"tf","game":"Team Fortress","app_id":440,"player_count":0,"max_players":24,"Bots":0,"server_type":"Dedicated","server_os":"Linux","password":true,"vac":true,"version":"7757534","steam_id":85568392924469990,"keywords":["cp","nocrits","nodmgspread","uncletopia"],"game_id":440,"stv_port":27026,"stv_name":"Uncletopia | Frankfurt | 2 | All Maps | STV","players":null},{"server_id":308,"name":"Uncletopia | Frankfurt | 3 | All Maps","name_short":"frk-3","host":"frk-1.de.uncletopia.com","port":27035,"enabled":true,"region":"eu","cc":"de","latitude":50.110924,"longitude":8.682127,"reserved":0,"last_update":"0001-01-01T00:00:00Z","name_a2s":"Uncletopia | Frankfurt | 3 | All Maps","protocol":17,"map":"ctf_2fort","folder":"tf","game":"Team Fortress","app_id":440,"player_count":13,"max_players":24,"Bots":0,"server_type":"Dedicated","server_os":"Linux","password":true,"vac":true,"version":"7757534","steam_id":85568392924504274,"keywords":["ctf","nocrits","nodmgspread","uncletopia"],"game_id":440,"stv_port":27036,"stv_name":"Uncletopia | Frankfurt | 3 | All Maps | STV","players":[{"user_id":469,"name":"ungabunga","steam_id":76561198872044740,"connected_time":1533000000000,"state":"active","ping":60},{"user_id":452,"name":"frenk","steam_id":76561198081046098,"connected_time":2208000000000,"state":"active","ping":73},{"user_id":487,"name":"Duck","steam_id":76561198841587079,"connected_time":86000000000,"state":"spawning","ping":59},{"user_id":463,"name":"king251311","steam_id":76561199063310889,"connected_time":1803000000000,"state":"active","ping":82},{"user_id":488,"name":"Filleman","steam_id":76561198159386946,"connected_time":35000000000,"state":"spawning","ping":44},{"user_id":481,"name":"big beef","steam_id":76561198845046853,"connected_time":495000000000,"state":"active","ping":73},{"user_id":467,"name":"☁ Lou1smeister ☁","steam_id":76561198004032968,"connected_time":1584000000000,"state":"active","ping":61},{"user_id":459,"name":"Unipb","steam_id":76561198814061521,"connected_time":2026000000000,"state":"active","ping":136},{"user_id":461,"name":"Nyhde","steam_id":76561198012771416,"connected_time":1869000000000,"state":"active","ping":97},{"user_id":472,"name":"VORTEX(COMMS OPEN)","steam_id":76561199074746528,"connected_time":1496000000000,"state":"active","ping":59},{"user_id":450,"name":"[SQ UA] MartianDill","steam_id":76561198405382822,"connected_time":2469000000000,"state":"active","ping":86},{"user_id":480,"name":"Hattmannen","steam_id":76561198340884902,"connected_time":637000000000,"state":"active","ping":66},{"user_id":443,"name":"David \"Crash\" Murphy","steam_id":76561198292845505,"connected_time":3085000000000,"state":"active","ping":102}]},{"server_id":309,"name":"Uncletopia | Frankfurt | 4 | All Maps","name_short":"frk-4","host":"frk-1.de.uncletopia.com","port":27045,"enabled":true,"region":"eu","cc":"de","latitude":50.110924,"longitude":8.682127,"reserved":0,"last_update":"0001-01-01T00:00:00Z","name_a2s":"Uncletopia | Frankfurt | 4 | All Maps","protocol":17,"map":"pl_badwater","folder":"tf","game":"Team Fortress","app_id":440,"player_count":23,"max_players":24,"Bots":0,"server_type":"Dedicated","server_os":"Linux","password":true,"vac":true,"version":"7757534","steam_id":85568392924504275,"keywords":["nocrits","nodmgspread","payload","uncletopia"],"game_id":440,"stv_port":27046,"stv_name":"Uncletopia | Frankfurt | 4 | All Maps | STV","players":[{"user_id":73,"name":"skindiver376","steam_id":76561198056533071,"connected_time":234000000000,"state":"active","ping":59},{"user_id":59,"name":"Weed Soldier Gaming","steam_id":76561198150448445,"connected_time":603000000000,"state":"active","ping":59},{"user_id":77,"name":"Xriasp","steam_id":76561198104721321,"connected_time":36000000000,"state":"active","ping":66},{"user_id":72,"name":"誰かが見ている","steam_id":76561198834913692,"connected_time":322000000000,"state":"active","ping":72},{"user_id":41,"name":"mcjabba","steam_id":76561198019267806,"connected_time":1035000000000,"state":"active","ping":60},{"user_id":76,"name":"//Ascor","steam_id":76561198022241450,"connected_time":106000000000,"state":"active","ping":73},{"user_id":43,"name":"Spectral Sloth","steam_id":76561198170083139,"connected_time":940000000000,"state":"active","ping":87},{"user_id":60,"name":"Ricky Dicky Grimes","steam_id":76561198065506317,"connected_time":586000000000,"state":"active","ping":55},{"user_id":68,"name":"The tiniest boy","steam_id":76561198044165189,"connected_time":437000000000,"state":"active","ping":61},{"user_id":47,"name":"usia","steam_id":76561198120406679,"connected_time":858000000000,"state":"spawning","ping":91},{"user_id":48,"name":"Pokermonik","steam_id":76561198089491952,"connected_time":839000000000,"state":"spawning","ping":62},{"user_id":49,"name":"snorrbrod","steam_id":76561198142389396,"connected_time":817000000000,"state":"active","ping":64},{"user_id":61,"name":"El Texicano","steam_id":76561198053207411,"connected_time":585000000000,"state":"active","ping":176},{"user_id":51,"name":"Bobo","steam_id":76561198052308399,"connected_time":754000000000,"state":"spawning","ping":49},{"user_id":75,"name":"PeaFUNK3000","steam_id":76561198002294299,"connected_time":227000000000,"state":"active","ping":73},{"user_id":62,"name":"Tesla","steam_id":76561198378649144,"connected_time":559000000000,"state":"active","ping":61},{"user_id":69,"name":"Pershing[GER]","steam_id":76561197970330818,"connected_time":434000000000,"state":"active","ping":63},{"user_id":70,"name":"Sir Kiops","steam_id":76561198022769275,"connected_time":399000000000,"state":"active","ping":108},{"user_id":57,"name":"Ewelinka Zniszczenia","steam_id":76561198307374456,"connected_time":649000000000,"state":"active","ping":61},{"user_id":78,"name":"day","steam_id":76561198260265302,"connected_time":11000000000,"state":"active","ping":48},{"user_id":71,"name":"Edmost","steam_id":76561198090748165,"connected_time":378000000000,"state":"active","ping":63},{"user_id":65,"name":"SpaceCake","steam_id":76561198151394497,"connected_time":527000000000,"state":"active","ping":79},{"user_id":66,"name":"Hanni","steam_id":76561198090854482,"connected_time":512000000000,"state":"active","ping":94}]},{"server_id":310,"name":"Uncletopia | Frankfurt | 5 | All Maps","name_short":"frk-5","host":"frk-1.de.uncletopia.com","port":27055,"enabled":true,"region":"eu","cc":"de","latitude":50.110924,"longitude":8.682127,"reserved":0,"last_update":"0001-01-01T00:00:00Z","name_a2s":"Uncletopia | Frankfurt | 5 | All Maps","protocol":17,"map":"cp_dustbowl","folder":"tf","game":"Team Fortress","app_id":440,"player_count":19,"max_players":24,"Bots":0,"server_type":"Dedicated","server_os":"Linux","password":true,"vac":true,"version":"7757534","steam_id":85568392924504277,"keywords":["cp","nocrits","nodmgspread","uncletopia"],"game_id":440,"stv_port":27056,"stv_name":"Uncletopia | Frankfurt | 5 | All Maps | STV","players":[{"user_id":563,"name":"Maru","steam_id":76561198030931030,"connected_time":477000000000,"state":"active","ping":69},{"user_id":557,"name":"Birb mister","steam_id":76561199207235620,"connected_time":903000000000,"state":"active","ping":136},{"user_id":545,"name":"British Disapproval","steam_id":76561198001375260,"connected_time":1615000000000,"state":"active","ping":70},{"user_id":385,"name":"bigwish | bmod.tf","steam_id":76561197997859723,"connected_time":11158000000000,"state":"active","ping":104},{"user_id":559,"name":"twitch.tv/ofikoMazush1","steam_id":76561198149515082,"connected_time":577000000000,"state":"active","ping":69},{"user_id":569,"name":"Hazisher","steam_id":76561199244861836,"connected_time":154000000000,"state":"active","ping":115},{"user_id":495,"name":"goblinninja110","steam_id":76561198269159354,"connected_time":4563000000000,"state":"active","ping":65},{"user_id":571,"name":"bro wake up new exploit","steam_id":76561198845044956,"connected_time":110000000000,"state":"active","ping":73},{"user_id":573,"name":"Dooting","steam_id":76561199069121777,"connected_time":58000000000,"state":"active","ping":77},{"user_id":553,"name":"Pruff","steam_id":76561198377084417,"connected_time":1194000000000,"state":"active","ping":60},{"user_id":574,"name":"Arcticpyro","steam_id":76561198010708923,"connected_time":50000000000,"state":"active","ping":64},{"user_id":567,"name":"Barbiehunter #SaveTF2","steam_id":76561198071630928,"connected_time":239000000000,"state":"active","ping":55},{"user_id":575,"name":"Sirzen","steam_id":76561198170155434,"connected_time":43000000000,"state":"active","ping":57},{"user_id":551,"name":"Caliban","steam_id":76561197999696839,"connected_time":1274000000000,"state":"active","ping":104},{"user_id":560,"name":"Kurage","steam_id":76561198021221288,"connected_time":561000000000,"state":"active","ping":54},{"user_id":523,"name":"xTheDarkLight","steam_id":76561198239128298,"connected_time":3066000000000,"state":"active","ping":46},{"user_id":544,"name":"failwife","steam_id":76561198183999845,"connected_time":1685000000000,"state":"active","ping":68},{"user_id":555,"name":"Tre3","steam_id":76561198054795379,"connected_time":986000000000,"state":"active","ping":45},{"user_id":547,"name":"ScarredPixel123","steam_id":76561199165112703,"connected_time":1506000000000,"state":"active","ping":78}]},{"server_id":311,"name":"Uncletopia | Frankfurt | 6 | All Maps","name_short":"frk-6","host":"frk-1.de.uncletopia.com","port":27065,"enabled":true,"region":"eu","cc":"de","latitude":50.110924,"longitude":8.682127,"reserved":0,"last_update":"0001-01-01T00:00:00Z","name_a2s":"Uncletopia | Frankfurt | 6 | All Maps","protocol":17,"map":"cp_process_final","folder":"tf","game":"Team Fortress","app_id":440,"player_count":25,"max_players":24,"Bots":0,"server_type":"Dedicated","server_os":"Linux","password":true,"vac":true,"version":"7757534","steam_id":85568392924504278,"keywords":["cp","nocrits","nodmgspread","uncletopia"],"game_id":440,"stv_port":27066,"stv_name":"Uncletopia | Frankfurt | 6 | All Maps | STV","players":[{"user_id":619,"name":"M1rkus","steam_id":76561198171215447,"connected_time":111000000000,"state":"active","ping":63},{"user_id":534,"name":"StealthCat","steam_id":76561198068937412,"connected_time":3561000000000,"state":"active","ping":47},{"user_id":569,"name":"DaviK","steam_id":76561198246990590,"connected_time":1330000000000,"state":"active","ping":51},{"user_id":493,"name":"Ladi","steam_id":76561198047735194,"connected_time":6560000000000,"state":"active","ping":60},{"user_id":556,"name":"painting4","steam_id":76561198067554256,"connected_time":2045000000000,"state":"active","ping":62},{"user_id":581,"name":"kotamine","steam_id":76561198068907991,"connected_time":1133000000000,"state":"active","ping":69},{"user_id":565,"name":"Mi Manchi","steam_id":76561198171573129,"connected_time":1493000000000,"state":"active","ping":53},{"user_id":608,"name":"M0rph","steam_id":76561198127339176,"connected_time":438000000000,"state":"active","ping":58},{"user_id":584,"name":"Pootis penser","steam_id":76561198944032480,"connected_time":1063000000000,"state":"active","ping":93},{"user_id":573,"name":"Polech","steam_id":76561199187916824,"connected_time":1267000000000,"state":"active","ping":84},{"user_id":622,"name":"Day","steam_id":76561198346908503,"connected_time":43000000000,"state":"active","ping":126},{"user_id":574,"name":"mumbler","steam_id":76561197970641239,"connected_time":1266000000000,"state":"active","ping":51},{"user_id":523,"name":"Udinese Dion","steam_id":76561198067931573,"connected_time":4405000000000,"state":"active","ping":55},{"user_id":575,"name":"Castellan","steam_id":76561197994861142,"connected_time":1254000000000,"state":"active","ping":58},{"user_id":623,"name":"Wdfrodo","steam_id":76561198985647263,"connected_time":26000000000,"state":"spawning","ping":59},{"user_id":566,"name":"Platform666","steam_id":76561198314266851,"connected_time":1477000000000,"state":"active","ping":98},{"user_id":547,"name":"Zizman","steam_id":76561198446562910,"connected_time":2591000000000,"state":"active","ping":144},{"user_id":604,"name":"dimitrij_6ix_god","steam_id":76561199023275543,"connected_time":547000000000,"state":"active","ping":78},{"user_id":601,"name":"Klokov","steam_id":76561198240633534,"connected_time":647000000000,"state":"active","ping":74},{"user_id":540,"name":"Shork","steam_id":76561198130195469,"connected_time":3338000000000,"state":"active","ping":80},{"user_id":455,"name":"Jackriz","steam_id":76561198024882111,"connected_time":10149000000000,"state":"active","ping":75},{"user_id":538,"name":"strohkopf9","steam_id":76561198059349860,"connected_time":3500000000000,"state":"active","ping":70},{"user_id":549,"name":"Bajas","steam_id":76561198179339326,"connected_time":2514000000000,"state":"active","ping":85},{"user_id":550,"name":"mt","steam_id":76561197961319303,"connected_time":2502000000000,"state":"active","ping":59},{"user_id":607,"name":"The Shotgun","steam_id":76561198044008976,"connected_time":497000000000,"state":"active","ping":73}]},{"server_id":23,"name":"Uncletopia | Frankfurt | 7 | Stopwatch Beta","name_short":"frk-7","host":"frk-1.de.uncletopia.com","port":27075,"enabled":true,"region":"eu","cc":"de","latitude":50.110924,"longitude":8.682127,"reserved":0,"last_update":"0001-01-01T00:00:00Z","name_a2s":"Uncletopia | Frankfurt | 7 | Stopwatch Beta","protocol":17,"map":"workshop/koth_ramjam_rc1.ugc459778887","folder":"tf","game":"Team Fortress","app_id":440,"player_count":0,"max_players":24,"Bots":0,"server_type":"Dedicated","server_os":"Linux","password":true,"vac":true,"version":"7757534","steam_id":85568392924742827,"keywords":["cp","nocrits","nodmgspread","uncletopia"],"game_id":440,"stv_port":27076,"stv_name":"Uncletopia | Frankfurt | 7 | Stopwatch Beta | STV","players":null},{"server_id":24,"name":"Uncletopia | Frankfurt | 8 | Community","name_short":"frk-8","host":"frk-1.de.uncletopia.com","port":27085,"enabled":true,"region":"eu","cc":"de","latitude":50.110924,"longitude":8.682127,"reserved":0,"last_update":"0001-01-01T00:00:00Z","name_a2s":"Uncletopia | Frankfurt | 8 | Community","protocol":17,"map":"workshop/koth_product_final.ugc454272353","folder":"tf","game":"Team Fortress","app_id":440,"player_count":3,"max_players":24,"Bots":0,"server_type":"Dedicated","server_os":"Linux","password":true,"vac":true,"version":"7757534","steam_id":85568392924742828,"keywords":["cp","nocrits","nodmgspread","uncletopia"],"game_id":440,"stv_port":27086,"stv_name":"Uncletopia | Frankfurt | 8 | Community | STV","players":[{"user_id":40,"name":"fried","steam_id":76561198307522022,"connected_time":1988000000000,"state":"active","ping":48},{"user_id":41,"name":"Irbynx","steam_id":76561197980421195,"connected_time":1727000000000,"state":"active","ping":76},{"user_id":42,"name":"Truegr","steam_id":76561198811912339,"connected_time":1182000000000,"state":"active","ping":85}]},{"server_id":202,"name":"Uncletopia | Hong Kong | 1 | All Maps","name_short":"hgk-1","host":"hgk-1.hk.uncletopia.com","port":27015,"enabled":true,"region":"asia","cc":"hk","latitude":22.302711,"longitude":114.177216,"reserved":0,"last_update":"0001-01-01T00:00:00Z","name_a2s":"Uncletopia | Hong Kong | 1 | All Maps","protocol":17,"map":"koth_lakeside_final","folder":"tf","game":"Team Fortress","app_id":440,"player_count":0,"max_players":24,"Bots":0,"server_type":"Dedicated","server_os":"Linux","password":true,"vac":true,"version":"7757534","steam_id":85568392924494504,"keywords":["cp","nocrits","nodmgspread","uncletopia"],"game_id":440,"stv_port":27016,"stv_name":"Uncletopia | Hong Kong | 1 | All Maps | STV","players":null},{"server_id":1,"name":"Uncletopia | Los Angeles | 1 | All Maps","name_short":"lax-1","host":"lax-1.us.uncletopia.com","port":27015,"enabled":true,"region":"us-west","cc":"us","latitude":33.94279,"longitude":-118.41004,"reserved":0,"last_update":"0001-01-01T00:00:00Z","name_a2s":"Uncletopia | Los Angeles | 1 | All Maps","protocol":17,"map":"koth_lakeside_final","folder":"tf","game":"Team Fortress","app_id":440,"player_count":0,"max_players":24,"Bots":0,"server_type":"Dedicated","server_os":"Linux","password":true,"vac":true,"version":"7757534","steam_id":85568392924469991,"keywords":["cp","nocrits","nodmgspread","uncletopia"],"game_id":440,"stv_port":27016,"stv_name":"Uncletopia | Los Angeles | 1 | All Maps | STV","players":null},{"server_id":112,"name":"Uncletopia | Los Angeles | 2 | All Maps","name_short":"lax-2","host":"lax-1.us.uncletopia.com","port":27025,"enabled":true,"region":"us-west","cc":"us","latitude":33.94279,"longitude":-118.41004,"reserved":0,"last_update":"0001-01-01T00:00:00Z","name_a2s":"Uncletopia | Los Angeles | 2 | All Maps","protocol":17,"map":"pl_pier","folder":"tf","game":"Team Fortress","app_id":440,"player_count":22,"max_players":24,"Bots":0,"server_type":"Dedicated","server_os":"Linux","password":true,"vac":true,"version":"7757534","steam_id":85568392924469992,"keywords":["nocrits","nodmgspread","payload","uncletopia"],"game_id":440,"stv_port":27026,"stv_name":"Uncletopia | Los Angeles | 2 | All Maps | STV","players":[{"user_id":55,"name":"CBUR","steam_id":76561198437498149,"connected_time":113000000000,"state":"active","ping":63},{"user_id":16,"name":"computation","steam_id":76561198993552775,"connected_time":2699000000000,"state":"active","ping":99},{"user_id":29,"name":"⤣RASCAL","steam_id":76561198269038647,"connected_time":1739000000000,"state":"active","ping":60},{"user_id":8,"name":"APOTATO","steam_id":76561198118199858,"connected_time":3771000000000,"state":"active","ping":58},{"user_id":57,"name":"Mickmissión","steam_id":76561199133527421,"connected_time":37000000000,"state":"spawning","ping":44},{"user_id":15,"name":"Dude, error.","steam_id":76561198046705420,"connected_time":2713000000000,"state":"active","ping":105},{"user_id":54,"name":"noceof","steam_id":76561198043656816,"connected_time":306000000000,"state":"active","ping":155},{"user_id":17,"name":"rimbl","steam_id":76561198150137369,"connected_time":2629000000000,"state":"active","ping":46},{"user_id":14,"name":"AntiAnimus","steam_id":76561198039074432,"connected_time":2759000000000,"state":"active","ping":118},{"user_id":58,"name":"canakblasteran","steam_id":76561199472518822,"connected_time":30000000000,"state":"active","ping":62},{"user_id":53,"name":"Ronnie Pickering!","steam_id":76561198041842118,"connected_time":436000000000,"state":"active","ping":47},{"user_id":37,"name":"SilverMango","steam_id":76561198091243252,"connected_time":1625000000000,"state":"active","ping":58},{"user_id":23,"name":"AirMan121","steam_id":76561198042951349,"connected_time":2067000000000,"state":"active","ping":72},{"user_id":56,"name":"RagingBagon","steam_id":76561198255453127,"connected_time":76000000000,"state":"active","ping":39},{"user_id":46,"name":"Drive-By-Fish-Guy","steam_id":76561198105513652,"connected_time":1215000000000,"state":"active","ping":49},{"user_id":31,"name":"wrist game dumbin","steam_id":76561198247984828,"connected_time":1707000000000,"state":"active","ping":45},{"user_id":59,"name":"Blyats For Days","steam_id":76561198040462947,"connected_time":7000000000,"state":"spawning","ping":89},{"user_id":47,"name":"beefgames","steam_id":76561198355628238,"connected_time":1050000000000,"state":"active","ping":61},{"user_id":49,"name":"GLXy","steam_id":76561198207551544,"connected_time":697000000000,"state":"active","ping":81},{"user_id":35,"name":"Shoomsie","steam_id":76561198047405791,"connected_time":1663000000000,"state":"active","ping":132},{"user_id":36,"name":"D(b) Hell","steam_id":76561198067869016,"connected_time":1656000000000,"state":"active","ping":105},{"user_id":41,"name":"jaruz","steam_id":76561198159447698,"connected_time":1585000000000,"state":"active","ping":57}]},{"server_id":324,"name":"Uncletopia | Los Angeles | 3 | All Maps","name_short":"lax-3","host":"lax-1.us.uncletopia.com","port":27035,"enabled":true,"region":"us-west","cc":"us","latitude":33.94279,"longitude":-118.41004,"reserved":0,"last_update":"0001-01-01T00:00:00Z","name_a2s":"Uncletopia | Los Angeles | 3 | All Maps","protocol":17,"map":"pl_barnblitz","folder":"tf","game":"Team Fortress","app_id":440,"player_count":0,"max_players":24,"Bots":0,"server_type":"Dedicated","server_os":"Linux","password":true,"vac":true,"version":"7757534","steam_id":85568392924510198,"keywords":["nocrits","nodmgspread","payload","uncletopia"],"game_id":440,"stv_port":27036,"stv_name":"Uncletopia | Los Angeles | 3 | All Maps | STV","players":null},{"server_id":25,"name":"Uncletopia | Los Angeles | 4 | Stopwatch Beta","name_short":"lax-4","host":"lax-1.us.uncletopia.com","port":27045,"enabled":true,"region":"us-west","cc":"us","latitude":33.94279,"longitude":-118.41004,"reserved":0,"last_update":"0001-01-01T00:00:00Z","name_a2s":"Uncletopia | Los Angeles | 4 | Stopwatch Beta","protocol":17,"map":"pl_swiftwater_final1","folder":"tf","game":"Team Fortress","app_id":440,"player_count":0,"max_players":24,"Bots":0,"server_type":"Dedicated","server_os":"Linux","password":true,"vac":true,"version":"7757534","steam_id":85568392924510199,"keywords":["nocrits","nodmgspread","payload","uncletopia"],"game_id":440,"stv_port":27046,"stv_name":"Uncletopia | Los Angeles | 4 | Stopwatch Beta | STV","players":null},{"server_id":11,"name":"Uncletopia | London | 1 | All Maps","name_short":"lon-1","host":"lon-1.uk.uncletopia.com","port":27015,"enabled":true,"region":"eu","cc":"gb","latitude":51.509865,"longitude":-0.118092,"reserved":0,"last_update":"0001-01-01T00:00:00Z","name_a2s":"Uncletopia | London | 1 | All Maps","protocol":17,"map":"cp_dustbowl","folder":"tf","game":"Team Fortress","app_id":440,"player_count":24,"max_players":24,"Bots":0,"server_type":"Dedicated","server_os":"Linux","password":true,"vac":true,"version":"7757534","steam_id":85568392924367362,"keywords":["cp","nocrits","nodmgspread","uncletopia"],"game_id":440,"stv_port":27016,"stv_name":"Uncletopia | London | 1 | All Maps | STV","players":[{"user_id":621,"name":"quentu-","steam_id":76561198087457220,"connected_time":1196000000000,"state":"active","ping":67},{"user_id":615,"name":"♥ aura ♥","steam_id":76561198066258544,"connected_time":2201000000000,"state":"active","ping":65},{"user_id":630,"name":"Bonca","steam_id":76561198137503531,"connected_time":399000000000,"state":"active","ping":66},{"user_id":601,"name":"flappi","steam_id":76561198072892783,"connected_time":2813000000000,"state":"active","ping":59},{"user_id":598,"name":"Martyawesome23","steam_id":76561198236015392,"connected_time":3104000000000,"state":"active","ping":120},{"user_id":632,"name":"maybe blw.tf","steam_id":76561199028670732,"connected_time":342000000000,"state":"active","ping":65},{"user_id":554,"name":"Gorogaz","steam_id":76561198207157679,"connected_time":4941000000000,"state":"active","ping":69},{"user_id":608,"name":"Maintain a smooth ride","steam_id":76561199475596186,"connected_time":2321000000000,"state":"active","ping":120},{"user_id":623,"name":"Silent","steam_id":76561198344588858,"connected_time":974000000000,"state":"active","ping":57},{"user_id":620,"name":"Anonymous47007","steam_id":76561199005211417,"connected_time":1394000000000,"state":"active","ping":71},{"user_id":624,"name":"bottle knight","steam_id":76561199259786987,"connected_time":939000000000,"state":"active","ping":65},{"user_id":628,"name":"Bob D","steam_id":76561198026375630,"connected_time":670000000000,"state":"active","ping":47},{"user_id":589,"name":"Hive","steam_id":76561199480966681,"connected_time":3557000000000,"state":"active","ping":72},{"user_id":557,"name":"dec","steam_id":76561198009660168,"connected_time":4630000000000,"state":"active","ping":44},{"user_id":626,"name":"ijustsmokeandcry","steam_id":76561198044189114,"connected_time":924000000000,"state":"active","ping":65},{"user_id":636,"name":"Generic text","steam_id":76561198291962185,"connected_time":243000000000,"state":"active","ping":88},{"user_id":603,"name":"shooer! :D \u003e\u003c(((º\u003e","steam_id":76561198110531281,"connected_time":2729000000000,"state":"active","ping":73},{"user_id":633,"name":"Panique","steam_id":76561197993239675,"connected_time":341000000000,"state":"active","ping":56},{"user_id":634,"name":"Cheers Mate!","steam_id":76561198265192382,"connected_time":324000000000,"state":"active","ping":69},{"user_id":613,"name":"Blastrock64","steam_id":76561199008932704,"connected_time":2229000000000,"state":"active","ping":76},{"user_id":568,"name":"Kapitan Dagistan","steam_id":76561198010500289,"connected_time":4358000000000,"state":"active","ping":98},{"user_id":616,"name":"Dwevy","steam_id":76561198090379437,"connected_time":2144000000000,"state":"active","ping":55},{"user_id":597,"name":"twitch.tv/red_naxela","steam_id":76561197998803950,"connected_time":3219000000000,"state":"active","ping":67},{"user_id":631,"name":"ImBread","steam_id":76561198347426531,"connected_time":394000000000,"state":"active","ping":56}]},{"server_id":114,"name":"Uncletopia | London | 2 | All Maps","name_short":"lon-2","host":"lon-1.uk.uncletopia.com","port":27025,"enabled":true,"region":"eu","cc":"gb","latitude":51.509865,"longitude":-0.118092,"reserved":0,"last_update":"0001-01-01T00:00:00Z","name_a2s":"Uncletopia | London | 2 | All Maps","protocol":17,"map":"pl_badwater","folder":"tf","game":"Team Fortress","app_id":440,"player_count":24,"max_players":24,"Bots":0,"server_type":"Dedicated","server_os":"Linux","password":true,"vac":true,"version":"7757534","steam_id":85568392924470941,"keywords":["nocrits","nodmgspread","payload","uncletopia"],"game_id":440,"stv_port":27026,"stv_name":"Uncletopia | London | 2 | All Maps | STV","players":[{"user_id":373,"name":"B4R10N","steam_id":76561198047167954,"connected_time":6832000000000,"state":"active","ping":32},{"user_id":486,"name":"Mr. Mundy","steam_id":76561198132008918,"connected_time":1350000000000,"state":"active","ping":87},{"user_id":497,"name":"Pogmanson","steam_id":76561198919953445,"connected_time":238000000000,"state":"active","ping":41},{"user_id":466,"name":"Mr_Pulse_","steam_id":76561198095001602,"connected_time":2359000000000,"state":"active","ping":109},{"user_id":374,"name":"Theran_1","steam_id":76561198082232097,"connected_time":6826000000000,"state":"active","ping":71},{"user_id":483,"name":"cr #pizdaaim","steam_id":76561197993508562,"connected_time":1407000000000,"state":"active","ping":73},{"user_id":498,"name":"Ursy","steam_id":76561198045898897,"connected_time":232000000000,"state":"active","ping":84},{"user_id":493,"name":"Boil em mash em","steam_id":76561198026508026,"connected_time":889000000000,"state":"active","ping":71},{"user_id":499,"name":"Enforcer02","steam_id":76561197966045944,"connected_time":224000000000,"state":"active","ping":61},{"user_id":489,"name":"Een schaap zonder slaap","steam_id":76561198084808410,"connected_time":1192000000000,"state":"active","ping":61},{"user_id":504,"name":"benibachi","steam_id":76561198190816499,"connected_time":130000000000,"state":"active","ping":77},{"user_id":495,"name":"whyamialive","steam_id":76561199070008862,"connected_time":728000000000,"state":"active","ping":34},{"user_id":460,"name":"midlpsyzl47","steam_id":76561199475972637,"connected_time":2769000000000,"state":"active","ping":64},{"user_id":500,"name":"that's crazy","steam_id":76561198426604784,"connected_time":175000000000,"state":"active","ping":42},{"user_id":501,"name":"adam","steam_id":76561199024816404,"connected_time":163000000000,"state":"active","ping":78},{"user_id":470,"name":"wide appreciator","steam_id":76561198083286511,"connected_time":2286000000000,"state":"active","ping":45},{"user_id":502,"name":"Pyrolander","steam_id":76561198050785450,"connected_time":158000000000,"state":"active","ping":54},{"user_id":496,"name":"Spinyapickle","steam_id":76561198086653667,"connected_time":643000000000,"state":"active","ping":59},{"user_id":492,"name":"owlsie","steam_id":76561198094883280,"connected_time":1126000000000,"state":"active","ping":67},{"user_id":503,"name":"Ecy","steam_id":76561198110756682,"connected_time":145000000000,"state":"active","ping":51},{"user_id":507,"name":"dafydd","steam_id":76561198052200325,"connected_time":33000000000,"state":"active","ping":93},{"user_id":505,"name":"SCRAMMMBLED","steam_id":76561197998307746,"connected_time":120000000000,"state":"active","ping":75},{"user_id":407,"name":"zek","steam_id":76561198862763731,"connected_time":5945000000000,"state":"active","ping":63},{"user_id":506,"name":"wicked","steam_id":76561198164376035,"connected_time":117000000000,"state":"active","ping":75}]},{"server_id":320,"name":"Uncletopia | London | 3 | All Maps","name_short":"lon-3","host":"lon-1.uk.uncletopia.com","port":27035,"enabled":true,"region":"eu","cc":"gb","latitude":51.509865,"longitude":-0.118092,"reserved":0,"last_update":"0001-01-01T00:00:00Z","name_a2s":"Uncletopia | London | 3 | All Maps","protocol":17,"map":"koth_suijin","folder":"tf","game":"Team Fortress","app_id":440,"player_count":24,"max_players":24,"Bots":0,"server_type":"Dedicated","server_os":"Linux","password":true,"vac":true,"version":"7757534","steam_id":85568392924510192,"keywords":["cp","nocrits","nodmgspread","uncletopia"],"game_id":440,"stv_port":27036,"stv_name":"Uncletopia | London | 3 | All Maps | STV","players":[{"user_id":538,"name":"Shi 死","steam_id":76561199214163032,"connected_time":1551000000000,"state":"active","ping":93},{"user_id":544,"name":"Green tea","steam_id":76561198144761383,"connected_time":98000000000,"state":"active","ping":63},{"user_id":526,"name":"Jimmy","steam_id":76561199096698219,"connected_time":2552000000000,"state":"active","ping":85},{"user_id":529,"name":"Family Guy funny moments","steam_id":76561198170609049,"connected_time":2447000000000,"state":"active","ping":62},{"user_id":548,"name":"Noob_with_source","steam_id":76561198870362103,"connected_time":42000000000,"state":"active","ping":54},{"user_id":535,"name":"SyntaxLifeError","steam_id":76561198395366935,"connected_time":2008000000000,"state":"active","ping":62},{"user_id":549,"name":"BOBRV","steam_id":76561198156514651,"connected_time":12000000000,"state":"active","ping":90},{"user_id":528,"name":"juju ✨","steam_id":76561198966057450,"connected_time":2459000000000,"state":"active","ping":80},{"user_id":541,"name":"Woman (Real)","steam_id":76561199151823932,"connected_time":478000000000,"state":"active","ping":88},{"user_id":502,"name":"Dr. Mike","steam_id":76561197991205793,"connected_time":3459000000000,"state":"active","ping":80},{"user_id":498,"name":"Red Dynamite","steam_id":76561199073167935,"connected_time":3907000000000,"state":"active","ping":152},{"user_id":543,"name":"2am","steam_id":76561198202993883,"connected_time":135000000000,"state":"active","ping":58},{"user_id":539,"name":"etc","steam_id":76561197998394797,"connected_time":953000000000,"state":"active","ping":47},{"user_id":513,"name":"RLCrazyCat3","steam_id":76561197983757878,"connected_time":2907000000000,"state":"active","ping":62},{"user_id":537,"name":"MILKY","steam_id":76561199261620682,"connected_time":1835000000000,"state":"active","ping":78},{"user_id":540,"name":"YBOT554","steam_id":76561198836830645,"connected_time":725000000000,"state":"active","ping":43},{"user_id":550,"name":"oj","steam_id":76561198109074418,"connected_time":7000000000,"state":"spawning","ping":70},{"user_id":519,"name":"pizzaboob","steam_id":76561198097507847,"connected_time":2776000000000,"state":"active","ping":87},{"user_id":524,"name":"Dododid","steam_id":76561198159185258,"connected_time":2633000000000,"state":"active","ping":52},{"user_id":521,"name":"Atse","steam_id":76561199019974513,"connected_time":2766000000000,"state":"active","ping":112},{"user_id":522,"name":"Cheshireycat","steam_id":76561198067204908,"connected_time":2756000000000,"state":"active","ping":54},{"user_id":546,"name":"Mr_Spappy","steam_id":76561199106707541,"connected_time":74000000000,"state":"active","ping":62},{"user_id":547,"name":"Lil Ari","steam_id":76561198218178180,"connected_time":70000000000,"state":"active","ping":76}]},{"server_id":321,"name":"Uncletopia | London | 4 | All Maps","name_short":"lon-4","host":"lon-1.uk.uncletopia.com","port":27045,"enabled":true,"region":"eu","cc":"gb","latitude":51.509865,"longitude":-0.118092,"reserved":0,"last_update":"0001-01-01T00:00:00Z","name_a2s":"Uncletopia | London | 4 | All Maps","protocol":17,"map":"pl_borneo","folder":"tf","game":"Team Fortress","app_id":440,"player_count":22,"max_players":24,"Bots":0,"server_type":"Dedicated","server_os":"Linux","password":true,"vac":true,"version":"7757534","steam_id":85568392924510193,"keywords":["nocrits","nodmgspread","payload","uncletopia"],"game_id":440,"stv_port":27046,"stv_name":"Uncletopia | London | 4 | All Maps | STV","players":[{"user_id":19,"name":"pathboi carti","steam_id":76561198325760411,"connected_time":3729000000000,"state":"active","ping":102},{"user_id":25,"name":"\u003e:3","steam_id":76561198368312026,"connected_time":2775000000000,"state":"active","ping":58},{"user_id":21,"name":"RAAAAAAAAAAAAAGHHHHHHH!!!!!!!!!","steam_id":76561199019638461,"connected_time":3635000000000,"state":"active","ping":75},{"user_id":59,"name":"silicon based life form","steam_id":76561199127121346,"connected_time":519000000000,"state":"active","ping":57},{"user_id":47,"name":"Pear","steam_id":76561198254882979,"connected_time":1073000000000,"state":"active","ping":61},{"user_id":57,"name":"Dante (Burza)","steam_id":76561198838788284,"connected_time":655000000000,"state":"active","ping":112},{"user_id":33,"name":"Thors","steam_id":76561197968739075,"connected_time":1552000000000,"state":"active","ping":43},{"user_id":34,"name":"slightly drunk","steam_id":76561199184873889,"connected_time":1541000000000,"state":"active","ping":64},{"user_id":60,"name":"flange","steam_id":76561198040182692,"connected_time":500000000000,"state":"active","ping":40},{"user_id":37,"name":"shh... tiny carrots r sleeping","steam_id":76561198069649097,"connected_time":1312000000000,"state":"active","ping":46},{"user_id":42,"name":"hora","steam_id":76561198404470526,"connected_time":1204000000000,"state":"active","ping":97},{"user_id":39,"name":"lullers","steam_id":76561198119470669,"connected_time":1279000000000,"state":"active","ping":57},{"user_id":41,"name":"PinkRose","steam_id":76561198979035848,"connected_time":1219000000000,"state":"active","ping":72},{"user_id":61,"name":"Gryoss","steam_id":76561197999837111,"connected_time":341000000000,"state":"active","ping":108},{"user_id":44,"name":"Moonkey","steam_id":76561199013741389,"connected_time":1129000000000,"state":"active","ping":111},{"user_id":45,"name":"IONYCH","steam_id":76561198378350040,"connected_time":1122000000000,"state":"active","ping":84},{"user_id":48,"name":"SirSangoor","steam_id":76561198044462559,"connected_time":1071000000000,"state":"active","ping":116},{"user_id":49,"name":"Watermelon","steam_id":76561198058531305,"connected_time":1068000000000,"state":"active","ping":58},{"user_id":50,"name":"Rex Z'Beq","steam_id":76561199300590000,"connected_time":1064000000000,"state":"active","ping":81},{"user_id":51,"name":"Rad","steam_id":76561198001101843,"connected_time":1060000000000,"state":"active","ping":67},{"user_id":52,"name":"Perfectly Splendid","steam_id":76561198278348694,"connected_time":1038000000000,"state":"active","ping":114},{"user_id":53,"name":"Providence","steam_id":76561198003920270,"connected_time":1033000000000,"state":"active","ping":68}]},{"server_id":21,"name":"Uncletopia | London | 5 | All Maps","name_short":"lon-5","host":"lon-1.uk.uncletopia.com","port":27055,"enabled":true,"region":"eu","cc":"gb","latitude":51.509865,"longitude":-0.118092,"reserved":0,"last_update":"0001-01-01T00:00:00Z","name_a2s":"Uncletopia | London | 5 | All Maps","protocol":17,"map":"pl_barnblitz","folder":"tf","game":"Team Fortress","app_id":440,"player_count":23,"max_players":24,"Bots":0,"server_type":"Dedicated","server_os":"Linux","password":true,"vac":true,"version":"7757534","steam_id":85568392924742829,"keywords":["nocrits","nodmgspread","payload","uncletopia"],"game_id":440,"stv_port":27056,"stv_name":"Uncletopia | London | 5 | All Maps | STV","players":[{"user_id":262,"name":"Gnarville","steam_id":76561198006373329,"connected_time":6531000000000,"state":"active","ping":47},{"user_id":358,"name":"lord-carlos","steam_id":76561198025150761,"connected_time":482000000000,"state":"active","ping":64},{"user_id":317,"name":"REN","steam_id":76561198000596385,"connected_time":3700000000000,"state":"active","ping":81},{"user_id":361,"name":"CNTRL","steam_id":76561199125803827,"connected_time":389000000000,"state":"active","ping":76},{"user_id":341,"name":"jeff","steam_id":76561198272815746,"connected_time":1988000000000,"state":"active","ping":48},{"user_id":344,"name":"RyInc","steam_id":76561198874261643,"connected_time":1668000000000,"state":"active","ping":121},{"user_id":312,"name":"Doecheldorf","steam_id":76561198291628630,"connected_time":3786000000000,"state":"active","ping":69},{"user_id":302,"name":"A stripper","steam_id":76561198034865891,"connected_time":4050000000000,"state":"active","ping":69},{"user_id":359,"name":"AftiksPL #femboygaming","steam_id":76561198875182686,"connected_time":477000000000,"state":"active","ping":106},{"user_id":347,"name":"♛デNdRgBrLpRツ♛","steam_id":76561199046400708,"connected_time":1623000000000,"state":"active","ping":80},{"user_id":365,"name":"Labial","steam_id":76561198385163046,"connected_time":322000000000,"state":"active","ping":39},{"user_id":363,"name":"b ull","steam_id":76561199233979726,"connected_time":348000000000,"state":"active","ping":85},{"user_id":342,"name":"gediot#2","steam_id":76561199229899155,"connected_time":1982000000000,"state":"active","ping":30},{"user_id":356,"name":"Reprobus","steam_id":76561198332243756,"connected_time":625000000000,"state":"active","ping":69},{"user_id":343,"name":"Hey, I´m Andy!","steam_id":76561198060337777,"connected_time":1775000000000,"state":"active","ping":87},{"user_id":364,"name":"Jebe ti?","steam_id":76561198143688700,"connected_time":327000000000,"state":"active","ping":71},{"user_id":323,"name":"JaneDoe","steam_id":76561198067081506,"connected_time":3344000000000,"state":"active","ping":85},{"user_id":366,"name":"randompixel","steam_id":76561198003941207,"connected_time":288000000000,"state":"active","ping":61},{"user_id":369,"name":"ricky pee pee","steam_id":76561198152620745,"connected_time":225000000000,"state":"active","ping":60},{"user_id":370,"name":"penis gnome","steam_id":76561198097612561,"connected_time":138000000000,"state":"active","ping":61},{"user_id":351,"name":"Tec","steam_id":76561199096762480,"connected_time":1582000000000,"state":"active","ping":70},{"user_id":340,"name":"Acbh","steam_id":76561198158271672,"connected_time":2118000000000,"state":"active","ping":69},{"user_id":371,"name":"AlYeetus","steam_id":76561198151383403,"connected_time":116000000000,"state":"active","ping":78}]},{"server_id":22,"name":"Uncletopia | London | 6 | All Maps","name_short":"lon-6","host":"lon-1.uk.uncletopia.com","port":27065,"enabled":true,"region":"eu","cc":"gb","latitude":51.509865,"longitude":-0.118092,"reserved":0,"last_update":"0001-01-01T00:00:00Z","name_a2s":"Uncletopia | London | 6 | All Maps","protocol":17,"map":"koth_cascade","folder":"tf","game":"Team Fortress","app_id":440,"player_count":0,"max_players":24,"Bots":0,"server_type":"Dedicated","server_os":"Linux","password":true,"vac":true,"version":"7757534","steam_id":85568392924742830,"keywords":["cp","nocrits","nodmgspread","uncletopia"],"game_id":440,"stv_port":27066,"stv_name":"Uncletopia | London | 6 | All Maps | STV","players":null},{"server_id":40,"name":"Uncletopia | London | 7 | No Payload","name_short":"lon-7","host":"lon-1.uk.uncletopia.com","port":27075,"enabled":true,"region":"eu","cc":"gb","latitude":51.509865,"longitude":-0.118092,"reserved":0,"last_update":"0001-01-01T00:00:00Z","name_a2s":"Uncletopia | London | 7 | No Payload","protocol":17,"map":"cp_gorge","folder":"tf","game":"Team Fortress","app_id":440,"player_count":16,"max_players":24,"Bots":0,"server_type":"Dedicated","server_os":"Linux","password":true,"vac":true,"version":"7757534","steam_id":85568392924964314,"keywords":["cp","nocrits","nodmgspread","uncletopia"],"game_id":440,"stv_port":27076,"stv_name":"Uncletopia | London | 7 | No Payload | STV","players":[{"user_id":66,"name":"Labracababrador","steam_id":76561198255280285,"connected_time":1631000000000,"state":"active","ping":69},{"user_id":99,"name":"Flying skyhigh","steam_id":76561198372971096,"connected_time":106000000000,"state":"active","ping":80},{"user_id":82,"name":"originalakalil","steam_id":76561199481172481,"connected_time":983000000000,"state":"active","ping":157},{"user_id":97,"name":"Suspicious Viktor","steam_id":76561198136496249,"connected_time":206000000000,"state":"active","ping":70},{"user_id":15,"name":"TSx* Naxer","steam_id":76561198011986779,"connected_time":4660000000000,"state":"active","ping":71},{"user_id":94,"name":"SausageRoll","steam_id":76561197994072622,"connected_time":523000000000,"state":"active","ping":49},{"user_id":90,"name":"Fish","steam_id":76561198182278770,"connected_time":755000000000,"state":"active","ping":82},{"user_id":20,"name":"TSx* EmperoT","steam_id":76561198018656942,"connected_time":3742000000000,"state":"active","ping":85},{"user_id":79,"name":"Gyro Zeppeli","steam_id":76561198143600606,"connected_time":1112000000000,"state":"active","ping":72},{"user_id":95,"name":"cool guy zagawii","steam_id":76561197999285844,"connected_time":446000000000,"state":"active","ping":83},{"user_id":72,"name":"Korean Streamer/Leader","steam_id":76561198206997036,"connected_time":1472000000000,"state":"active","ping":67},{"user_id":36,"name":"aGryphoN","steam_id":76561198245175308,"connected_time":2830000000000,"state":"active","ping":54},{"user_id":89,"name":"Muscles","steam_id":76561198061795951,"connected_time":802000000000,"state":"active","ping":53},{"user_id":93,"name":"Mr. Caesar","steam_id":76561198166329161,"connected_time":570000000000,"state":"active","ping":51},{"user_id":86,"name":"marvs","steam_id":76561198851777617,"connected_time":912000000000,"state":"active","ping":40},{"user_id":57,"name":"Lethal","steam_id":76561198452042648,"connected_time":2133000000000,"state":"active","ping":70}]},{"server_id":41,"name":"Uncletopia | London | 8 | Community","name_short":"lon-8","host":"lon-1.uk.uncletopia.com","port":27085,"enabled":true,"region":"eu","cc":"gb","latitude":51.509865,"longitude":-0.118092,"reserved":0,"last_update":"0001-01-01T00:00:00Z","name_a2s":"Uncletopia | London | 8 | Community","protocol":17,"map":"workshop/koth_ashville_final.ugc2130459942","folder":"tf","game":"Team Fortress","app_id":440,"player_count":0,"max_players":24,"Bots":0,"server_type":"Dedicated","server_os":"Linux","password":true,"vac":true,"version":"7757534","steam_id":85568392924964315,"keywords":["cp","nocrits","nodmgspread","uncletopia"],"game_id":440,"stv_port":27086,"stv_name":"Uncletopia | London | 8 | Community | STV","players":null},{"server_id":300,"name":"Uncletopia | Montréal | 1 | All Maps","name_short":"mtl-1","host":"mtl-1.ca.uncletopia.com","port":27015,"enabled":true,"region":"us-east","cc":"ca","latitude":45.50889,"longitude":-73.56167,"reserved":0,"last_update":"0001-01-01T00:00:00Z","name_a2s":"Uncletopia | Montréal | 1 | All Maps","protocol":17,"map":"cp_process_final","folder":"tf","game":"Team Fortress","app_id":440,"player_count":24,"max_players":24,"Bots":0,"server_type":"Dedicated","server_os":"Linux","password":true,"vac":true,"version":"7757534","steam_id":85568392924500087,"keywords":["cp","nocrits","nodmgspread","uncletopia"],"game_id":440,"stv_port":27016,"stv_name":"Uncletopia | Montréal | 1 | All Maps | STV","players":[{"user_id":3,"name":"Reza The Cool","steam_id":76561198372285506,"connected_time":5605000000000,"state":"active","ping":60},{"user_id":53,"name":"WarriorFire97","steam_id":76561198276930551,"connected_time":675000000000,"state":"active","ping":138},{"user_id":30,"name":"KyonHB","steam_id":76561198050311904,"connected_time":1821000000000,"state":"active","ping":71},{"user_id":54,"name":"Mocanthl","steam_id":76561198043778324,"connected_time":541000000000,"state":"active","ping":72},{"user_id":55,"name":"BeefClapper420","steam_id":76561198080892634,"connected_time":541000000000,"state":"active","ping":67},{"user_id":29,"name":"totally idiot","steam_id":76561199315167502,"connected_time":2082000000000,"state":"active","ping":48},{"user_id":58,"name":"The Incredible Fem Boy","steam_id":76561198355754259,"connected_time":29000000000,"state":"active","ping":73},{"user_id":32,"name":"the entire population of boston","steam_id":76561199006361788,"connected_time":1648000000000,"state":"active","ping":85},{"user_id":34,"name":"Zoéyyy❤","steam_id":76561198368944263,"connected_time":1335000000000,"state":"active","ping":92},{"user_id":14,"name":"Ghost Mountain","steam_id":76561198273383183,"connected_time":3347000000000,"state":"active","ping":61},{"user_id":35,"name":"★NL★ Jestiere","steam_id":76561199334300357,"connected_time":1293000000000,"state":"active","ping":114},{"user_id":36,"name":"rajas","steam_id":76561198049099910,"connected_time":1281000000000,"state":"active","ping":62},{"user_id":37,"name":"sunny","steam_id":76561198069380992,"connected_time":1277000000000,"state":"active","ping":87},{"user_id":38,"name":"Puke Nukem","steam_id":76561197996201451,"connected_time":1225000000000,"state":"active","ping":79},{"user_id":57,"name":"blunderly","steam_id":76561198131915334,"connected_time":288000000000,"state":"active","ping":92},{"user_id":48,"name":"Emails","steam_id":76561198836919458,"connected_time":848000000000,"state":"active","ping":89},{"user_id":41,"name":"mrbeast109385079350229083479082","steam_id":76561198370687830,"connected_time":1034000000000,"state":"active","ping":71},{"user_id":42,"name":"NightAngel","steam_id":76561197968457893,"connected_time":994000000000,"state":"active","ping":103},{"user_id":43,"name":"HOT SOUP","steam_id":76561199077389918,"connected_time":986000000000,"state":"active","ping":76},{"user_id":44,"name":"SkyGhost","steam_id":76561198271474593,"connected_time":968000000000,"state":"active","ping":68},{"user_id":45,"name":"Red","steam_id":76561198255311543,"connected_time":962000000000,"state":"active","ping":70},{"user_id":46,"name":"raduski","steam_id":76561198795699119,"connected_time":961000000000,"state":"active","ping":109},{"user_id":47,"name":"ThatGamingKiwi","steam_id":76561199170522237,"connected_time":937000000000,"state":"active","ping":86},{"user_id":50,"name":"DatFluffyPancake","steam_id":76561198271958697,"connected_time":830000000000,"state":"active","ping":92}]},{"server_id":301,"name":"Uncletopia | Montréal | 2 | All Maps","name_short":"mtl-2","host":"mtl-1.ca.uncletopia.com","port":27025,"enabled":true,"region":"us-east","cc":"ca","latitude":45.50889,"longitude":-73.56167,"reserved":0,"last_update":"0001-01-01T00:00:00Z","name_a2s":"Uncletopia | Montréal | 2 | All Maps","protocol":17,"map":"koth_lakeside_final","folder":"tf","game":"Team Fortress","app_id":440,"player_count":0,"max_players":24,"Bots":0,"server_type":"Dedicated","server_os":"Linux","password":true,"vac":true,"version":"7757534","steam_id":85568392924500088,"keywords":["cp","nocrits","nodmgspread","uncletopia"],"game_id":440,"stv_port":27026,"stv_name":"Uncletopia | Montréal | 2 | All Maps | STV","players":null},{"server_id":302,"name":"Uncletopia | Montréal | 3 | All Maps","name_short":"mtl-3","host":"mtl-1.ca.uncletopia.com","port":27035,"enabled":true,"region":"us-east","cc":"ca","latitude":45.50889,"longitude":-73.56167,"reserved":0,"last_update":"0001-01-01T00:00:00Z","name_a2s":"Uncletopia | Montréal | 3 | All Maps","protocol":17,"map":"pl_swiftwater_final1","folder":"tf","game":"Team Fortress","app_id":440,"player_count":0,"max_players":24,"Bots":0,"server_type":"Dedicated","server_os":"Linux","password":true,"vac":true,"version":"7757534","steam_id":85568392924500089,"keywords":["nocrits","nodmgspread","payload","uncletopia"],"game_id":440,"stv_port":27036,"stv_name":"Uncletopia | Montréal | 3 | All Maps | STV","players":null},{"server_id":303,"name":"Uncletopia | Montréal | 4 | No Payload","name_short":"mtl-4","host":"mtl-1.ca.uncletopia.com","port":27045,"enabled":true,"region":"us-east","cc":"ca","latitude":45.50889,"longitude":-73.56167,"reserved":0,"last_update":"0001-01-01T00:00:00Z","name_a2s":"Uncletopia | Montréal | 4 | No Payload","protocol":17,"map":"pl_pier","folder":"tf","game":"Team Fortress","app_id":440,"player_count":0,"max_players":24,"Bots":0,"server_type":"Dedicated","server_os":"Linux","password":true,"vac":true,"version":"7757534","steam_id":85568392924500090,"keywords":["nocrits","nodmgspread","payload","uncletopia"],"game_id":440,"stv_port":27046,"stv_name":"Uncletopia | Montréal | 4 | No Payload | STV","players":null},{"server_id":13,"name":"Uncletopia | New York City | 1 | All Maps","name_short":"nyc-1","host":"nyc-1.us.uncletopia.com","port":27015,"enabled":true,"region":"us-east","cc":"us","latitude":40.73061,"longitude":-73.93524,"reserved":0,"last_update":"0001-01-01T00:00:00Z","name_a2s":"Uncletopia | New York City | 1 | All Maps","protocol":17,"map":"cp_sunshine","folder":"tf","game":"Team Fortress","app_id":440,"player_count":25,"max_players":24,"Bots":0,"server_type":"Dedicated","server_os":"Linux","password":true,"vac":true,"version":"7757534","steam_id":85568392924469993,"keywords":["cp","nocrits","nodmgspread","uncletopia"],"game_id":440,"stv_port":27016,"stv_name":"Uncletopia | New York City | 1 | All Maps | STV","players":[{"user_id":269,"name":"Orion","steam_id":76561198000418837,"connected_time":1194000000000,"state":"active","ping":95},{"user_id":281,"name":"turd ferguson","steam_id":76561198071620782,"connected_time":318000000000,"state":"active","ping":62},{"user_id":228,"name":"Mecha","steam_id":76561198014927379,"connected_time":4981000000000,"state":"active","ping":71},{"user_id":283,"name":"..!","steam_id":76561198882483441,"connected_time":304000000000,"state":"active","ping":81},{"user_id":240,"name":"brent8382","steam_id":76561198212374755,"connected_time":3742000000000,"state":"active","ping":116},{"user_id":282,"name":"MrrPamplemousse","steam_id":76561198072241333,"connected_time":307000000000,"state":"active","ping":59},{"user_id":189,"name":"troy","steam_id":76561198356515396,"connected_time":7368000000000,"state":"active","ping":95},{"user_id":284,"name":"happs (God is good)","steam_id":76561198364093418,"connected_time":21000000000,"state":"spawning","ping":42},{"user_id":260,"name":"Punished Kong","steam_id":76561198973620882,"connected_time":1974000000000,"state":"active","ping":78},{"user_id":230,"name":"abed","steam_id":76561198072856511,"connected_time":4965000000000,"state":"active","ping":80},{"user_id":280,"name":"DemoKing","steam_id":76561198127813144,"connected_time":380000000000,"state":"active","ping":58},{"user_id":264,"name":"Ian","steam_id":76561199078852180,"connected_time":1589000000000,"state":"active","ping":56},{"user_id":239,"name":"brett","steam_id":76561198799740059,"connected_time":3779000000000,"state":"active","ping":71},{"user_id":247,"name":"poop licker","steam_id":76561198046742645,"connected_time":3266000000000,"state":"active","ping":58},{"user_id":270,"name":"frank","steam_id":76561198045499333,"connected_time":1144000000000,"state":"active","ping":81},{"user_id":268,"name":"Gamer Girl Meth","steam_id":76561199276295259,"connected_time":1197000000000,"state":"active","ping":76},{"user_id":250,"name":"glue sniffer","steam_id":76561198044689778,"connected_time":3122000000000,"state":"active","ping":45},{"user_id":253,"name":"chungy","steam_id":76561198215559840,"connected_time":2350000000000,"state":"active","ping":68},{"user_id":185,"name":"g00bur","steam_id":76561197993622520,"connected_time":7572000000000,"state":"active","ping":57},{"user_id":266,"name":"Bother","steam_id":76561198336750909,"connected_time":1343000000000,"state":"active","ping":43},{"user_id":278,"name":"Ampereii","steam_id":76561199047421020,"connected_time":609000000000,"state":"active","ping":54},{"user_id":263,"name":"Mystery","steam_id":76561199385233153,"connected_time":1808000000000,"state":"active","ping":43},{"user_id":271,"name":"Eraserhead Baby","steam_id":76561198010968514,"connected_time":1141000000000,"state":"active","ping":105},{"user_id":277,"name":"BigDumbAnimal","steam_id":76561197998645697,"connected_time":851000000000,"state":"active","ping":84},{"user_id":285,"name":"Kaluka","steam_id":76561198036861445,"connected_time":5000000000,"state":"active","ping":153}]},{"server_id":14,"name":"Uncletopia | New York City | 2 | All Maps","name_short":"nyc-2","host":"nyc-1.us.uncletopia.com","port":27025,"enabled":true,"region":"us-east","cc":"us","latitude":40.73061,"longitude":-73.93524,"reserved":0,"last_update":"0001-01-01T00:00:00Z","name_a2s":"Uncletopia | New York City | 2 | All Maps","protocol":17,"map":"pl_thundermountain","folder":"tf","game":"Team Fortress","app_id":440,"player_count":24,"max_players":24,"Bots":0,"server_type":"Dedicated","server_os":"Linux","password":true,"vac":true,"version":"7757534","steam_id":85568392924469994,"keywords":["nocrits","nodmgspread","payload","uncletopia"],"game_id":440,"stv_port":27026,"stv_name":"Uncletopia | New York City | 2 | All Maps | STV","players":[{"user_id":211,"name":"opgordon1","steam_id":76561199149795218,"connected_time":1714000000000,"state":"active","ping":76},{"user_id":115,"name":"Goat","steam_id":76561198068447650,"connected_time":10123000000000,"state":"active","ping":94},{"user_id":83,"name":"John West","steam_id":76561198018783676,"connected_time":12417000000000,"state":"active","ping":122},{"user_id":223,"name":"hehe","steam_id":76561198125913580,"connected_time":521000000000,"state":"active","ping":58},{"user_id":224,"name":"Al Cabone","steam_id":76561198956823243,"connected_time":484000000000,"state":"active","ping":61},{"user_id":225,"name":"GIGAMODE","steam_id":76561198027140064,"connected_time":145000000000,"state":"active","ping":71},{"user_id":218,"name":"OldGreg97","steam_id":76561198048772813,"connected_time":1067000000000,"state":"active","ping":59},{"user_id":214,"name":"Joshy","steam_id":76561198061405421,"connected_time":1686000000000,"state":"active","ping":75},{"user_id":222,"name":"cpax","steam_id":76561198129487365,"connected_time":622000000000,"state":"active","ping":154},{"user_id":181,"name":"To Catch A Redditor","steam_id":76561198307516731,"connected_time":4180000000000,"state":"active","ping":103},{"user_id":226,"name":"quint","steam_id":76561198046797995,"connected_time":138000000000,"state":"active","ping":83},{"user_id":216,"name":"Malevo","steam_id":76561198148606522,"connected_time":1628000000000,"state":"active","ping":91},{"user_id":210,"name":"Pinners","steam_id":76561199103568210,"connected_time":1724000000000,"state":"active","ping":131},{"user_id":180,"name":"the taxi driver","steam_id":76561198830243167,"connected_time":4597000000000,"state":"active","ping":61},{"user_id":156,"name":"Green Icicle","steam_id":76561198069624529,"connected_time":6364000000000,"state":"active","ping":108},{"user_id":220,"name":"pathulhu","steam_id":76561198323941614,"connected_time":741000000000,"state":"active","ping":89},{"user_id":221,"name":"cosmonaut","steam_id":76561198116821551,"connected_time":735000000000,"state":"active","ping":73},{"user_id":193,"name":"STEVE","steam_id":76561198063475894,"connected_time":3481000000000,"state":"active","ping":72},{"user_id":201,"name":"Illusionism","steam_id":76561198167878499,"connected_time":2609000000000,"state":"active","ping":106},{"user_id":196,"name":"Gaskranx","steam_id":76561198020269547,"connected_time":3066000000000,"state":"active","ping":56},{"user_id":213,"name":"Ripley","steam_id":76561198080766916,"connected_time":1688000000000,"state":"active","ping":73},{"user_id":204,"name":"Ceiling Man","steam_id":76561198003959902,"connected_time":2373000000000,"state":"active","ping":43},{"user_id":215,"name":"Dr. Money Stacks","steam_id":76561198058144219,"connected_time":1678000000000,"state":"active","ping":71},{"user_id":217,"name":"nunneon","steam_id":76561198131231006,"connected_time":1624000000000,"state":"active","ping":59}]},{"server_id":15,"name":"Uncletopia | New York City | 3 | Stopwatch Beta","name_short":"nyc-3","host":"nyc-1.us.uncletopia.com","port":27035,"enabled":true,"region":"us-east","cc":"us","latitude":40.73061,"longitude":-73.93524,"reserved":0,"last_update":"0001-01-01T00:00:00Z","name_a2s":"Uncletopia | New York City | 3 | Stopwatch Beta","protocol":17,"map":"pl_upward","folder":"tf","game":"Team Fortress","app_id":440,"player_count":0,"max_players":24,"Bots":0,"server_type":"Dedicated","server_os":"Linux","password":true,"vac":true,"version":"7757534","steam_id":85568392924742820,"keywords":["nocrits","nodmgspread","payload","uncletopia"],"game_id":440,"stv_port":27036,"stv_name":"Uncletopia | New York City | 3 | Stopwatch Beta | STV","players":null},{"server_id":16,"name":"Uncletopia | New York City | 4 | Community","name_short":"nyc-4","host":"nyc-1.us.uncletopia.com","port":27045,"enabled":true,"region":"us-east","cc":"us","latitude":40.73061,"longitude":-73.93524,"reserved":0,"last_update":"0001-01-01T00:00:00Z","name_a2s":"Uncletopia | New York City | 4 | Community","protocol":17,"map":"workshop/pl_divulgence_b4b.ugc2884808746","folder":"tf","game":"Team Fortress","app_id":440,"player_count":0,"max_players":24,"Bots":0,"server_type":"Dedicated","server_os":"Linux","password":true,"vac":true,"version":"7757534","steam_id":85568392924742821,"keywords":["nocrits","nodmgspread","payload","uncletopia"],"game_id":440,"stv_port":27046,"stv_name":"Uncletopia | New York City | 4 | Community | STV","players":null},{"server_id":142,"name":"Uncletopia | São Paulo | 1 | All Maps","name_short":"sao-1","host":"sao-1.br.uncletopia.com","port":27015,"enabled":true,"region":"sa","cc":"br","latitude":-23.533773,"longitude":-46.62529,"reserved":0,"last_update":"0001-01-01T00:00:00Z","name_a2s":"Uncletopia | São Paulo | 1 | All Maps","protocol":17,"map":"koth_viaduct","folder":"tf","game":"Team Fortress","app_id":440,"player_count":0,"max_players":24,"Bots":0,"server_type":"Dedicated","server_os":"Linux","password":true,"vac":true,"version":"7757534","steam_id":85568392924469996,"keywords":["cp","nocrits","nodmgspread","uncletopia"],"game_id":440,"stv_port":27016,"stv_name":"Uncletopia | São Paulo | 1 | All Maps | STV","players":null},{"server_id":143,"name":"Uncletopia | São Paulo | 2 | All Maps","name_short":"sao-2","host":"sao-2.br.uncletopia.com","port":27015,"enabled":true,"region":"sa","cc":"br","latitude":-23.533773,"longitude":-46.62529,"reserved":0,"last_update":"0001-01-01T00:00:00Z","name_a2s":"Uncletopia | São Paulo | 2 | All Maps","protocol":17,"map":"koth_harvest_final","folder":"tf","game":"Team Fortress","app_id":440,"player_count":8,"max_players":24,"Bots":0,"server_type":"Dedicated","server_os":"Linux","password":true,"vac":true,"version":"7757534","steam_id":85568392924485349,"keywords":["cp","nocrits","nodmgspread","uncletopia"],"game_id":440,"stv_port":27016,"stv_name":"Uncletopia | São Paulo | 2 | All Maps | STV","players":[{"user_id":27,"name":"Macho Potter","steam_id":76561198053317633,"connected_time":3396000000000,"state":"active","ping":50},{"user_id":29,"name":"flamingo","steam_id":76561198854099251,"connected_time":2872000000000,"state":"active","ping":87},{"user_id":39,"name":"O incrivel Mauro","steam_id":76561198970997510,"connected_time":1327000000000,"state":"active","ping":43},{"user_id":33,"name":"hadinode","steam_id":76561198191475573,"connected_time":2423000000000,"state":"active","ping":49},{"user_id":38,"name":"jr_rusty","steam_id":76561198313937899,"connected_time":1434000000000,"state":"active","ping":42},{"user_id":41,"name":"NopeZ","steam_id":76561199227687766,"connected_time":697000000000,"state":"active","ping":45},{"user_id":42,"name":"enderGG","steam_id":76561199015474492,"connected_time":675000000000,"state":"active","ping":70},{"user_id":43,"name":"eduduao","steam_id":76561199066246644,"connected_time":652000000000,"state":"active","ping":77}]},{"server_id":7,"name":"Uncletopia | Seattle | 1 | All Maps","name_short":"sea-1","host":"sea-1.us.uncletopia.com","port":27015,"enabled":true,"region":"us-west","cc":"us","latitude":47.608013,"longitude":-122.33517,"reserved":0,"last_update":"0001-01-01T00:00:00Z","name_a2s":"Uncletopia | Seattle | 1 | All Maps","protocol":17,"map":"pl_badwater","folder":"tf","game":"Team Fortress","app_id":440,"player_count":24,"max_players":24,"Bots":0,"server_type":"Dedicated","server_os":"Linux","password":true,"vac":true,"version":"7757534","steam_id":85568392924469997,"keywords":["nocrits","nodmgspread","payload","uncletopia"],"game_id":440,"stv_port":27016,"stv_name":"Uncletopia | Seattle | 1 | All Maps | STV","players":[{"user_id":222,"name":"doomshroom","steam_id":76561198092827250,"connected_time":1109000000000,"state":"active","ping":56},{"user_id":4,"name":"Flesh Eating Turtle","steam_id":76561198116742139,"connected_time":20155000000000,"state":"active","ping":43},{"user_id":219,"name":"HiFivr","steam_id":76561198285190162,"connected_time":1567000000000,"state":"active","ping":61},{"user_id":226,"name":"Piggy","steam_id":76561198000399862,"connected_time":78000000000,"state":"active","ping":99},{"user_id":211,"name":"jayeskae","steam_id":76561198144220801,"connected_time":2265000000000,"state":"active","ping":45},{"user_id":227,"name":"Hassium","steam_id":76561198162541373,"connected_time":74000000000,"state":"active","ping":51},{"user_id":218,"name":"thatdamncat","steam_id":76561198366911191,"connected_time":1828000000000,"state":"active","ping":118},{"user_id":228,"name":"Sir Nope (TSS)","steam_id":76561198035935649,"connected_time":46000000000,"state":"active","ping":71},{"user_id":62,"name":"They/Them Rattussy","steam_id":76561198238186628,"connected_time":15819000000000,"state":"active","ping":76},{"user_id":224,"name":"magic","steam_id":76561198031957385,"connected_time":500000000000,"state":"active","ping":70},{"user_id":214,"name":"bbbbb","steam_id":76561198095480838,"connected_time":2207000000000,"state":"active","ping":46},{"user_id":215,"name":"HaphazardHazel","steam_id":76561198316812693,"connected_time":2190000000000,"state":"active","ping":135},{"user_id":160,"name":"dearender","steam_id":76561199427644498,"connected_time":7627000000000,"state":"active","ping":92},{"user_id":229,"name":"Rat Tard","steam_id":76561198850387282,"connected_time":36000000000,"state":"spawning","ping":105},{"user_id":220,"name":"dust | she/it","steam_id":76561198045218909,"connected_time":1446000000000,"state":"active","ping":31},{"user_id":191,"name":"Willy Wonker","steam_id":76561198082944789,"connected_time":4416000000000,"state":"active","ping":75},{"user_id":198,"name":"Teddiemercury","steam_id":76561197987034023,"connected_time":3723000000000,"state":"active","ping":100},{"user_id":217,"name":"Jack Celliers","steam_id":76561198060983357,"connected_time":2084000000000,"state":"active","ping":91},{"user_id":223,"name":"Lochness_monster","steam_id":76561198417831973,"connected_time":947000000000,"state":"active","ping":64},{"user_id":180,"name":"SibilantSerpent","steam_id":76561198154488754,"connected_time":5582000000000,"state":"active","ping":54},{"user_id":230,"name":"izzydex","steam_id":76561199101531034,"connected_time":25000000000,"state":"active","ping":127},{"user_id":207,"name":"Keamy","steam_id":76561199471434875,"connected_time":2737000000000,"state":"active","ping":43},{"user_id":231,"name":"Rex The Mouse","steam_id":76561197995569428,"connected_time":2000000000,"state":"spawning","ping":121},{"user_id":176,"name":"some nerd","steam_id":76561198297272878,"connected_time":5820000000000,"state":"active","ping":74}]},{"server_id":119,"name":"Uncletopia | Seattle | 2 | All Maps","name_short":"sea-2","host":"sea-1.us.uncletopia.com","port":27025,"enabled":true,"region":"us-west","cc":"us","latitude":47.608013,"longitude":-122.33517,"reserved":0,"last_update":"0001-01-01T00:00:00Z","name_a2s":"Uncletopia | Seattle | 2 | All Maps","protocol":17,"map":"pl_swiftwater_final1","folder":"tf","game":"Team Fortress","app_id":440,"player_count":23,"max_players":24,"Bots":0,"server_type":"Dedicated","server_os":"Linux","password":true,"vac":true,"version":"7757534","steam_id":85568392924469998,"keywords":["nocrits","nodmgspread","payload","uncletopia"],"game_id":440,"stv_port":27026,"stv_name":"Uncletopia | Seattle | 2 | All Maps | STV","players":[{"user_id":42,"name":"Skab","steam_id":76561199126112357,"connected_time":684000000000,"state":"active","ping":118},{"user_id":26,"name":"jregueiro08","steam_id":76561199251785909,"connected_time":950000000000,"state":"active","ping":102},{"user_id":49,"name":"choi","steam_id":76561198053669887,"connected_time":389000000000,"state":"active","ping":82},{"user_id":44,"name":"Dr. drippenstein","steam_id":76561198209380493,"connected_time":622000000000,"state":"active","ping":109},{"user_id":18,"name":"Major_Pippy","steam_id":76561198004482878,"connected_time":1764000000000,"state":"active","ping":54},{"user_id":53,"name":"Stinky","steam_id":76561198971257562,"connected_time":42000000000,"state":"active","ping":65},{"user_id":51,"name":"der","steam_id":76561198060762287,"connected_time":194000000000,"state":"active","ping":50},{"user_id":22,"name":"Feldspaten","steam_id":76561199122059102,"connected_time":1412000000000,"state":"active","ping":81},{"user_id":25,"name":"Dongus","steam_id":76561197979056451,"connected_time":1008000000000,"state":"active","ping":48},{"user_id":28,"name":"GlueSniffer7","steam_id":76561199003384475,"connected_time":832000000000,"state":"active","ping":104},{"user_id":29,"name":"CopperBox","steam_id":76561198068217248,"connected_time":828000000000,"state":"active","ping":86},{"user_id":31,"name":"Weswin939(cool person)","steam_id":76561198067373957,"connected_time":789000000000,"state":"active","ping":50},{"user_id":48,"name":"bachphong760","steam_id":76561199433780443,"connected_time":448000000000,"state":"active","ping":153},{"user_id":33,"name":"ThePriceIsRice","steam_id":76561198079069543,"connected_time":755000000000,"state":"active","ping":62},{"user_id":34,"name":"corpach","steam_id":76561198150418268,"connected_time":755000000000,"state":"active","ping":115},{"user_id":46,"name":"Giorno_Giovanna","steam_id":76561199014402406,"connected_time":599000000000,"state":"active","ping":62},{"user_id":36,"name":"lil peanut","steam_id":76561198028398745,"connected_time":750000000000,"state":"active","ping":58},{"user_id":37,"name":"Captain Buggy","steam_id":76561198024444448,"connected_time":750000000000,"state":"active","ping":53},{"user_id":38,"name":"Limp Pumpo Discography Fan Club","steam_id":76561198145748479,"connected_time":744000000000,"state":"active","ping":60},{"user_id":39,"name":"❤ Ashley ❤","steam_id":76561198056428303,"connected_time":744000000000,"state":"active","ping":75},{"user_id":40,"name":"old birb man","steam_id":76561199410269097,"connected_time":744000000000,"state":"active","ping":115},{"user_id":45,"name":"Pat","steam_id":76561198283767547,"connected_time":618000000000,"state":"active","ping":65},{"user_id":47,"name":"Kiwi","steam_id":76561198382611813,"connected_time":596000000000,"state":"active","ping":58}]},{"server_id":406,"name":"Uncletopia | Seattle | 3 | Stopwatch Beta","name_short":"sea-3","host":"sea-1.us.uncletopia.com","port":27035,"enabled":true,"region":"us-west","cc":"us","latitude":47.608013,"longitude":-122.33517,"reserved":0,"last_update":"0001-01-01T00:00:00Z","name_a2s":"Uncletopia | Seattle | 3 | Stopwatch Beta","protocol":17,"map":"workshop/pl_badwater_pro_v12.ugc2142942074","folder":"tf","game":"Team Fortress","app_id":440,"player_count":0,"max_players":24,"Bots":0,"server_type":"Dedicated","server_os":"Linux","password":true,"vac":true,"version":"7757534","steam_id":85568392924515217,"keywords":["nocrits","nodmgspread","payload","uncletopia"],"game_id":440,"stv_port":27036,"stv_name":"Uncletopia | Seattle | 3 | Stopwatch Beta | STV","players":null},{"server_id":17,"name":"Uncletopia | San Francisco | 1 | All Maps","name_short":"sfo-1","host":"sfo-1.us.uncletopia.com","port":27015,"enabled":true,"region":"us-west","cc":"us","latitude":37.77397,"longitude":-122.4313,"reserved":0,"last_update":"0001-01-01T00:00:00Z","name_a2s":"Uncletopia | San Francisco | 1 | All Maps","protocol":17,"map":"koth_cascade","folder":"tf","game":"Team Fortress","app_id":440,"player_count":0,"max_players":24,"Bots":0,"server_type":"Dedicated","server_os":"Linux","password":true,"vac":true,"version":"7757534","steam_id":85568392924469999,"keywords":["cp","nocrits","nodmgspread","uncletopia"],"game_id":440,"stv_port":27016,"stv_name":"Uncletopia | San Francisco | 1 | All Maps | STV","players":null},{"server_id":18,"name":"Uncletopia | San Francisco | 2 | All Maps","name_short":"sfo-2","host":"sfo-1.us.uncletopia.com","port":27025,"enabled":true,"region":"us-west","cc":"us","latitude":37.77397,"longitude":-122.4313,"reserved":0,"last_update":"0001-01-01T00:00:00Z","name_a2s":"Uncletopia | San Francisco | 2 | All Maps","protocol":17,"map":"koth_highpass","folder":"tf","game":"Team Fortress","app_id":440,"player_count":0,"max_players":24,"Bots":0,"server_type":"Dedicated","server_os":"Linux","password":true,"vac":true,"version":"7757534","steam_id":85568392924470000,"keywords":["cp","nocrits","nodmgspread","uncletopia"],"game_id":440,"stv_port":27026,"stv_name":"Uncletopia | San Francisco | 2 | All Maps | STV","players":null},{"server_id":19,"name":"Uncletopia | San Francisco | 3 | Stopwatch Beta","name_short":"sfo-3","host":"sfo-1.us.uncletopia.com","port":27035,"enabled":true,"region":"us-west","cc":"us","latitude":37.77397,"longitude":-122.4313,"reserved":0,"last_update":"0001-01-01T00:00:00Z","name_a2s":"Uncletopia | San Francisco | 3 | Stopwatch Beta","protocol":17,"map":"workshop/koth_clearcut_b15.ugc2107050255","folder":"tf","game":"Team Fortress","app_id":440,"player_count":0,"max_players":24,"Bots":0,"server_type":"Dedicated","server_os":"Linux","password":true,"vac":true,"version":"7757534","steam_id":85568392924742824,"keywords":["cp","nocrits","nodmgspread","uncletopia"],"game_id":440,"stv_port":27036,"stv_name":"Uncletopia | San Francisco | 3 | Stopwatch Beta | STV","players":null},{"server_id":20,"name":"Uncletopia | San Francisco | 4 | Community","name_short":"sfo-4","host":"sfo-1.us.uncletopia.com","port":27045,"enabled":true,"region":"us-west","cc":"us","latitude":37.77397,"longitude":-122.4313,"reserved":0,"last_update":"0001-01-01T00:00:00Z","name_a2s":"Uncletopia | San Francisco | 4 | Community","protocol":17,"map":"workshop/rd_asteroid_redux_b1.ugc2154902912","folder":"tf","game":"Team Fortress","app_id":440,"player_count":7,"max_players":24,"Bots":0,"server_type":"Dedicated","server_os":"Linux","password":true,"vac":true,"version":"7757534","steam_id":85568392924742826,"keywords":["beta","nocrits","nodmgspread","rd","uncletopia"],"game_id":440,"stv_port":27046,"stv_name":"Uncletopia | San Francisco | 4 | Community | STV","players":[{"user_id":53,"name":"Turtimos","steam_id":76561198093519137,"connected_time":6729000000000,"state":"active","ping":73},{"user_id":98,"name":"stboncho","steam_id":76561198172275301,"connected_time":2766000000000,"state":"active","ping":57},{"user_id":99,"name":"Jason Voorhees","steam_id":76561198358987380,"connected_time":2761000000000,"state":"active","ping":61},{"user_id":111,"name":"Wacks","steam_id":76561198079476100,"connected_time":1279000000000,"state":"active","ping":59},{"user_id":112,"name":"Auggy","steam_id":76561198041816037,"connected_time":1103000000000,"state":"active","ping":63},{"user_id":113,"name":"123","steam_id":76561198106308056,"connected_time":968000000000,"state":"active","ping":49},{"user_id":103,"name":"bananabanana","steam_id":76561199121970386,"connected_time":2594000000000,"state":"active","ping":146}]},{"server_id":141,"name":"Uncletopia | Sydney | 1 | All Maps","name_short":"syd-1","host":"syd-1.au.uncletopia.com","port":27015,"enabled":true,"region":"au","cc":"au","latitude":-33.865143,"longitude":151.2099,"reserved":0,"last_update":"0001-01-01T00:00:00Z","name_a2s":"Uncletopia | Sydney | 1 | All Maps","protocol":17,"map":"koth_viaduct","folder":"tf","game":"Team Fortress","app_id":440,"player_count":0,"max_players":24,"Bots":0,"server_type":"Dedicated","server_os":"Linux","password":true,"vac":true,"version":"7757534","steam_id":85568392924470001,"keywords":["cp","nocrits","nodmgspread","uncletopia"],"game_id":440,"stv_port":27016,"stv_name":"Uncletopia | Sydney | 1 | All Maps | STV","players":null},{"server_id":123,"name":"Uncletopia | Sydney | 2 | All Maps","name_short":"syd-2","host":"syd-1.au.uncletopia.com","port":27025,"enabled":true,"region":"au","cc":"au","latitude":-33.865143,"longitude":151.2099,"reserved":0,"last_update":"0001-01-01T00:00:00Z","name_a2s":"Uncletopia | Sydney | 2 | All Maps","protocol":17,"map":"cp_process_final","folder":"tf","game":"Team Fortress","app_id":440,"player_count":0,"max_players":24,"Bots":0,"server_type":"Dedicated","server_os":"Linux","password":true,"vac":true,"version":"7757534","steam_id":85568392924470002,"keywords":["cp","nocrits","nodmgspread","uncletopia"],"game_id":440,"stv_port":27026,"stv_name":"Uncletopia | Sydney | 2 | All Maps | STV","players":null},{"server_id":395,"name":"Uncletopia | Sydney | 3 | All Maps","name_short":"syd-3","host":"syd-1.au.uncletopia.com","port":27035,"enabled":true,"region":"au","cc":"au","latitude":-33.865143,"longitude":151.2099,"reserved":0,"last_update":"0001-01-01T00:00:00Z","name_a2s":"Uncletopia | Sydney | 3 | All Maps","protocol":17,"map":"pl_swiftwater_final1","folder":"tf","game":"Team Fortress","app_id":440,"player_count":0,"max_players":24,"Bots":0,"server_type":"Dedicated","server_os":"Linux","password":true,"vac":true,"version":"7757534","steam_id":85568392925194467,"keywords":["nocrits","nodmgspread","payload","uncletopia"],"game_id":440,"stv_port":27036,"stv_name":"Uncletopia | Sydney | 3 | All Maps | STV","players":null},{"server_id":396,"name":"Uncletopia | Sydney | 4 | All Maps","name_short":"syd-4","host":"syd-1.au.uncletopia.com","port":27045,"enabled":true,"region":"au","cc":"au","latitude":-33.865143,"longitude":151.2099,"reserved":0,"last_update":"0001-01-01T00:00:00Z","name_a2s":"Uncletopia | Sydney | 4 | All Maps","protocol":17,"map":"koth_highpass","folder":"tf","game":"Team Fortress","app_id":440,"player_count":0,"max_players":24,"Bots":0,"server_type":"Dedicated","server_os":"Linux","password":true,"vac":true,"version":"7757534","steam_id":85568392925397958,"keywords":["cp","nocrits","nodmgspread","uncletopia"],"game_id":440,"stv_port":27046,"stv_name":"Uncletopia | Sydney | 4 | All Maps | STV","players":null},{"server_id":58,"name":"Uncletopia | Sydney | 5 | Stopwatch Beta","name_short":"syd-5","host":"syd-1.au.uncletopia.com","port":27055,"enabled":true,"region":"au","cc":"au","latitude":-33.865143,"longitude":151.2099,"reserved":0,"last_update":"0001-01-01T00:00:00Z","name_a2s":"Uncletopia | Sydney | 5 | Stopwatch Beta","protocol":17,"map":"koth_cascade","folder":"tf","game":"Team Fortress","app_id":440,"player_count":0,"max_players":24,"Bots":0,"server_type":"Dedicated","server_os":"Linux","password":true,"vac":true,"version":"7757534","steam_id":85568392925397959,"keywords":["cp","nocrits","nodmgspread","uncletopia"],"game_id":440,"stv_port":27056,"stv_name":"Uncletopia | Sydney | 5 | Stopwatch Beta | STV","players":null},{"server_id":59,"name":"Uncletopia | Sydney | 6 | Community","name_short":"syd-6","host":"syd-1.au.uncletopia.com","port":27065,"enabled":true,"region":"au","cc":"au","latitude":-33.865143,"longitude":151.2099,"reserved":0,"last_update":"0001-01-01T00:00:00Z","name_a2s":"Uncletopia | Sydney | 6 | Community","protocol":17,"map":"cp_snakewater_final1","folder":"tf","game":"Team Fortress","app_id":440,"player_count":0,"max_players":24,"Bots":0,"server_type":"Dedicated","server_os":"Linux","password":true,"vac":true,"version":"7757534","steam_id":85568392925397960,"keywords":["cp","nocrits","nodmgspread","uncletopia"],"game_id":440,"stv_port":27066,"stv_name":"Uncletopia | Sydney | 6 | Community | STV","players":null},{"server_id":49,"name":"Uncletopia | Warsaw | 1 | All Maps","name_short":"waw-1","host":"waw-1.pl.uncletopia.com","port":27015,"enabled":true,"region":"eu","cc":"pl","latitude":52.2297,"longitude":21.017532,"reserved":0,"last_update":"0001-01-01T00:00:00Z","name_a2s":"","protocol":0,"map":"","folder":"","game":"","app_id":0,"player_count":0,"max_players":0,"Bots":0,"server_type":"","server_os":"","password":false,"vac":false,"version":"","steam_id":0,"keywords":null,"game_id":0,"stv_port":0,"stv_name":"","players":null},{"server_id":50,"name":"Uncletopia | Warsaw | 2 | All Maps","name_short":"waw-2","host":"waw-1.pl.uncletopia.com","port":27025,"enabled":true,"region":"eu","cc":"pl","latitude":52.2297,"longitude":21.017532,"reserved":0,"last_update":"0001-01-01T00:00:00Z","name_a2s":"Uncletopia | Warsaw | 2 | All Maps","protocol":17,"map":"pl_badwater","folder":"tf","game":"Team Fortress","app_id":440,"player_count":2,"max_players":24,"Bots":0,"server_type":"Dedicated","server_os":"Linux","password":true,"vac":true,"version":"7757534","steam_id":85568392925397851,"keywords":["nocrits","nodmgspread","payload","uncletopia"],"game_id":440,"stv_port":27026,"stv_name":"Uncletopia | Warsaw | 2 | All Maps | STV","players":[{"user_id":15,"name":"felixbluhm50","steam_id":76561199152506505,"connected_time":391000000000,"state":"active","ping":76},{"user_id":10,"name":"The","steam_id":76561199028541854,"connected_time":3846000000000,"state":"active","ping":131}]},{"server_id":51,"name":"Uncletopia | Warsaw | 3 | All Maps","name_short":"waw-3","host":"waw-1.pl.uncletopia.com","port":27035,"enabled":true,"region":"eu","cc":"pl","latitude":52.2297,"longitude":21.017532,"reserved":0,"last_update":"0001-01-01T00:00:00Z","name_a2s":"Uncletopia | Warsaw | 3 | All Maps","protocol":17,"map":"pl_barnblitz","folder":"tf","game":"Team Fortress","app_id":440,"player_count":10,"max_players":24,"Bots":0,"server_type":"Dedicated","server_os":"Linux","password":true,"vac":true,"version":"7757534","steam_id":85568392925397852,"keywords":["nocrits","nodmgspread","payload","uncletopia"],"game_id":440,"stv_port":27036,"stv_name":"Uncletopia | Warsaw | 3 | All Maps | STV","players":[{"user_id":122,"name":"MrCookie","steam_id":76561199041201737,"connected_time":1960000000000,"state":"active","ping":78},{"user_id":127,"name":"Kakyōin Noriaki","steam_id":76561198123809642,"connected_time":1454000000000,"state":"active","ping":162},{"user_id":140,"name":"SillQun","steam_id":76561198080039830,"connected_time":697000000000,"state":"active","ping":79},{"user_id":119,"name":"Ramzus","steam_id":76561198012385070,"connected_time":2271000000000,"state":"active","ping":56},{"user_id":141,"name":"Ixsus\u003c3","steam_id":76561198094756869,"connected_time":681000000000,"state":"active","ping":70},{"user_id":128,"name":"Domczyslaw","steam_id":76561199044080201,"connected_time":1272000000000,"state":"active","ping":51},{"user_id":129,"name":"quak","steam_id":76561198053928976,"connected_time":1191000000000,"state":"active","ping":64},{"user_id":130,"name":"Daxie626","steam_id":76561198394588278,"connected_time":1187000000000,"state":"active","ping":83},{"user_id":142,"name":"Small NULL-terminated humifier","steam_id":76561199441603388,"connected_time":677000000000,"state":"active","ping":69},{"user_id":132,"name":"printer is broken","steam_id":76561198234270592,"connected_time":1136000000000,"state":"active","ping":41}]},{"server_id":52,"name":"Uncletopia | Warsaw | 4 | All Maps","name_short":"waw-4","host":"waw-1.pl.uncletopia.com","port":27045,"enabled":true,"region":"eu","cc":"pl","latitude":52.2297,"longitude":21.017532,"reserved":0,"last_update":"0001-01-01T00:00:00Z","name_a2s":"Uncletopia | Warsaw | 4 | All Maps","protocol":17,"map":"koth_lakeside_final","folder":"tf","game":"Team Fortress","app_id":440,"player_count":0,"max_players":24,"Bots":0,"server_type":"Dedicated","server_os":"Linux","password":true,"vac":true,"version":"7757534","steam_id":85568392925397853,"keywords":["cp","nocrits","nodmgspread","uncletopia"],"game_id":440,"stv_port":27046,"stv_name":"Uncletopia | Warsaw | 4 | All Maps | STV","players":null},{"server_id":53,"name":"Uncletopia | Warsaw | 5 | Stopwatch Beta","name_short":"waw-5","host":"waw-1.pl.uncletopia.com","port":27055,"enabled":true,"region":"eu","cc":"pl","latitude":52.2297,"longitude":21.017532,"reserved":0,"last_update":"0001-01-01T00:00:00Z","name_a2s":"Uncletopia | Warsaw | 5 | Stopwatch Beta","protocol":17,"map":"pl_borneo","folder":"tf","game":"Team Fortress","app_id":440,"player_count":0,"max_players":24,"Bots":0,"server_type":"Dedicated","server_os":"Linux","password":true,"vac":true,"version":"7757534","steam_id":85568392925397854,"keywords":["nocrits","nodmgspread","payload","uncletopia"],"game_id":440,"stv_port":27056,"stv_name":"Uncletopia | Warsaw | 5 | Stopwatch Beta | STV","players":null},{"server_id":54,"name":"Uncletopia | Warsaw | 6 | Community","name_short":"waw-6","host":"waw-1.pl.uncletopia.com","port":27065,"enabled":true,"region":"eu","cc":"pl","latitude":52.2297,"longitude":21.017532,"reserved":0,"last_update":"0001-01-01T00:00:00Z","name_a2s":"Uncletopia | Warsaw | 6 | Community","protocol":17,"map":"workshop/cp_glacier_rc6.ugc2905735376","folder":"tf","game":"Team Fortress","app_id":440,"player_count":0,"max_players":24,"Bots":0,"server_type":"Dedicated","server_os":"Linux","password":true,"vac":true,"version":"7757534","steam_id":85568392925397856,"keywords":["cp","nocrits","nodmgspread","uncletopia"],"game_id":440,"stv_port":27066,"stv_name":"Uncletopia | Warsaw | 6 | Community | STV","players":null}]}