{"status":true,"message":"","result":[{"server_id":9,"name":"Uncletopia | Atlanta | 1 | All Maps","name_short":"atl-1","host":"atl-1.us.uncletopia.com","port":27015,"enabled":true,"region":"us-east","cc":"us","latitude":33.753746,"longitude":-84.38633,"reserved":0,"last_update":"0001-01-01T00:00:00Z","name_a2s":"Uncletopia | Atlanta | 1 | All Maps","protocol":17,"map":"koth_viaduct","folder":"tf","game":"Team Fortress","app_id":440,"player_count":0,"max_players":24,"Bots":0,"server_type":"Dedicated","server_os":"Linux","password":true,"vac":true,"version":"7882260","steam_id":85568392924469982,"keywords":["cp","nocrits","nodmgspread","uncletopia"],"game_id":440,"stv_port":27016,"stv_name":"Uncletopia | Atlanta | 1 | All Maps | STV","players":null},{"server_id":104,"name":"Uncletopia | Atlanta | 2 | All Maps","name_short":"atl-2","host":"atl-1.us.uncletopia.com","port":27025,"enabled":true,"region":"us-east","cc":"us","latitude":33.753746,"longitude":-84.38633,"reserved":0,"last_update":"0001-01-01T00:00:00Z","name_a2s":"Uncletopia | Atlanta | 2 | All Maps","protocol":17,"map":"cp_process_final","folder":"tf","game":"Team Fortress","app_id":440,"player_count":0,"max_players":24,"Bots":0,"server_type":"Dedicated","server_os":"Linux","password":true,"vac":true,"version":"7882260","steam_id":85568392924469983,"keywords":["cp","nocrits","nodmgspread","uncletopia"],"game_id":440,"stv_port":27026,"stv_name":"Uncletopia | Atlanta | 2 | All Maps | STV","players":null},{"server_id":400,"name":"Uncletopia | Atlanta | 3 | Community","name_short":"atl-3","host":"atl-1.us.uncletopia.com","port":27035,"enabled":true,"region":"us-east","cc":"us","latitude":33.753746,"longitude":-84.38633,"reserved":0,"last_update":"0001-01-01T00:00:00Z","name_a2s":"Uncletopia | Atlanta | 3 | Community","protocol":17,"map":"cp_sunshine","folder":"tf","game":"Team Fortress","app_id":440,"player_count":0,"max_players":24,"Bots":0,"server_type":"Dedicated","server_os":"Linux","password":true,"vac":true,"version":"7882260","steam_id":85568392924515187,"keywords":["cp","nocrits","nodmgspread","uncletopia"],"game_id":440,"stv_port":27036,"stv_name":"Uncletopia | Atlanta | 3 | Community | STV","players":null},{"server_id":401,"name":"Uncletopia | Atlanta | 4 | No Payload","name_short":"atl-4","host":"atl-1.us.uncletopia.com","port":27045,"enabled":true,"region":"us-east","cc":"us","latitude":33.753746,"longitude":-84.38633,"reserved":0,"last_update":"0001-01-01T00:00:00Z","name_a2s":"","protocol":0,"map":"","folder":"","game":"","app_id":0,"player_count":0,"max_players":0,"Bots":0,"server_type":"","server_os":"","password":false,"vac":false,"version":"","steam_id":0,"keywords":null,"game_id":0,"stv_port":0,"stv_name":"","players":null},{"server_id":2,"name":"Uncletopia | Chicago | 1 | All Maps","name_short":"chi-1","host":"chi-1.us.uncletopia.com","port":27015,"enabled":true,"region":"us-central","cc":"us","latitude":41.881832,"longitude":-87.62318,"reserved":0,"last_update":"0001-01-01T00:00:00Z","name_a2s":"Uncletopia | Chicago | 1 | All Maps","protocol":17,"map":"pl_frontier_final","folder":"tf","game":"Team Fortress","app_id":440,"player_count":0,"max_players":24,"Bots":0,"server_type":"Dedicated","server_os":"Linux","password":true,"vac":true,"version":"7882260","steam_id":85568392924469984,"keywords":["nocrits","nodmgspread","payload","uncletopia"],"game_id":440,"stv_port":27016,"stv_name":"Uncletopia | Chicago | 1 | All Maps | STV","players":null},{"server_id":106,"name":"Uncletopia | Chicago | 2 | All Maps","name_short":"chi-2","host":"chi-1.us.uncletopia.com","port":27025,"enabled":true,"region":"us-central","cc":"us","latitude":41.881832,"longitude":-87.62318,"reserved":0,"last_update":"0001-01-01T00:00:00Z","name_a2s":"Uncletopia | Chicago | 2 | All Maps","protocol":17,"map":"pl_frontier_final","folder":"tf","game":"Team Fortress","app_id":440,"player_count":24,"max_players":24,"Bots":0,"server_type":"Dedicated","server_os":"Linux","password":true,"vac":true,"version":"7882260","steam_id":85568392924469985,"keywords":["nocrits","nodmgspread","payload","uncletopia"],"game_id":440,"stv_port":27026,"stv_name":"Uncletopia | Chicago | 2 | All Maps | STV","players":[{"user_id":35,"name":"Pneumo.","steam_id":76561197987911883,"connected_time":410000000000,"state":"active","ping":117},{"user_id":4,"name":"Kenji","steam_id":76561198089630547,"connected_time":1243000000000,"state":"active","ping":76},{"user_id":39,"name":"VIEGO CORLEONE","steam_id":76561198273568117,"connected_time":198000000000,"state":"active","ping":60},{"user_id":29,"name":"Ignatius J. Reilly","steam_id":76561198066958868,"connected_time":980000000000,"state":"active","ping":64},{"user_id":7,"name":"HK‚Ñ¢","steam_id":76561198196793415,"connected_time":1229000000000,"state":"active","ping":99},{"user_id":36,"name":"Craig Isonychia","steam_id":76561198272013678,"connected_time":409000000000,"state":"active","ping":71},{"user_id":9,"name":"bouncyballs.com","steam_id":76561198236166288,"connected_time":1229000000000,"state":"active","ping":75},{"user_id":10,"name":"slurdydurdy","steam_id":76561198101494591,"connected_time":1227000000000,"state":"active","ping":86},{"user_id":31,"name":"ADumbCanadian","steam_id":76561198315362358,"connected_time":782000000000,"state":"active","ping":104},{"user_id":12,"name":"Alecto","steam_id":76561198042476864,"connected_time":1218000000000,"state":"active","ping":46},{"user_id":13,"name":"Voodo133","steam_id":76561198042670351,"connected_time":1214000000000,"state":"active","ping":85},{"user_id":14,"name":"eat Pant","steam_id":76561197974965536,"connected_time":1212000000000,"state":"active","ping":61},{"user_id":27,"name":"Worldstarhiphop Mike","steam_id":76561198053967778,"connected_time":1044000000000,"state":"active","ping":68},{"user_id":16,"name":"lanzer","steam_id":76561198049983016,"connected_time":1159000000000,"state":"active","ping":194},{"user_id":17,"name":"tony hawk","steam_id":76561198172050802,"connected_time":1158000000000,"state":"active","ping":113},{"user_id":38,"name":"Kkendal","steam_id":76561198042878852,"connected_time":279000000000,"state":"active","ping":93},{"user_id":19,"name":"BasedBoozer","steam_id":76561198086382694,"connected_time":1151000000000,"state":"active","ping":89},{"user_id":20,"name":"meownt evewest :3","steam_id":76561198017686306,"connected_time":1145000000000,"state":"active","ping":155},{"user_id":21,"name":"ACAB (she/it)","steam_id":76561199080116143,"connected_time":1134000000000,"state":"active","ping":66},{"user_id":22,"name":"larguu","steam_id":76561197994336210,"connected_time":1125000000000,"state":"active","ping":57},{"user_id":23,"name":"BonesJohnson","steam_id":76561198799169951,"connected_time":1117000000000,"state":"active","ping":144},{"user_id":37,"name":"Boxen","steam_id":76561198014983127,"connected_time":325000000000,"state":"active","ping":92},{"user_id":26,"name":"‚ô• kiss me ‚ô•","steam_id":76561198014557455,"connected_time":1086000000000,"state":"active","ping":61},{"user_id":34,"name":"Bellator","steam_id":76561198064103979,"connected_time":598000000000,"state":"active","ping":82}]},{"server_id":402,"name":"Uncletopia | Chicago | 3 | All Maps","name_short":"chi-3","host":"chi-1.us.uncletopia.com","port":27035,"enabled":true,"region":"us-central","cc":"us","latitude":41.881832,"longitude":-87.62318,"reserved":0,"last_update":"0001-01-01T00:00:00Z","name_a2s":"Uncletopia | Chicago | 3 | All Maps","protocol":17,"map":"pl_snowycoast","folder":"tf","game":"Team Fortress","app_id":440,"player_count":4,"max_players":24,"Bots":0,"server_type":"Dedicated","server_os":"Linux","password":true,"vac":true,"version":"7882260","steam_id":85568392924515191,"keywords":["nocrits","nodmgspread","payload","uncletopia"],"game_id":440,"stv_port":27036,"stv_name":"Uncletopia | Chicago | 3 | All Maps | STV","players":[{"user_id":11,"name":"dgnfatihdurmaz","steam_id":76561199485876512,"connected_time":545000000000,"state":"active","ping":174},{"user_id":12,"name":"pr4242","steam_id":76561199383650165,"connected_time":532000000000,"state":"active","ping":189},{"user_id":13,"name":"High Medic","steam_id":76561198082405984,"connected_time":366000000000,"state":"active","ping":61},{"user_id":14,"name":"Gossamer","steam_id":76561198046948498,"connected_time":49000000000,"state":"spawning","ping":66}]},{"server_id":403,"name":"Uncletopia | Chicago | 4 | All Maps","name_short":"chi-4","host":"chi-1.us.uncletopia.com","port":27045,"enabled":true,"region":"us-central","cc":"us","latitude":41.881832,"longitude":-87.62318,"reserved":0,"last_update":"0001-01-01T00:00:00Z","name_a2s":"Uncletopia | Chicago | 4 | All Maps","protocol":17,"map":"koth_cascade","folder":"tf","game":"Team Fortress","app_id":440,"player_count":0,"max_players":24,"Bots":0,"server_type":"Dedicated","server_os":"Linux","password":true,"vac":true,"version":"7882260","steam_id":85568392924515193,"keywords":["cp","nocrits","nodmgspread","uncletopia"],"game_id":440,"stv_port":27046,"stv_name":"Uncletopia | Chicago | 4 | All Maps | STV","players":null},{"server_id":36,"name":"Uncletopia | Chicago | 5 | All Maps","name_short":"chi-5","host":"chi-2.us.uncletopia.com","port":27015,"enabled":true,"region":"us-central","cc":"us","latitude":41.881832,"longitude":-87.62318,"reserved":0,"last_update":"0001-01-01T00:00:00Z","name_a2s":"Uncletopia | Chicago | 5 | All Maps","protocol":17,"map":"pl_badwater","folder":"tf","game":"Team Fortress","app_id":440,"player_count":0,"max_players":24,"Bots":0,"server_type":"Dedicated","server_os":"Linux","password":true,"vac":true,"version":"7882260","steam_id":85568392924866362,"keywords":["nocrits","nodmgspread","payload","uncletopia"],"game_id":440,"stv_port":27016,"stv_name":"Uncletopia | Chicago | 5 | All Maps | STV","players":null},{"server_id":37,"name":"Uncletopia | Chicago | 6 | All Maps","name_short":"chi-6","host":"chi-2.us.uncletopia.com","port":27025,"enabled":true,"region":"us-central","cc":"us","latitude":41.881832,"longitude":-87.62318,"reserved":0,"last_update":"0001-01-01T00:00:00Z","name_a2s":"Uncletopia | Chicago | 6 | All Maps","protocol":17,"map":"koth_cascade","folder":"tf","game":"Team Fortress","app_id":440,"player_count":0,"max_players":24,"Bots":0,"server_type":"Dedicated","server_os":"Linux","password":true,"vac":true,"version":"7882260","steam_id":85568392924866363,"keywords":["cp","nocrits","nodmgspread","uncletopia"],"game_id":440,"stv_port":27026,"stv_name":"Uncletopia | Chicago | 6 | All Maps | STV","players":null},{"server_id":38,"name":"Uncletopia | Chicago | 7 | Stopwatch Beta","name_short":"chi-7","host":"chi-2.us.uncletopia.com","port":27035,"enabled":true,"region":"us-central","cc":"us","latitude":41.881832,"longitude":-87.62318,"reserved":0,"last_update":"0001-01-01T00:00:00Z","name_a2s":"Uncletopia | Chicago | 7 | Stopwatch Beta","protocol":17,"map":"pl_borneo","folder":"tf","game":"Team Fortress","app_id":440,"player_count":0,"max_players":24,"Bots":0,"server_type":"Dedicated","server_os":"Linux","password":true,"vac":true,"version":"7882260","steam_id":85568392924866364,"keywords":["nocrits","nodmgspread","payload","uncletopia"],"game_id":440,"stv_port":27036,"stv_name":"Uncletopia | Chicago | 7 | Stopwatch Beta | STV","players":null},{"server_id":39,"name":"Uncletopia | Chicago | 8 | Community","name_short":"chi-8","host":"chi-2.us.uncletopia.com","port":27045,"enabled":true,"region":"us-central","cc":"us","latitude":41.881832,"longitude":-87.62318,"reserved":0,"last_update":"0001-01-01T00:00:00Z","name_a2s":"Uncletopia | Chicago | 8 | Community","protocol":17,"map":"cp_snakewater_final1","folder":"tf","game":"Team Fortress","app_id":440,"player_count":0,"max_players":24,"Bots":0,"server_type":"Dedicated","server_os":"Linux","password":true,"vac":true,"version":"7882260","steam_id":85568392924866365,"keywords":["cp","nocrits","nodmgspread","uncletopia"],"game_id":440,"stv_port":27046,"stv_name":"Uncletopia | Chicago | 8 | Community | STV","players":null},{"server_id":8,"name":"Uncletopia | Dallas | 1 | All Maps","name_short":"dal-1","host":"dal-1.us.uncletopia.com","port":27015,"enabled":true,"region":"us-central","cc":"us","latitude":32.779167,"longitude":-96.80889,"reserved":0,"last_update":"0001-01-01T00:00:00Z","name_a2s":"Uncletopia | Dallas | 1 | All Maps","protocol":17,"map":"pl_pier","folder":"tf","game":"Team Fortress","app_id":440,"player_count":0,"max_players":24,"Bots":0,"server_type":"Dedicated","server_os":"Linux","password":true,"vac":true,"version":"7882260","steam_id":85568392924469986,"keywords":["nocrits","nodmgspread","payload","uncletopia"],"game_id":440,"stv_port":27016,"stv_name":"Uncletopia | Dallas | 1 | All Maps | STV","players":null},{"server_id":108,"name":"Uncletopia | Dallas | 2 | All Maps","name_short":"dal-2","host":"dal-1.us.uncletopia.com","port":27025,"enabled":true,"region":"us-central","cc":"us","latitude":32.779167,"longitude":-96.80889,"reserved":0,"last_update":"0001-01-01T00:00:00Z","name_a2s":"Uncletopia | Dallas | 2 | All Maps","protocol":17,"map":"pl_barnblitz","folder":"tf","game":"Team Fortress","app_id":440,"player_count":0,"max_players":24,"Bots":0,"server_type":"Dedicated","server_os":"Linux","password":true,"vac":true,"version":"7882260","steam_id":85568392924469988,"keywords":["nocrits","nodmgspread","payload","uncletopia"],"game_id":440,"stv_port":27026,"stv_name":"Uncletopia | Dallas | 2 | All Maps | STV","players":null},{"server_id":5,"name":"Uncletopia | Frankfurt | 1 | All Maps","name_short":"frk-1","host":"frk-1.de.uncletopia.com","port":27015,"enabled":true,"region":"eu","cc":"de","latitude":50.110924,"longitude":8.682127,"reserved":0,"last_update":"0001-01-01T00:00:00Z","name_a2s":"Uncletopia | Frankfurt | 1 | All Maps","protocol":17,"map":"cp_dustbowl","folder":"tf","game":"Team Fortress","app_id":440,"player_count":24,"max_players":24,"Bots":0,"server_type":"Dedicated","server_os":"Linux","password":true,"vac":true,"version":"7882260","steam_id":85568392924469989,"keywords":["cp","nocrits","nodmgspread","uncletopia"],"game_id":440,"stv_port":27016,"stv_name":"Uncletopia | Frankfurt | 1 | All Maps | STV","players":[{"user_id":132,"name":"lofimonkeyjazz","steam_id":76561198117059662,"connected_time":1203000000000,"state":"active","ping":86},{"user_id":140,"name":"V0lnir","steam_id":76561198164047049,"connected_time":649000000000,"state":"active","ping":69},{"user_id":151,"name":"heisenburger gaming","steam_id":76561199312674180,"connected_time":496000000000,"state":"active","ping":88},{"user_id":129,"name":"axel, comp bot","steam_id":76561197992311317,"connected_time":1465000000000,"state":"active","ping":73},{"user_id":135,"name":"Asa Mitaka","steam_id":76561198361723475,"connected_time":790000000000,"state":"active","ping":65},{"user_id":146,"name":"JeanCorben","steam_id":76561197965133561,"connected_time":557000000000,"state":"active","ping":47},{"user_id":123,"name":"futer","steam_id":76561198059699043,"connected_time":1610000000000,"state":"active","ping":75},{"user_id":109,"name":"WHUSSKEY","steam_id":76561198137827441,"connected_time":2564000000000,"state":"active","ping":72},{"user_id":153,"name":"LasagneMan","steam_id":76561198971904377,"connected_time":313000000000,"state":"active","ping":62},{"user_id":143,"name":"penis gnome","steam_id":76561198097612561,"connected_time":581000000000,"state":"active","ping":58},{"user_id":152,"name":"Chemol","steam_id":76561198107161423,"connected_time":429000000000,"state":"active","ping":68},{"user_id":106,"name":"Flash","steam_id":76561198067379855,"connected_time":2852000000000,"state":"active","ping":57},{"user_id":82,"name":"Zeta","steam_id":76561198101917105,"connected_time":4904000000000,"state":"active","ping":140},{"user_id":124,"name":"7-Zip","steam_id":76561198099726966,"connected_time":1603000000000,"state":"active","ping":99},{"user_id":144,"name":"üóªüé¥Hadrian Maloneüé¥üóª","steam_id":76561198036151103,"connected_time":581000000000,"state":"active","ping":58},{"user_id":127,"name":"BELADIT","steam_id":76561198011911501,"connected_time":1494000000000,"state":"active","ping":74},{"user_id":145,"name":"mira","steam_id":76561199040246790,"connected_time":573000000000,"state":"active","ping":61},{"user_id":149,"name":"gamma","steam_id":76561198204290247,"connected_time":526000000000,"state":"active","ping":105},{"user_id":141,"name":"adijuice","steam_id":76561198187079875,"connected_time":607000000000,"state":"active","ping":210},{"user_id":63,"name":"hol horse","steam_id":76561199235435358,"connected_time":7007000000000,"state":"active","ping":82},{"user_id":150,"name":"confine","steam_id":76561198176016083,"connected_time":526000000000,"state":"active","ping":85},{"user_id":58,"name":"Dzan50","steam_id":76561198059758591,"connected_time":7159000000000,"state":"active","ping":94},{"user_id":97,"name":"E","steam_id":76561198414106145,"connected_time":3744000000000,"state":"active","ping":88},{"user_id":114,"name":"domek brexit geezerüá¨üáß","steam_id":76561198048447632,"connected_time":2239000000000,"state":"active","ping":71}]},{"server_id":110,"name":"Uncletopia | Frankfurt | 2 | All Maps","name_short":"frk-2","host":"frk-1.de.uncletopia.com","port":27025,"enabled":true,"region":"eu","cc":"de","latitude":50.110924,"longitude":8.682127,"reserved":0,"last_update":"0001-01-01T00:00:00Z","name_a2s":"Uncletopia | Frankfurt | 2 | All Maps","protocol":17,"map":"cp_mountainlab","folder":"tf","game":"Team Fortress","app_id":440,"player_count":0,"max_players":24,"Bots":0,"server_type":"Dedicated","server_os":"Linux","password":true,"vac":true,"version":"7882260","steam_id":85568392924469990,"keywords":["cp","nocrits","nodmgspread","uncletopia"],"game_id":440,"stv_port":27026,"stv_name":"Uncletopia | Frankfurt | 2 | All Maps | STV","players":null},{"server_id":308,"name":"Uncletopia | Frankfurt | 3 | All Maps","name_short":"frk-3","host":"frk-1.de.uncletopia.com","port":27035,"enabled":true,"region":"eu","cc":"de","latitude":50.110924,"longitude":8.682127,"reserved":0,"last_update":"0001-01-01T00:00:00Z","name_a2s":"Uncletopia | Frankfurt | 3 | All Maps","protocol":17,"map":"pl_badwater","folder":"tf","game":"Team Fortress","app_id":440,"player_count":24,"max_players":24,"Bots":0,"server_type":"Dedicated","server_os":"Linux","password":true,"vac":true,"version":"7882260","steam_id":85568392924504274,"keywords":["nocrits","nodmgspread","payload","uncletopia"],"game_id":440,"stv_port":27036,"stv_name":"Uncletopia | Frankfurt | 3 | All Maps | STV","players":[{"user_id":23,"name":"HERISSON","steam_id":76561199062194778,"connected_time":2507000000000,"state":"active","ping":85},{"user_id":6,"name":"sunshine (he/him)","steam_id":76561198084597975,"connected_time":3916000000000,"state":"active","ping":64},{"user_id":56,"name":"Yugoooii","steam_id":76561199426989328,"connected_time":1420000000000,"state":"active","ping":71},{"user_id":72,"name":"Mlanky","steam_id":76561198047796778,"connected_time":34000000000,"state":"spawning","ping":48},{"user_id":11,"name":"Double_binks","steam_id":76561199438485598,"connected_time":2972000000000,"state":"active","ping":62},{"user_id":66,"name":"Tartin Ninja","steam_id":76561198192605933,"connected_time":395000000000,"state":"active","ping":70},{"user_id":25,"name":"...","steam_id":76561198969234594,"connected_time":2369000000000,"state":"active","ping":66},{"user_id":69,"name":"Skelli","steam_id":76561198066933519,"connected_time":263000000000,"state":"active","ping":118},{"user_id":67,"name":"STiNGHAN","steam_id":76561198023989090,"connected_time":347000000000,"state":"active","ping":90},{"user_id":27,"name":"Ixsus\u003c3","steam_id":76561198094756869,"connected_time":2336000000000,"state":"active","ping":59},{"user_id":28,"name":"Ardello","steam_id":76561198864484125,"connected_time":2323000000000,"state":"active","ping":82},{"user_id":71,"name":"jovi_","steam_id":76561198449280552,"connected_time":116000000000,"state":"active","ping":58},{"user_id":62,"name":"Krad #R0BL0XAIM","steam_id":76561198991661832,"connected_time":783000000000,"state":"active","ping":67},{"user_id":32,"name":"cowboy","steam_id":76561198080361351,"connected_time":2237000000000,"state":"active","ping":59},{"user_id":63,"name":"danko_skills1345","steam_id":76561199146399559,"connected_time":734000000000,"state":"active","ping":78},{"user_id":68,"name":"hunte","steam_id":76561198063483484,"connected_time":340000000000,"state":"active","ping":70},{"user_id":36,"name":"SHFO","steam_id":76561198132104112,"connected_time":2125000000000,"state":"active","ping":69},{"user_id":70,"name":"generic alias","steam_id":76561198271607226,"connected_time":137000000000,"state":"active","ping":99},{"user_id":42,"name":"truebosnianking","steam_id":76561199440060597,"connected_time":1959000000000,"state":"active","ping":80},{"user_id":46,"name":"Maxnatur","steam_id":76561198311570023,"connected_time":1848000000000,"state":"active","ping":73},{"user_id":51,"name":"Qwertuss","steam_id":76561198026305366,"connected_time":1569000000000,"state":"active","ping":59},{"user_id":48,"name":"Supi","steam_id":76561198411607702,"connected_time":1789000000000,"state":"active","ping":118},{"user_id":65,"name":"gort","steam_id":76561198060339391,"connected_time":463000000000,"state":"active","ping":47},{"user_id":61,"name":"Lyell","steam_id":76561198350329389,"connected_time":1120000000000,"state":"active","ping":84}]},{"server_id":309,"name":"Uncletopia | Frankfurt | 4 | All Maps","name_short":"frk-4","host":"frk-1.de.uncletopia.com","port":27045,"enabled":true,"region":"eu","cc":"de","latitude":50.110924,"longitude":8.682127,"reserved":0,"last_update":"0001-01-01T00:00:00Z","name_a2s":"Uncletopia | Frankfurt | 4 | All Maps","protocol":17,"map":"pl_pier","folder":"tf","game":"Team Fortress","app_id":440,"player_count":0,"max_players":24,"Bots":0,"server_type":"Dedicated","server_os":"Linux","password":true,"vac":true,"version":"7882260","steam_id":85568392924504275,"keywords":["nocrits","nodmgspread","payload","uncletopia"],"game_id":440,"stv_port":27046,"stv_name":"Uncletopia | Frankfurt | 4 | All Maps | STV","players":null},{"server_id":310,"name":"Uncletopia | Frankfurt | 5 | All Maps","name_short":"frk-5","host":"frk-1.de.uncletopia.com","port":27055,"enabled":true,"region":"eu","cc":"de","latitude":50.110924,"longitude":8.682127,"reserved":0,"last_update":"0001-01-01T00:00:00Z","name_a2s":"Uncletopia | Frankfurt | 5 | All Maps","protocol":17,"map":"cp_snakewater_final1","folder":"tf","game":"Team Fortress","app_id":440,"player_count":0,"max_players":24,"Bots":0,"server_type":"Dedicated","server_os":"Linux","password":true,"vac":true,"version":"7882260","steam_id":85568392924504277,"keywords":["cp","nocrits","nodmgspread","uncletopia"],"game_id":440,"stv_port":27056,"stv_name":"Uncletopia | Frankfurt | 5 | All Maps | STV","players":null},{"server_id":311,"name":"Uncletopia | Frankfurt | 6 | All Maps","name_short":"frk-6","host":"frk-1.de.uncletopia.com","port":27065,"enabled":true,"region":"eu","cc":"de","latitude":50.110924,"longitude":8.682127,"reserved":0,"last_update":"0001-01-01T00:00:00Z","name_a2s":"Uncletopia | Frankfurt | 6 | All Maps","protocol":17,"map":"koth_cascade","folder":"tf","game":"Team Fortress","app_id":440,"player_count":0,"max_players":24,"Bots":0,"server_type":"Dedicated","server_os":"Linux","password":true,"vac":true,"version":"7882260","steam_id":85568392924504278,"keywords":["cp","nocrits","nodmgspread","uncletopia"],"game_id":440,"stv_port":27066,"stv_name":"Uncletopia | Frankfurt | 6 | All Maps | STV","players":null},{"server_id":23,"name":"Uncletopia | Frankfurt | 7 | Stopwatch Beta","name_short":"frk-7","host":"frk-1.de.uncletopia.com","port":27075,"enabled":true,"region":"eu","cc":"de","latitude":50.110924,"longitude":8.682127,"reserved":0,"last_update":"0001-01-01T00:00:00Z","name_a2s":"Uncletopia | Frankfurt | 7 | Stopwatch Beta","protocol":17,"map":"cp_gullywash_final1","folder":"tf","game":"Team Fortress","app_id":440,"player_count":0,"max_players":24,"Bots":0,"server_type":"Dedicated","server_os":"Linux","password":true,"vac":true,"version":"7882260","steam_id":85568392924742827,"keywords":["cp","nocrits","nodmgspread","uncletopia"],"game_id":440,"stv_port":27076,"stv_name":"Uncletopia | Frankfurt | 7 | Stopwatch Beta | STV","players":null},{"server_id":24,"name":"Uncletopia | Frankfurt | 8 | Community","name_short":"frk-8","host":"frk-1.de.uncletopia.com","port":27085,"enabled":true,"region":"eu","cc":"de","latitude":50.110924,"longitude":8.682127,"reserved":0,"last_update":"0001-01-01T00:00:00Z","name_a2s":"Uncletopia | Frankfurt | 8 | Community","protocol":17,"map":"koth_cascade","folder":"tf","game":"Team Fortress","app_id":440,"player_count":0,"max_players":24,"Bots":0,"server_type":"Dedicated","server_os":"Linux","password":true,"vac":true,"version":"7882260","steam_id":85568392924742828,"keywords":["cp","nocrits","nodmgspread","uncletopia"],"game_id":440,"stv_port":27086,"stv_name":"Uncletopia | Frankfurt | 8 | Community | STV","players":null},{"server_id":202,"name":"Uncletopia | Hong Kong | 1 | All Maps","name_short":"hgk-1","host":"hgk-1.hk.uncletopia.com","port":27015,"enabled":true,"region":"asia","cc":"hk","latitude":22.302711,"longitude":114.177216,"reserved":0,"last_update":"0001-01-01T00:00:00Z","name_a2s":"Uncletopia | Hong Kong | 1 | All Maps","protocol":17,"map":"cp_altitude","folder":"tf","game":"Team Fortress","app_id":440,"player_count":24,"max_players":24,"Bots":0,"server_type":"Dedicated","server_os":"Linux","password":true,"vac":true,"version":"7882260","steam_id":85568392924494504,"keywords":["cp","nocrits","nodmgspread","uncletopia"],"game_id":440,"stv_port":27016,"stv_name":"Uncletopia | Hong Kong | 1 | All Maps | STV","players":[{"user_id":311,"name":"i am a F2P and my aim is shit","steam_id":76561199475974790,"connected_time":4595000000000,"state":"active","ping":85},{"user_id":347,"name":"Engineer Gaming","steam_id":76561199015521820,"connected_time":1638000000000,"state":"active","ping":90},{"user_id":363,"name":"ObscuroLucem","steam_id":76561198875037943,"connected_time":593000000000,"state":"active","ping":82},{"user_id":343,"name":"JDSFE","steam_id":76561198975490851,"connected_time":2014000000000,"state":"active","ping":112},{"user_id":371,"name":"ellz71","steam_id":76561199216074568,"connected_time":13000000000,"state":"spawning","ping":138},{"user_id":328,"name":"Crazywayne","steam_id":76561198056504010,"connected_time":3103000000000,"state":"active","ping":75},{"user_id":307,"name":"AmaiGai(?)","steam_id":76561199122491157,"connected_time":5241000000000,"state":"active","ping":191},{"user_id":341,"name":"PJ ^^","steam_id":76561198041371593,"connected_time":2110000000000,"state":"active","ping":99},{"user_id":342,"name":"wsc","steam_id":76561198375093234,"connected_time":2025000000000,"state":"active","ping":90},{"user_id":333,"name":"NootNoot","steam_id":76561199122109977,"connected_time":2671000000000,"state":"active","ping":123},{"user_id":367,"name":"Noyour","steam_id":76561198323259830,"connected_time":319000000000,"state":"active","ping":108},{"user_id":364,"name":"embr","steam_id":76561198048065303,"connected_time":592000000000,"state":"active","ping":134},{"user_id":308,"name":"cstr","steam_id":76561198125946388,"connected_time":5197000000000,"state":"active","ping":101},{"user_id":368,"name":"Hay","steam_id":76561199438952901,"connected_time":309000000000,"state":"active","ping":52},{"user_id":365,"name":"i like soldier's tits","steam_id":76561198163164053,"connected_time":591000000000,"state":"active","ping":134},{"user_id":346,"name":"\"SKS\"","steam_id":76561198187995386,"connected_time":1665000000000,"state":"active","ping":88},{"user_id":324,"name":"sierra","steam_id":76561197969873415,"connected_time":3803000000000,"state":"active","ping":105},{"user_id":327,"name":"KimvyKinsley","steam_id":76561198859745304,"connected_time":3230000000000,"state":"active","ping":86},{"user_id":366,"name":"daigennki","steam_id":76561198046328609,"connected_time":581000000000,"state":"active","ping":104},{"user_id":369,"name":"p1st0n","steam_id":76561198992723983,"connected_time":264000000000,"state":"active","ping":93},{"user_id":268,"name":"mutwo","steam_id":76561198077043500,"connected_time":10001000000000,"state":"active","ping":76},{"user_id":370,"name":"Telekhine","steam_id":76561198387120618,"connected_time":263000000000,"state":"active","ping":52},{"user_id":244,"name":"Milf (The fan O'Milk)","steam_id":76561198213031155,"connected_time":12592000000000,"state":"active","ping":96},{"user_id":329,"name":"Chomer","steam_id":76561199034546642,"connected_time":3103000000000,"state":"active","ping":104}]},{"server_id":1,"name":"Uncletopia | Los Angeles | 1 | All Maps","name_short":"lax-1","host":"lax-1.us.uncletopia.com","port":27015,"enabled":true,"region":"us-west","cc":"us","latitude":33.94279,"longitude":-118.41004,"reserved":0,"last_update":"0001-01-01T00:00:00Z","name_a2s":"Uncletopia | Los Angeles | 1 | All Maps","protocol":17,"map":"cp_mountainlab","folder":"tf","game":"Team Fortress","app_id":440,"player_count":0,"max_players":24,"Bots":0,"server_type":"Dedicated","server_os":"Linux","password":true,"vac":true,"version":"7882260","steam_id":85568392924469991,"keywords":["cp","nocrits","nodmgspread","uncletopia"],"game_id":440,"stv_port":27016,"stv_name":"Uncletopia | Los Angeles | 1 | All Maps | STV","players":null},{"server_id":112,"name":"Uncletopia | Los Angeles | 2 | All Maps","name_short":"lax-2","host":"lax-1.us.uncletopia.com","port":27025,"enabled":true,"region":"us-west","cc":"us","latitude":33.94279,"longitude":-118.41004,"reserved":0,"last_update":"0001-01-01T00:00:00Z","name_a2s":"Uncletopia | Los Angeles | 2 | All Maps","protocol":17,"map":"koth_highpass","folder":"tf","game":"Team Fortress","app_id":440,"player_count":0,"max_players":24,"Bots":0,"server_type":"Dedicated","server_os":"Linux","password":true,"vac":true,"version":"7882260","steam_id":85568392924469992,"keywords":["cp","nocrits","nodmgspread","uncletopia"],"game_id":440,"stv_port":27026,"stv_name":"Uncletopia | Los Angeles | 2 | All Maps | STV","players":null},{"server_id":324,"name":"Uncletopia | Los Angeles | 3 | All Maps","name_short":"lax-3","host":"lax-1.us.uncletopia.com","port":27035,"enabled":true,"region":"us-west","cc":"us","latitude":33.94279,"longitude":-118.41004,"reserved":0,"last_update":"0001-01-01T00:00:00Z","name_a2s":"Uncletopia | Los Angeles | 3 | All Maps","protocol":17,"map":"pl_pier","folder":"tf","game":"Team Fortress","app_id":440,"player_count":0,"max_players":24,"Bots":0,"server_type":"Dedicated","server_os":"Linux","password":true,"vac":true,"version":"7882260","steam_id":85568392924510198,"keywords":["nocrits","nodmgspread","payload","uncletopia"],"game_id":440,"stv_port":27036,"stv_name":"Uncletopia | Los Angeles | 3 | All Maps | STV","players":null},{"server_id":25,"name":"Uncletopia | Los Angeles | 4 | Stopwatch Beta","name_short":"lax-4","host":"lax-1.us.uncletopia.com","port":27045,"enabled":true,"region":"us-west","cc":"us","latitude":33.94279,"longitude":-118.41004,"reserved":0,"last_update":"0001-01-01T00:00:00Z","name_a2s":"Uncletopia | Los Angeles | 4 | Stopwatch Beta","protocol":17,"map":"workshop/pl_badwater_pro_v12.ugc2142942074","folder":"tf","game":"Team Fortress","app_id":440,"player_count":0,"max_players":24,"Bots":0,"server_type":"Dedicated","server_os":"Linux","password":true,"vac":true,"version":"7882260","steam_id":85568392924510199,"keywords":["nocrits","nodmgspread","payload","uncletopia"],"game_id":440,"stv_port":27046,"stv_name":"Uncletopia | Los Angeles | 4 | Stopwatch Beta | STV","players":null},{"server_id":11,"name":"Uncletopia | London | 1 | All Maps","name_short":"lon-1","host":"lon-1.uk.uncletopia.com","port":27015,"enabled":true,"region":"eu","cc":"gb","latitude":51.509865,"longitude":-0.118092,"reserved":0,"last_update":"0001-01-01T00:00:00Z","name_a2s":"Uncletopia | London | 1 | All Maps","protocol":17,"map":"cp_sunshine","folder":"tf","game":"Team Fortress","app_id":440,"player_count":24,"max_players":24,"Bots":0,"server_type":"Dedicated","server_os":"Linux","password":true,"vac":true,"version":"7882260","steam_id":85568392924367362,"keywords":["cp","nocrits","nodmgspread","uncletopia"],"game_id":440,"stv_port":27016,"stv_name":"Uncletopia | London | 1 | All Maps | STV","players":[{"user_id":174,"name":"Mr. Luigi","steam_id":76561198167312951,"connected_time":181000000000,"state":"active","ping":39},{"user_id":137,"name":"Cars","steam_id":76561198173329977,"connected_time":1674000000000,"state":"active","ping":58},{"user_id":167,"name":"lego obi-wan kenobi","steam_id":76561198103336739,"connected_time":369000000000,"state":"active","ping":72},{"user_id":115,"name":"Yeets3er","steam_id":76561199137127757,"connected_time":2961000000000,"state":"active","ping":61},{"user_id":168,"name":"Croy","steam_id":76561197972552579,"connected_time":348000000000,"state":"active","ping":39},{"user_id":138,"name":"vilgax","steam_id":76561198138836345,"connected_time":1670000000000,"state":"active","ping":101},{"user_id":151,"name":"boofing prozac","steam_id":76561198851157897,"connected_time":1356000000000,"state":"active","ping":61},{"user_id":164,"name":"Son Goku","steam_id":76561199383437138,"connected_time":747000000000,"state":"active","ping":122},{"user_id":139,"name":"NLSAM","steam_id":76561199111154916,"connected_time":1663000000000,"state":"active","ping":64},{"user_id":157,"name":"Saint","steam_id":76561198003296382,"connected_time":1206000000000,"state":"active","ping":72},{"user_id":175,"name":"panakid","steam_id":76561198364121077,"connected_time":134000000000,"state":"active","ping":104},{"user_id":99,"name":"Bottle O' Scrumpy","steam_id":76561199244250562,"connected_time":4484000000000,"state":"active","ping":86},{"user_id":170,"name":"–ß–∏–Ω–∏–ª–∞-–ø–µ—á–∏–ª–∞","steam_id":76561198303585902,"connected_time":309000000000,"state":"active","ping":91},{"user_id":107,"name":"Jam","steam_id":76561198090409013,"connected_time":3971000000000,"state":"active","ping":87},{"user_id":133,"name":"Koli","steam_id":76561197992428783,"connected_time":2013000000000,"state":"active","ping":60},{"user_id":152,"name":"el wiwi","steam_id":76561199384892422,"connected_time":1336000000000,"state":"active","ping":58},{"user_id":165,"name":"(/‚Ä¢0‚Ä¢)/ WoW","steam_id":76561198144990790,"connected_time":687000000000,"state":"active","ping":88},{"user_id":177,"name":"Kard","steam_id":76561198191894926,"connected_time":35000000000,"state":"active","ping":104},{"user_id":145,"name":"SlonkyDonky","steam_id":76561198425787528,"connected_time":1487000000000,"state":"active","ping":55},{"user_id":172,"name":"Sixie","steam_id":76561198251675360,"connected_time":265000000000,"state":"active","ping":52},{"user_id":173,"name":"Kapitan Polska","steam_id":76561197968069413,"connected_time":245000000000,"state":"active","ping":84},{"user_id":176,"name":"Anonymus765","steam_id":76561198822513770,"connected_time":128000000000,"state":"active","ping":101},{"user_id":158,"name":"gagalak","steam_id":76561198089979108,"connected_time":1069000000000,"state":"active","ping":102},{"user_id":154,"name":"Even R√º√ºd","steam_id":76561197981144291,"connected_time":1311000000000,"state":"active","ping":71}]},{"server_id":114,"name":"Uncletopia | London | 2 | All Maps","name_short":"lon-2","host":"lon-1.uk.uncletopia.com","port":27025,"enabled":true,"region":"eu","cc":"gb","latitude":51.509865,"longitude":-0.118092,"reserved":0,"last_update":"0001-01-01T00:00:00Z","name_a2s":"Uncletopia | London | 2 | All Maps","protocol":17,"map":"pl_upward","folder":"tf","game":"Team Fortress","app_id":440,"player_count":24,"max_players":24,"Bots":0,"server_type":"Dedicated","server_os":"Linux","password":true,"vac":true,"version":"7882260","steam_id":85568392924470941,"keywords":["nocrits","nodmgspread","payload","uncletopia"],"game_id":440,"stv_port":27026,"stv_name":"Uncletopia | London | 2 | All Maps | STV","players":[{"user_id":117,"name":"—è —Å–æ—Å–∞–ª –º–µ–Ω—è –µ–±–∞–ª","steam_id":76561197971140507,"connected_time":573000000000,"state":"active","ping":79},{"user_id":74,"name":"lol","steam_id":76561198104438656,"connected_time":2893000000000,"state":"active","ping":69},{"user_id":100,"name":"Sunshine","steam_id":76561199481134450,"connected_time":1236000000000,"state":"active","ping":120},{"user_id":109,"name":"TSpirit_Wycc","steam_id":76561198003876146,"connected_time":770000000000,"state":"active","ping":70},{"user_id":90,"name":"fredu","steam_id":76561198107605938,"connected_time":1780000000000,"state":"active","ping":97},{"user_id":128,"name":"night.s","steam_id":76561198326287823,"connected_time":86000000000,"state":"active","ping":69},{"user_id":84,"name":"Goober","steam_id":76561198054795379,"connected_time":2156000000000,"state":"active","ping":60},{"user_id":129,"name":"sook","steam_id":76561198199117446,"connected_time":57000000000,"state":"active","ping":49},{"user_id":53,"name":"burgz","steam_id":76561198109955787,"connected_time":3670000000000,"state":"active","ping":54},{"user_id":98,"name":"sethlington14","steam_id":76561199438357690,"connected_time":1377000000000,"state":"active","ping":59},{"user_id":112,"name":"Ren","steam_id":76561198064654390,"connected_time":733000000000,"state":"active","ping":85},{"user_id":65,"name":"Laysketchup","steam_id":76561198798891390,"connected_time":3377000000000,"state":"active","ping":58},{"user_id":121,"name":"Melon wizard","steam_id":76561198455781892,"connected_time":289000000000,"state":"active","ping":63},{"user_id":107,"name":"jude","steam_id":76561198979036031,"connected_time":827000000000,"state":"active","ping":60},{"user_id":130,"name":"Frylock","steam_id":76561198050292560,"connected_time":54000000000,"state":"active","ping":47},{"user_id":125,"name":"Refre35","steam_id":76561198971840738,"connected_time":134000000000,"state":"active","ping":84},{"user_id":77,"name":"Suspicious Cabin","steam_id":76561198083261198,"connected_time":2486000000000,"state":"active","ping":53},{"user_id":80,"name":"Femboy Portal Radio Uncompresse","steam_id":76561198072320671,"connected_time":2257000000000,"state":"active","ping":42},{"user_id":119,"name":"El`Capitano Flex","steam_id":76561198061813730,"connected_time":437000000000,"state":"active","ping":70},{"user_id":126,"name":"Vectillion","steam_id":76561198074292454,"connected_time":132000000000,"state":"active","ping":70},{"user_id":92,"name":"John Noob","steam_id":76561197999170026,"connected_time":1649000000000,"state":"active","ping":78},{"user_id":131,"name":"Kneh","steam_id":76561198121744739,"connected_time":41000000000,"state":"active","ping":77},{"user_id":133,"name":"Palettenbrett","steam_id":76561198124162943,"connected_time":13000000000,"state":"active","ping":82},{"user_id":116,"name":"herbal tea","steam_id":76561197980736364,"connected_time":604000000000,"state":"active","ping":78}]},{"server_id":320,"name":"Uncletopia | London | 3 | All Maps","name_short":"lon-3","host":"lon-1.uk.uncletopia.com","port":27035,"enabled":true,"region":"eu","cc":"gb","latitude":51.509865,"longitude":-0.118092,"reserved":0,"last_update":"0001-01-01T00:00:00Z","name_a2s":"Uncletopia | London | 3 | All Maps","protocol":17,"map":"cp_snakewater_final1","folder":"tf","game":"Team Fortress","app_id":440,"player_count":13,"max_players":24,"Bots":0,"server_type":"Dedicated","server_os":"Linux","password":true,"vac":true,"version":"7882260","steam_id":85568392924510192,"keywords":["cp","nocrits","nodmgspread","uncletopia"],"game_id":440,"stv_port":27036,"stv_name":"Uncletopia | London | 3 | All Maps | STV","players":[{"user_id":220,"name":".apo","steam_id":76561198003042239,"connected_time":811000000000,"state":"active","ping":69},{"user_id":216,"name":"Lacatrelle","steam_id":76561198830471523,"connected_time":1036000000000,"state":"active","ping":47},{"user_id":226,"name":"Cheesy","steam_id":76561198016538483,"connected_time":434000000000,"state":"active","ping":124},{"user_id":223,"name":"ScaryTree","steam_id":76561199384362833,"connected_time":577000000000,"state":"active","ping":56},{"user_id":224,"name":"wee woo","steam_id":76561198147277460,"connected_time":500000000000,"state":"active","ping":63},{"user_id":232,"name":"MemeLord","steam_id":76561198135115524,"connected_time":227000000000,"state":"active","ping":42},{"user_id":225,"name":"Heroine Nisa","steam_id":76561198013748040,"connected_time":497000000000,"state":"active","ping":72},{"user_id":237,"name":"Kahvi","steam_id":76561198723244199,"connected_time":154000000000,"state":"active","ping":75},{"user_id":229,"name":"la cucaracha","steam_id":76561198163244605,"connected_time":363000000000,"state":"active","ping":79},{"user_id":234,"name":"geanibucidefer","steam_id":76561199235599334,"connected_time":218000000000,"state":"active","ping":83},{"user_id":235,"name":"I own the penis scooter","steam_id":76561198173218318,"connected_time":189000000000,"state":"active","ping":46},{"user_id":183,"name":"Envy","steam_id":76561198132723219,"connected_time":4221000000000,"state":"active","ping":100},{"user_id":236,"name":"germinator","steam_id":76561199387893648,"connected_time":187000000000,"state":"active","ping":103}]},{"server_id":321,"name":"Uncletopia | London | 4 | All Maps","name_short":"lon-4","host":"lon-1.uk.uncletopia.com","port":27045,"enabled":true,"region":"eu","cc":"gb","latitude":51.509865,"longitude":-0.118092,"reserved":0,"last_update":"0001-01-01T00:00:00Z","name_a2s":"Uncletopia | London | 4 | All Maps","protocol":17,"map":"pl_borneo","folder":"tf","game":"Team Fortress","app_id":440,"player_count":0,"max_players":24,"Bots":0,"server_type":"Dedicated","server_os":"Linux","password":true,"vac":true,"version":"7882260","steam_id":85568392924510193,"keywords":["nocrits","nodmgspread","payload","uncletopia"],"game_id":440,"stv_port":27046,"stv_name":"Uncletopia | London | 4 | All Maps | STV","players":null},{"server_id":21,"name":"Uncletopia | London | 5 | All Maps","name_short":"lon-5","host":"lon-1.uk.uncletopia.com","port":27055,"enabled":true,"region":"eu","cc":"gb","latitude":51.509865,"longitude":-0.118092,"reserved":0,"last_update":"0001-01-01T00:00:00Z","name_a2s":"Uncletopia | London | 5 | All Maps","protocol":17,"map":"cp_altitude","folder":"tf","game":"Team Fortress","app_id":440,"player_count":1,"max_players":24,"Bots":0,"server_type":"Dedicated","server_os":"Linux","password":true,"vac":true,"version":"7882260","steam_id":85568392924742829,"keywords":["cp","nocrits","nodmgspread","uncletopia"],"game_id":440,"stv_port":27056,"stv_name":"Uncletopia | London | 5 | All Maps | STV","players":[{"user_id":6,"name":"Terra","steam_id":76561198074482461,"connected_time":160000000000,"state":"active","ping":94}]},{"server_id":22,"name":"Uncletopia | London | 6 | All Maps","name_short":"lon-6","host":"lon-1.uk.uncletopia.com","port":27065,"enabled":true,"region":"eu","cc":"gb","latitude":51.509865,"longitude":-0.118092,"reserved":0,"last_update":"0001-01-01T00:00:00Z","name_a2s":"Uncletopia | London | 6 | All Maps","protocol":17,"map":"pl_upward","folder":"tf","game":"Team Fortress","app_id":440,"player_count":24,"max_players":24,"Bots":0,"server_type":"Dedicated","server_os":"Linux","password":true,"vac":true,"version":"7882260","steam_id":85568392924742830,"keywords":["nocrits","nodmgspread","payload","uncletopia"],"game_id":440,"stv_port":27066,"stv_name":"Uncletopia | London | 6 | All Maps | STV","players":[{"user_id":238,"name":"Cumgus","steam_id":76561198058492107,"connected_time":2524000000000,"state":"active","ping":40},{"user_id":186,"name":"modavak","steam_id":76561198946290908,"connected_time":7349000000000,"state":"active","ping":105},{"user_id":248,"name":"Prole","steam_id":76561198049837199,"connected_time":1115000000000,"state":"active","ping":144},{"user_id":249,"name":"LOBZIK","steam_id":76561198114830120,"connected_time":1080000000000,"state":"active","ping":86},{"user_id":246,"name":"Pootis","steam_id":76561198866730509,"connected_time":1601000000000,"state":"active","ping":122},{"user_id":250,"name":"BreadAcres","steam_id":76561198098217082,"connected_time":1055000000000,"state":"active","ping":66},{"user_id":231,"name":"Mal","steam_id":76561198262337669,"connected_time":3355000000000,"state":"active","ping":74},{"user_id":258,"name":"Sylvanas","steam_id":76561198154904165,"connected_time":196000000000,"state":"active","ping":109},{"user_id":242,"name":"Elfie","steam_id":76561198206802255,"connected_time":1723000000000,"state":"active","ping":73},{"user_id":256,"name":"lunaire","steam_id":76561198163344452,"connected_time":759000000000,"state":"active","ping":92},{"user_id":209,"name":"AwterSix","steam_id":76561198042561678,"connected_time":5270000000000,"state":"active","ping":59},{"user_id":257,"name":"Egor Pomidor","steam_id":76561199175688390,"connected_time":635000000000,"state":"active","ping":88},{"user_id":240,"name":"morris33morris","steam_id":76561198196456242,"connected_time":1889000000000,"state":"active","ping":67},{"user_id":143,"name":"elliot","steam_id":76561198055010039,"connected_time":10039000000000,"state":"active","ping":67},{"user_id":247,"name":"cringemonke","steam_id":76561199086701083,"connected_time":1141000000000,"state":"active","ping":97},{"user_id":255,"name":"Thors","steam_id":76561197968739075,"connected_time":782000000000,"state":"active","ping":43},{"user_id":225,"name":"|not|dan|the|epic|gamer|","steam_id":76561198278561932,"connected_time":3945000000000,"state":"active","ping":104},{"user_id":226,"name":"Gorzel","steam_id":76561198828273330,"connected_time":3945000000000,"state":"active","ping":86},{"user_id":227,"name":"Tevinell81","steam_id":76561198340658904,"connected_time":3887000000000,"state":"active","ping":105},{"user_id":259,"name":"Clairv0yance","steam_id":76561198085698566,"connected_time":1000000000,"state":"spawning","ping":77},{"user_id":201,"name":"ZaneMago","steam_id":76561198305019050,"connected_time":5789000000000,"state":"active","ping":118},{"user_id":220,"name":"Penis Contortionist","steam_id":76561198073663784,"connected_time":4441000000000,"state":"active","ping":39},{"user_id":245,"name":"Rizziologist","steam_id":76561198089003514,"connected_time":1673000000000,"state":"active","ping":51},{"user_id":254,"name":"n.mob","steam_id":76561198389356439,"connected_time":975000000000,"state":"active","ping":75}]},{"server_id":40,"name":"Uncletopia | London | 7 | No Payload","name_short":"lon-7","host":"lon-1.uk.uncletopia.com","port":27075,"enabled":true,"region":"eu","cc":"gb","latitude":51.509865,"longitude":-0.118092,"reserved":0,"last_update":"0001-01-01T00:00:00Z","name_a2s":"Uncletopia | London | 7 | No Payload","protocol":17,"map":"koth_nucleus","folder":"tf","game":"Team Fortress","app_id":440,"player_count":23,"max_players":24,"Bots":0,"server_type":"Dedicated","server_os":"Linux","password":true,"vac":true,"version":"7882260","steam_id":85568392924964314,"keywords":["cp","nocrits","nodmgspread","uncletopia"],"game_id":440,"stv_port":27076,"stv_name":"Uncletopia | London | 7 | No Payload | STV","players":[{"user_id":221,"name":"Silva_mlon","steam_id":76561199310242047,"connected_time":1385000000000,"state":"active","ping":73},{"user_id":209,"name":"Lloyder","steam_id":76561198099718482,"connected_time":2652000000000,"state":"active","ping":69},{"user_id":214,"name":"Storm's Foreshadow","steam_id":76561198098462526,"connected_time":2048000000000,"state":"active","ping":70},{"user_id":213,"name":"mindas","steam_id":76561198056839438,"connected_time":2162000000000,"state":"active","ping":73},{"user_id":222,"name":"pijacka","steam_id":76561198103899658,"connected_time":1290000000000,"state":"active","ping":74},{"user_id":21,"name":"Nyhde","steam_id":76561198012771416,"connected_time":13514000000000,"state":"active","ping":110},{"user_id":243,"name":"SpecialForce19","steam_id":76561198120974644,"connected_time":312000000000,"state":"active","ping":133},{"user_id":225,"name":"Dragonfly","steam_id":76561198154350231,"connected_time":1202000000000,"state":"active","ping":80},{"user_id":245,"name":":)","steam_id":76561198384259748,"connected_time":139000000000,"state":"active","ping":72},{"user_id":206,"name":"Smacks","steam_id":76561198799133346,"connected_time":2886000000000,"state":"active","ping":73},{"user_id":230,"name":"Blue‚õßMelon","steam_id":76561197970926435,"connected_time":910000000000,"state":"active","ping":121},{"user_id":227,"name":"LT.Steeamer","steam_id":76561198271938142,"connected_time":1078000000000,"state":"active","ping":60},{"user_id":233,"name":"Robo [Bot]","steam_id":76561198294017282,"connected_time":734000000000,"state":"active","ping":72},{"user_id":240,"name":"Astolfo","steam_id":76561198354584982,"connected_time":408000000000,"state":"active","ping":64},{"user_id":215,"name":"eva.","steam_id":76561198054474684,"connected_time":1987000000000,"state":"active","ping":89},{"user_id":165,"name":"slifer the executive producer","steam_id":76561198322087870,"connected_time":5254000000000,"state":"active","ping":119},{"user_id":212,"name":"Peigg","steam_id":76561198414749782,"connected_time":2180000000000,"state":"active","ping":116},{"user_id":236,"name":"Lepattaja","steam_id":76561198120743889,"connected_time":628000000000,"state":"active","ping":109},{"user_id":246,"name":"Zenyaru","steam_id":76561199128779995,"connected_time":123000000000,"state":"active","ping":196},{"user_id":238,"name":"hygalation","steam_id":76561198012503944,"connected_time":502000000000,"state":"active","ping":73},{"user_id":242,"name":"PASTAMAN!!!","steam_id":76561198995641765,"connected_time":350000000000,"state":"active","ping":61},{"user_id":244,"name":"zorze supreme.exe","steam_id":76561198996333022,"connected_time":261000000000,"state":"active","ping":73},{"user_id":108,"name":"Ash","steam_id":76561198148738525,"connected_time":7554000000000,"state":"active","ping":113}]},{"server_id":41,"name":"Uncletopia | London | 8 | Community","name_short":"lon-8","host":"lon-1.uk.uncletopia.com","port":27085,"enabled":true,"region":"eu","cc":"gb","latitude":51.509865,"longitude":-0.118092,"reserved":0,"last_update":"0001-01-01T00:00:00Z","name_a2s":"Uncletopia | London | 8 | Community","protocol":17,"map":"workshop/koth_ramjam_rc1.ugc459778887","folder":"tf","game":"Team Fortress","app_id":440,"player_count":0,"max_players":24,"Bots":0,"server_type":"Dedicated","server_os":"Linux","password":true,"vac":true,"version":"7882260","steam_id":85568392924964315,"keywords":["cp","nocrits","nodmgspread","uncletopia"],"game_id":440,"stv_port":27086,"stv_name":"Uncletopia | London | 8 | Community | STV","players":null},{"server_id":300,"name":"Uncletopia | Montr√©al | 1 | All Maps","name_short":"mtl-1","host":"mtl-1.ca.uncletopia.com","port":27015,"enabled":true,"region":"us-east","cc":"ca","latitude":45.50889,"longitude":-73.56167,"reserved":0,"last_update":"0001-01-01T00:00:00Z","name_a2s":"Uncletopia | Montr√©al | 1 | All Maps","protocol":17,"map":"pl_snowycoast","folder":"tf","game":"Team Fortress","app_id":440,"player_count":0,"max_players":24,"Bots":0,"server_type":"Dedicated","server_os":"Linux","password":true,"vac":true,"version":"7882260","steam_id":85568392924500087,"keywords":["nocrits","nodmgspread","payload","uncletopia"],"game_id":440,"stv_port":27016,"stv_name":"Uncletopia | Montr√©al | 1 | All Maps | STV","players":null},{"server_id":301,"name":"Uncletopia | Montr√©al | 2 | All Maps","name_short":"mtl-2","host":"mtl-1.ca.uncletopia.com","port":27025,"enabled":true,"region":"us-east","cc":"ca","latitude":45.50889,"longitude":-73.56167,"reserved":0,"last_update":"0001-01-01T00:00:00Z","name_a2s":"Uncletopia | Montr√©al | 2 | All Maps","protocol":17,"map":"cp_sunshine","folder":"tf","game":"Team Fortress","app_id":440,"player_count":0,"max_players":24,"Bots":0,"server_type":"Dedicated","server_os":"Linux","password":true,"vac":true,"version":"7882260","steam_id":85568392924500088,"keywords":["cp","nocrits","nodmgspread","uncletopia"],"game_id":440,"stv_port":27026,"stv_name":"Uncletopia | Montr√©al | 2 | All Maps | STV","players":null},{"server_id":302,"name":"Uncletopia | Montr√©al | 3 | All Maps","name_short":"mtl-3","host":"mtl-1.ca.uncletopia.com","port":27035,"enabled":true,"region":"us-east","cc":"ca","latitude":45.50889,"longitude":-73.56167,"reserved":0,"last_update":"0001-01-01T00:00:00Z","name_a2s":"Uncletopia | Montr√©al | 3 | All Maps","protocol":17,"map":"pl_borneo","folder":"tf","game":"Team Fortress","app_id":440,"player_count":0,"max_players":24,"Bots":0,"server_type":"Dedicated","server_os":"Linux","password":true,"vac":true,"version":"7882260","steam_id":85568392924500089,"keywords":["nocrits","nodmgspread","payload","uncletopia"],"game_id":440,"stv_port":27036,"stv_name":"Uncletopia | Montr√©al | 3 | All Maps | STV","players":null},{"server_id":303,"name":"Uncletopia | Montr√©al | 4 | No Payload","name_short":"mtl-4","host":"mtl-1.ca.uncletopia.com","port":27045,"enabled":true,"region":"us-east","cc":"ca","latitude":45.50889,"longitude":-73.56167,"reserved":0,"last_update":"0001-01-01T00:00:00Z","name_a2s":"Uncletopia | Montr√©al | 4 | No Payload","protocol":17,"map":"cp_altitude","folder":"tf","game":"Team Fortress","app_id":440,"player_count":0,"max_players":24,"Bots":0,"server_type":"Dedicated","server_os":"Linux","password":true,"vac":true,"version":"7882260","steam_id":85568392924500090,"keywords":["cp","nocrits","nodmgspread","uncletopia"],"game_id":440,"stv_port":27046,"stv_name":"Uncletopia | Montr√©al | 4 | No Payload | STV","players":null},{"server_id":13,"name":"Uncletopia | New York City | 1 | All Maps","name_short":"nyc-1","host":"nyc-1.us.uncletopia.com","port":27015,"enabled":true,"region":"us-east","cc":"us","latitude":40.73061,"longitude":-73.93524,"reserved":0,"last_update":"0001-01-01T00:00:00Z","name_a2s":"Uncletopia | New York City | 1 | All Maps","protocol":17,"map":"pl_upward","folder":"tf","game":"Team Fortress","app_id":440,"player_count":24,"max_players":24,"Bots":0,"server_type":"Dedicated","server_os":"Linux","password":true,"vac":true,"version":"7882260","steam_id":85568392924469993,"keywords":["nocrits","nodmgspread","payload","uncletopia"],"game_id":440,"stv_port":27016,"stv_name":"Uncletopia | New York City | 1 | All Maps | STV","players":[{"user_id":3,"name":"t.tv/stabslive","steam_id":76561198293116584,"connected_time":1929000000000,"state":"active","ping":58},{"user_id":4,"name":"Mowsferatu","steam_id":76561198041901707,"connected_time":1906000000000,"state":"active","ping":77},{"user_id":5,"name":"Thelolson","steam_id":76561198239198250,"connected_time":1905000000000,"state":"active","ping":90},{"user_id":38,"name":"Jax","steam_id":76561198251160282,"connected_time":228000000000,"state":"active","ping":124},{"user_id":7,"name":"DAWNZY","steam_id":76561198207924905,"connected_time":1863000000000,"state":"active","ping":107},{"user_id":11,"name":"jr_","steam_id":76561198313937899,"connected_time":1611000000000,"state":"active","ping":171},{"user_id":10,"name":"spy","steam_id":76561198254292824,"connected_time":1699000000000,"state":"active","ping":133},{"user_id":28,"name":"feenman","steam_id":76561199383834799,"connected_time":713000000000,"state":"active","ping":113},{"user_id":19,"name":"RandyPickleshoes","steam_id":76561198064139260,"connected_time":945000000000,"state":"active","ping":56},{"user_id":15,"name":"Starkiller","steam_id":76561198101643120,"connected_time":1182000000000,"state":"active","ping":81},{"user_id":16,"name":"De Fuego Diablo","steam_id":76561199006383892,"connected_time":1171000000000,"state":"active","ping":124},{"user_id":17,"name":"IMM0RTAL","steam_id":76561198013747901,"connected_time":1153000000000,"state":"active","ping":73},{"user_id":21,"name":"Twisted4k","steam_id":76561198031237102,"connected_time":873000000000,"state":"active","ping":99},{"user_id":29,"name":"Don't Fuckle with Shuckle","steam_id":76561199020102367,"connected_time":548000000000,"state":"active","ping":87},{"user_id":23,"name":"dzcreeper","steam_id":76561198072250723,"connected_time":837000000000,"state":"active","ping":105},{"user_id":26,"name":"rice white","steam_id":76561198320732910,"connected_time":781000000000,"state":"active","ping":61},{"user_id":25,"name":"potassium","steam_id":76561198077882993,"connected_time":792000000000,"state":"active","ping":127},{"user_id":30,"name":"Charlotte","steam_id":76561199084344266,"connected_time":521000000000,"state":"active","ping":73},{"user_id":37,"name":"Brown_Dream","steam_id":76561198975766145,"connected_time":258000000000,"state":"active","ping":79},{"user_id":32,"name":"TheEmeraldDuck","steam_id":76561197999692032,"connected_time":505000000000,"state":"active","ping":50},{"user_id":33,"name":"SLICK PAPI #IMDADDYASF","steam_id":76561198144766439,"connected_time":456000000000,"state":"active","ping":61},{"user_id":34,"name":"LVL","steam_id":76561198334403617,"connected_time":450000000000,"state":"active","ping":39},{"user_id":40,"name":"Mack","steam_id":76561198025365706,"connected_time":200000000000,"state":"active","ping":90},{"user_id":42,"name":"mateololero","steam_id":76561198852900219,"connected_time":49000000000,"state":"active","ping":214}]},{"server_id":14,"name":"Uncletopia | New York City | 2 | All Maps","name_short":"nyc-2","host":"nyc-1.us.uncletopia.com","port":27025,"enabled":true,"region":"us-east","cc":"us","latitude":40.73061,"longitude":-73.93524,"reserved":0,"last_update":"0001-01-01T00:00:00Z","name_a2s":"Uncletopia | New York City | 2 | All Maps","protocol":17,"map":"pl_upward","folder":"tf","game":"Team Fortress","app_id":440,"player_count":0,"max_players":24,"Bots":0,"server_type":"Dedicated","server_os":"Linux","password":true,"vac":true,"version":"7882260","steam_id":85568392924469994,"keywords":["nocrits","nodmgspread","payload","uncletopia"],"game_id":440,"stv_port":27026,"stv_name":"Uncletopia | New York City | 2 | All Maps | STV","players":null},{"server_id":15,"name":"Uncletopia | New York City | 3 | Stopwatch Beta","name_short":"nyc-3","host":"nyc-1.us.uncletopia.com","port":27035,"enabled":true,"region":"us-east","cc":"us","latitude":40.73061,"longitude":-73.93524,"reserved":0,"last_update":"0001-01-01T00:00:00Z","name_a2s":"Uncletopia | New York City | 3 | Stopwatch Beta","protocol":17,"map":"koth_lakeside_final","folder":"tf","game":"Team Fortress","app_id":440,"player_count":0,"max_players":24,"Bots":0,"server_type":"Dedicated","server_os":"Linux","password":true,"vac":true,"version":"7882260","steam_id":85568392924742820,"keywords":["cp","nocrits","nodmgspread","uncletopia"],"game_id":440,"stv_port":27036,"stv_name":"Uncletopia | New York City | 3 | Stopwatch Beta | STV","players":null},{"server_id":16,"name":"Uncletopia | New York City | 4 | Community","name_short":"nyc-4","host":"nyc-1.us.uncletopia.com","port":27045,"enabled":true,"region":"us-east","cc":"us","latitude":40.73061,"longitude":-73.93524,"reserved":0,"last_update":"0001-01-01T00:00:00Z","name_a2s":"Uncletopia | New York City | 4 | Community","protocol":17,"map":"pl_badwater","folder":"tf","game":"Team Fortress","app_id":440,"player_count":0,"max_players":24,"Bots":0,"server_type":"Dedicated","server_os":"Linux","password":true,"vac":true,"version":"7882260","steam_id":85568392924742821,"keywords":["nocrits","nodmgspread","payload","uncletopia"],"game_id":440,"stv_port":27046,"stv_name":"Uncletopia | New York City | 4 | Community | STV","players":null},{"server_id":142,"name":"Uncletopia | S√£o Paulo | 1 | All Maps","name_short":"sao-1","host":"sao-1.br.uncletopia.com","port":27015,"enabled":true,"region":"sa","cc":"br","latitude":-23.533773,"longitude":-46.62529,"reserved":0,"last_update":"0001-01-01T00:00:00Z","name_a2s":"Uncletopia | S√£o Paulo | 1 | All Maps","protocol":17,"map":"pl_pier","folder":"tf","game":"Team Fortress","app_id":440,"player_count":0,"max_players":24,"Bots":0,"server_type":"Dedicated","server_os":"Linux","password":true,"vac":true,"version":"7882260","steam_id":85568392924469996,"keywords":["nocrits","nodmgspread","payload","uncletopia"],"game_id":440,"stv_port":27016,"stv_name":"Uncletopia | S√£o Paulo | 1 | All Maps | STV","players":null},{"server_id":143,"name":"Uncletopia | S√£o Paulo | 2 | All Maps","name_short":"sao-2","host":"sao-2.br.uncletopia.com","port":27015,"enabled":true,"region":"sa","cc":"br","latitude":-23.533773,"longitude":-46.62529,"reserved":0,"last_update":"0001-01-01T00:00:00Z","name_a2s":"Uncletopia | S√£o Paulo | 2 | All Maps","protocol":17,"map":"pl_pier","folder":"tf","game":"Team Fortress","app_id":440,"player_count":0,"max_players":24,"Bots":0,"server_type":"Dedicated","server_os":"Linux","password":true,"vac":true,"version":"7882260","steam_id":85568392924485349,"keywords":["nocrits","nodmgspread","payload","uncletopia"],"game_id":440,"stv_port":27016,"stv_name":"Uncletopia | S√£o Paulo | 2 | All Maps | STV","players":null},{"server_id":7,"name":"Uncletopia | Seattle | 1 | All Maps","name_short":"sea-1","host":"sea-1.us.uncletopia.com","port":27015,"enabled":true,"region":"us-west","cc":"us","latitude":47.608013,"longitude":-122.33517,"reserved":0,"last_update":"0001-01-01T00:00:00Z","name_a2s":"Uncletopia | Seattle | 1 | All Maps","protocol":17,"map":"cp_sunshine","folder":"tf","game":"Team Fortress","app_id":440,"player_count":14,"max_players":24,"Bots":0,"server_type":"Dedicated","server_os":"Linux","password":true,"vac":true,"version":"7882260","steam_id":85568392924469997,"keywords":["cp","nocrits","nodmgspread","uncletopia"],"game_id":440,"stv_port":27016,"stv_name":"Uncletopia | Seattle | 1 | All Maps | STV","players":[{"user_id":906,"name":"slashr","steam_id":76561198206515428,"connected_time":46000000000,"state":"active","ping":52},{"user_id":897,"name":"Tyler\u0026Fingers","steam_id":76561198085154485,"connected_time":629000000000,"state":"active","ping":133},{"user_id":899,"name":"[TC] Lag","steam_id":76561198983494186,"connected_time":286000000000,"state":"active","ping":135},{"user_id":874,"name":"Acto","steam_id":76561198043025164,"connected_time":2986000000000,"state":"active","ping":56},{"user_id":900,"name":"SAD MOSCOVIA","steam_id":76561198101081520,"connected_time":280000000000,"state":"active","ping":70},{"user_id":901,"name":"buble with funny colors","steam_id":76561198314959808,"connected_time":158000000000,"state":"active","ping":241},{"user_id":859,"name":"STENDO_CLIP","steam_id":76561198059570167,"connected_time":4816000000000,"state":"active","ping":162},{"user_id":902,"name":"repeat offender","steam_id":76561198364058348,"connected_time":156000000000,"state":"active","ping":85},{"user_id":903,"name":"GVoltX","steam_id":76561198992020605,"connected_time":142000000000,"state":"active","ping":84},{"user_id":904,"name":"Griffin","steam_id":76561198116665906,"connected_time":139000000000,"state":"active","ping":70},{"user_id":908,"name":"The Colour Blue","steam_id":76561198095033570,"connected_time":27000000000,"state":"active","ping":66},{"user_id":863,"name":"Floaty","steam_id":76561198100029503,"connected_time":4670000000000,"state":"active","ping":57},{"user_id":886,"name":"fart","steam_id":76561198206922028,"connected_time":2276000000000,"state":"active","ping":74},{"user_id":892,"name":"blozet","steam_id":76561199120161035,"connected_time":1794000000000,"state":"active","ping":83}]},{"server_id":119,"name":"Uncletopia | Seattle | 2 | All Maps","name_short":"sea-2","host":"sea-1.us.uncletopia.com","port":27025,"enabled":true,"region":"us-west","cc":"us","latitude":47.608013,"longitude":-122.33517,"reserved":0,"last_update":"0001-01-01T00:00:00Z","name_a2s":"Uncletopia | Seattle | 2 | All Maps","protocol":17,"map":"koth_cascade","folder":"tf","game":"Team Fortress","app_id":440,"player_count":0,"max_players":24,"Bots":0,"server_type":"Dedicated","server_os":"Linux","password":true,"vac":true,"version":"7882260","steam_id":85568392924469998,"keywords":["cp","nocrits","nodmgspread","uncletopia"],"game_id":440,"stv_port":27026,"stv_name":"Uncletopia | Seattle | 2 | All Maps | STV","players":null},{"server_id":406,"name":"Uncletopia | Seattle | 3 | Stopwatch Beta","name_short":"sea-3","host":"sea-1.us.uncletopia.com","port":27035,"enabled":true,"region":"us-west","cc":"us","latitude":47.608013,"longitude":-122.33517,"reserved":0,"last_update":"0001-01-01T00:00:00Z","name_a2s":"Uncletopia | Seattle | 3 | Stopwatch Beta","protocol":17,"map":"pl_swiftwater_final1","folder":"tf","game":"Team Fortress","app_id":440,"player_count":0,"max_players":24,"Bots":0,"server_type":"Dedicated","server_os":"Linux","password":true,"vac":true,"version":"7882260","steam_id":85568392924515217,"keywords":["nocrits","nodmgspread","payload","uncletopia"],"game_id":440,"stv_port":27036,"stv_name":"Uncletopia | Seattle | 3 | Stopwatch Beta | STV","players":null},{"server_id":17,"name":"Uncletopia | San Francisco | 1 | All Maps","name_short":"sfo-1","host":"sfo-1.us.uncletopia.com","port":27015,"enabled":true,"region":"us-west","cc":"us","latitude":37.77397,"longitude":-122.4313,"reserved":0,"last_update":"0001-01-01T00:00:00Z","name_a2s":"Uncletopia | San Francisco | 1 | All Maps","protocol":17,"map":"koth_viaduct","folder":"tf","game":"Team Fortress","app_id":440,"player_count":0,"max_players":24,"Bots":0,"server_type":"Dedicated","server_os":"Linux","password":true,"vac":true,"version":"7882260","steam_id":85568392924469999,"keywords":["cp","nocrits","nodmgspread","uncletopia"],"game_id":440,"stv_port":27016,"stv_name":"Uncletopia | San Francisco | 1 | All Maps | STV","players":null},{"server_id":18,"name":"Uncletopia | San Francisco | 2 | All Maps","name_short":"sfo-2","host":"sfo-1.us.uncletopia.com","port":27025,"enabled":true,"region":"us-west","cc":"us","latitude":37.77397,"longitude":-122.4313,"reserved":0,"last_update":"0001-01-01T00:00:00Z","name_a2s":"Uncletopia | San Francisco | 2 | All Maps","protocol":17,"map":"koth_highpass","folder":"tf","game":"Team Fortress","app_id":440,"player_count":0,"max_players":24,"Bots":0,"server_type":"Dedicated","server_os":"Linux","password":true,"vac":true,"version":"7882260","steam_id":85568392924470000,"keywords":["cp","nocrits","nodmgspread","uncletopia"],"game_id":440,"stv_port":27026,"stv_name":"Uncletopia | San Francisco | 2 | All Maps | STV","players":null},{"server_id":19,"name":"Uncletopia | San Francisco | 3 | Stopwatch Beta","name_short":"sfo-3","host":"sfo-1.us.uncletopia.com","port":27035,"enabled":true,"region":"us-west","cc":"us","latitude":37.77397,"longitude":-122.4313,"reserved":0,"last_update":"0001-01-01T00:00:00Z","name_a2s":"Uncletopia | San Francisco | 3 | Stopwatch Beta","protocol":17,"map":"pl_frontier_final","folder":"tf","game":"Team Fortress","app_id":440,"player_count":0,"max_players":24,"Bots":0,"server_type":"Dedicated","server_os":"Linux","password":true,"vac":true,"version":"7882260","steam_id":85568392924742824,"keywords":["nocrits","nodmgspread","payload","uncletopia"],"game_id":440,"stv_port":27036,"stv_name":"Uncletopia | San Francisco | 3 | Stopwatch Beta | STV","players":null},{"server_id":20,"name":"Uncletopia | San Francisco | 4 | Community","name_short":"sfo-4","host":"sfo-1.us.uncletopia.com","port":27045,"enabled":true,"region":"us-west","cc":"us","latitude":37.77397,"longitude":-122.4313,"reserved":0,"last_update":"0001-01-01T00:00:00Z","name_a2s":"Uncletopia | San Francisco | 4 | Community","protocol":17,"map":"workshop/koth_slaughter_rc1.ugc1712845210","folder":"tf","game":"Team Fortress","app_id":440,"player_count":0,"max_players":24,"Bots":0,"server_type":"Dedicated","server_os":"Linux","password":true,"vac":true,"version":"7882260","steam_id":85568392924742826,"keywords":["cp","nocrits","nodmgspread","uncletopia"],"game_id":440,"stv_port":27046,"stv_name":"Uncletopia | San Francisco | 4 | Community | STV","players":null},{"server_id":141,"name":"Uncletopia | Sydney | 1 | All Maps","name_short":"syd-1","host":"syd-1.au.uncletopia.com","port":27015,"enabled":true,"region":"au","cc":"au","latitude":-33.865143,"longitude":151.2099,"reserved":0,"last_update":"0001-01-01T00:00:00Z","name_a2s":"Uncletopia | Sydney | 1 | All Maps","protocol":17,"map":"pl_thundermountain","folder":"tf","game":"Team Fortress","app_id":440,"player_count":17,"max_players":24,"Bots":0,"server_type":"Dedicated","server_os":"Linux","password":true,"vac":true,"version":"7882260","steam_id":85568392924470001,"keywords":["nocrits","nodmgspread","payload","uncletopia"],"game_id":440,"stv_port":27016,"stv_name":"Uncletopia | Sydney | 1 | All Maps | STV","players":[{"user_id":303,"name":"DropBearWarrior","steam_id":76561198352774039,"connected_time":2844000000000,"state":"active","ping":79},{"user_id":248,"name":"Jodelk√∂nig Franzl Lang","steam_id":76561198007667830,"connected_time":6521000000000,"state":"active","ping":51},{"user_id":297,"name":"‚ô• BILL!!! ‚ô•","steam_id":76561198066726621,"connected_time":3688000000000,"state":"active","ping":45},{"user_id":295,"name":"Tees","steam_id":76561199174602317,"connected_time":3756000000000,"state":"active","ping":51},{"user_id":293,"name":"bumbling idiot","steam_id":76561198127848228,"connected_time":4131000000000,"state":"active","ping":70},{"user_id":322,"name":"oly","steam_id":76561198853357056,"connected_time":1295000000000,"state":"active","ping":95},{"user_id":323,"name":"floppinv2","steam_id":76561198213566569,"connected_time":996000000000,"state":"active","ping":105},{"user_id":277,"name":"misato???","steam_id":76561199099744527,"connected_time":4955000000000,"state":"active","ping":45},{"user_id":288,"name":"Italotron","steam_id":76561199081848498,"connected_time":4402000000000,"state":"active","ping":59},{"user_id":316,"name":"Sinister80s","steam_id":76561198343540472,"connected_time":1666000000000,"state":"active","ping":70},{"user_id":324,"name":"Fyre Rose","steam_id":76561198000527551,"connected_time":513000000000,"state":"active","ping":75},{"user_id":333,"name":"Theducktube","steam_id":76561198137265224,"connected_time":110000000000,"state":"active","ping":171},{"user_id":307,"name":"Gnat","steam_id":76561198109747863,"connected_time":2095000000000,"state":"active","ping":100},{"user_id":325,"name":"Marrow","steam_id":76561198123605344,"connected_time":455000000000,"state":"active","ping":67},{"user_id":302,"name":"thrax","steam_id":76561197992385270,"connected_time":2897000000000,"state":"active","ping":46},{"user_id":242,"name":"clotpole","steam_id":76561198951093608,"connected_time":6952000000000,"state":"active","ping":64},{"user_id":328,"name":"moflow081703","steam_id":76561198357274326,"connected_time":286000000000,"state":"active","ping":51}]},{"server_id":123,"name":"Uncletopia | Sydney | 2 | All Maps","name_short":"syd-2","host":"syd-1.au.uncletopia.com","port":27025,"enabled":true,"region":"au","cc":"au","latitude":-33.865143,"longitude":151.2099,"reserved":0,"last_update":"0001-01-01T00:00:00Z","name_a2s":"Uncletopia | Sydney | 2 | All Maps","protocol":17,"map":"pl_snowycoast","folder":"tf","game":"Team Fortress","app_id":440,"player_count":24,"max_players":24,"Bots":0,"server_type":"Dedicated","server_os":"Linux","password":true,"vac":true,"version":"7882260","steam_id":85568392924470002,"keywords":["nocrits","nodmgspread","payload","uncletopia"],"game_id":440,"stv_port":27026,"stv_name":"Uncletopia | Sydney | 2 | All Maps | STV","players":[{"user_id":431,"name":"Aiden","steam_id":76561198969837243,"connected_time":3519000000000,"state":"active","ping":105},{"user_id":432,"name":"eiei000ejei.com","steam_id":76561199275387863,"connected_time":3503000000000,"state":"active","ping":116},{"user_id":433,"name":"L.S.S","steam_id":76561199133089157,"connected_time":3499000000000,"state":"active","ping":129},{"user_id":467,"name":"Sover blw.tf","steam_id":76561198136347837,"connected_time":724000000000,"state":"active","ping":130},{"user_id":436,"name":"Don't Touch My Fries!","steam_id":76561198337147897,"connected_time":2999000000000,"state":"active","ping":63},{"user_id":471,"name":"Akedus","steam_id":76561198123038858,"connected_time":478000000000,"state":"active","ping":58},{"user_id":449,"name":"mysteriouslyseeing","steam_id":76561198858335738,"connected_time":1604000000000,"state":"active","ping":69},{"user_id":464,"name":"Nugget","steam_id":76561197961747465,"connected_time":858000000000,"state":"active","ping":90},{"user_id":442,"name":"Just Wam","steam_id":76561198025584563,"connected_time":2557000000000,"state":"active","ping":96},{"user_id":451,"name":"Ghost2000|youtuber","steam_id":76561199221710689,"connected_time":1516000000000,"state":"active","ping":115},{"user_id":447,"name":"Cris.p bacon","steam_id":76561199230423491,"connected_time":1798000000000,"state":"active","ping":106},{"user_id":448,"name":"Original Dog","steam_id":76561198046480594,"connected_time":1728000000000,"state":"active","ping":84},{"user_id":452,"name":"Alfred Einstein","steam_id":76561198050160041,"connected_time":1502000000000,"state":"active","ping":64},{"user_id":457,"name":"Kremmen","steam_id":76561198051368641,"connected_time":1086000000000,"state":"active","ping":70},{"user_id":476,"name":"Mogin","steam_id":76561199020454029,"connected_time":117000000000,"state":"active","ping":111},{"user_id":472,"name":"Golden Schnitzel","steam_id":76561198151983448,"connected_time":422000000000,"state":"active","ping":52},{"user_id":459,"name":"bonkers","steam_id":76561199367569448,"connected_time":1015000000000,"state":"active","ping":61},{"user_id":465,"name":"biff","steam_id":76561198069603865,"connected_time":845000000000,"state":"active","ping":58},{"user_id":468,"name":"[FTW] RonnieD'","steam_id":76561197993957267,"connected_time":687000000000,"state":"active","ping":49},{"user_id":463,"name":"RustyMeat","steam_id":76561198119162442,"connected_time":899000000000,"state":"active","ping":76},{"user_id":474,"name":"Matt","steam_id":76561198006791420,"connected_time":233000000000,"state":"active","ping":97},{"user_id":469,"name":"Zepi","steam_id":76561198018887052,"connected_time":655000000000,"state":"active","ping":51},{"user_id":479,"name":"Trucee","steam_id":76561198202560386,"connected_time":11000000000,"state":"active","ping":246},{"user_id":478,"name":"itsame","steam_id":76561198059284918,"connected_time":62000000000,"state":"active","ping":49}]},{"server_id":395,"name":"Uncletopia | Sydney | 3 | All Maps","name_short":"syd-3","host":"syd-1.au.uncletopia.com","port":27035,"enabled":true,"region":"au","cc":"au","latitude":-33.865143,"longitude":151.2099,"reserved":0,"last_update":"0001-01-01T00:00:00Z","name_a2s":"Uncletopia | Sydney | 3 | All Maps","protocol":17,"map":"koth_viaduct","folder":"tf","game":"Team Fortress","app_id":440,"player_count":0,"max_players":24,"Bots":0,"server_type":"Dedicated","server_os":"Linux","password":true,"vac":true,"version":"7882260","steam_id":85568392925194467,"keywords":["cp","nocrits","nodmgspread","uncletopia"],"game_id":440,"stv_port":27036,"stv_name":"Uncletopia | Sydney | 3 | All Maps | STV","players":null},{"server_id":396,"name":"Uncletopia | Sydney | 4 | All Maps","name_short":"syd-4","host":"syd-1.au.uncletopia.com","port":27045,"enabled":true,"region":"au","cc":"au","latitude":-33.865143,"longitude":151.2099,"reserved":0,"last_update":"0001-01-01T00:00:00Z","name_a2s":"Uncletopia | Sydney | 4 | All Maps","protocol":17,"map":"koth_highpass","folder":"tf","game":"Team Fortress","app_id":440,"player_count":0,"max_players":24,"Bots":0,"server_type":"Dedicated","server_os":"Linux","password":true,"vac":true,"version":"7882260","steam_id":85568392925397958,"keywords":["cp","nocrits","nodmgspread","uncletopia"],"game_id":440,"stv_port":27046,"stv_name":"Uncletopia | Sydney | 4 | All Maps | STV","players":null},{"server_id":58,"name":"Uncletopia | Sydney | 5 | Stopwatch Beta","name_short":"syd-5","host":"syd-1.au.uncletopia.com","port":27055,"enabled":true,"region":"au","cc":"au","latitude":-33.865143,"longitude":151.2099,"reserved":0,"last_update":"0001-01-01T00:00:00Z","name_a2s":"Uncletopia | Sydney | 5 | Stopwatch Beta","protocol":17,"map":"koth_highpass","folder":"tf","game":"Team Fortress","app_id":440,"player_count":0,"max_players":24,"Bots":0,"server_type":"Dedicated","server_os":"Linux","password":true,"vac":true,"version":"7882260","steam_id":85568392925397959,"keywords":["cp","nocrits","nodmgspread","uncletopia"],"game_id":440,"stv_port":27056,"stv_name":"Uncletopia | Sydney | 5 | Stopwatch Beta | STV","players":null},{"server_id":59,"name":"Uncletopia | Sydney | 6 | Community","name_short":"syd-6","host":"syd-1.au.uncletopia.com","port":27065,"enabled":true,"region":"au","cc":"au","latitude":-33.865143,"longitude":151.2099,"reserved":0,"last_update":"0001-01-01T00:00:00Z","name_a2s":"Uncletopia | Sydney | 6 | Community","protocol":17,"map":"workshop/koth_product_final.ugc454272353","folder":"tf","game":"Team Fortress","app_id":440,"player_count":0,"max_players":24,"Bots":0,"server_type":"Dedicated","server_os":"Linux","password":true,"vac":true,"version":"7882260","steam_id":85568392925397960,"keywords":["cp","nocrits","nodmgspread","uncletopia"],"game_id":440,"stv_port":27066,"stv_name":"Uncletopia | Sydney | 6 | Community | STV","players":null},{"server_id":49,"name":"Uncletopia | Warsaw | 1 | All Maps","name_short":"waw-1","host":"waw-1.pl.uncletopia.com","port":27015,"enabled":true,"region":"eu","cc":"pl","latitude":52.2297,"longitude":21.017532,"reserved":0,"last_update":"0001-01-01T00:00:00Z","name_a2s":"","protocol":0,"map":"","folder":"","game":"","app_id":0,"player_count":0,"max_players":0,"Bots":0,"server_type":"","server_os":"","password":false,"vac":false,"version":"","steam_id":0,"keywords":null,"game_id":0,"stv_port":0,"stv_name":"","players":null},{"server_id":50,"name":"Uncletopia | Warsaw | 2 | All Maps","name_short":"waw-2","host":"waw-1.pl.uncletopia.com","port":27025,"enabled":true,"region":"eu","cc":"pl","latitude":52.2297,"longitude":21.017532,"reserved":0,"last_update":"0001-01-01T00:00:00Z","name_a2s":"Uncletopia | Warsaw | 2 | All Maps","protocol":17,"map":"pl_upward","folder":"tf","game":"Team Fortress","app_id":440,"player_count":0,"max_players":24,"Bots":0,"server_type":"Dedicated","server_os":"Linux","password":true,"vac":true,"version":"7882260","steam_id":85568392925397851,"keywords":["nocrits","nodmgspread","payload","uncletopia"],"game_id":440,"stv_port":27026,"stv_name":"Uncletopia | Warsaw | 2 | All Maps | STV","players":null},{"server_id":51,"name":"Uncletopia | Warsaw | 3 | All Maps","name_short":"waw-3","host":"waw-1.pl.uncletopia.com","port":27035,"enabled":true,"region":"eu","cc":"pl","latitude":52.2297,"longitude":21.017532,"reserved":0,"last_update":"0001-01-01T00:00:00Z","name_a2s":"Uncletopia | Warsaw | 3 | All Maps","protocol":17,"map":"koth_viaduct","folder":"tf","game":"Team Fortress","app_id":440,"player_count":2,"max_players":24,"Bots":0,"server_type":"Dedicated","server_os":"Linux","password":true,"vac":true,"version":"7882260","steam_id":85568392925397852,"keywords":["cp","nocrits","nodmgspread","uncletopia"],"game_id":440,"stv_port":27036,"stv_name":"Uncletopia | Warsaw | 3 | All Maps | STV","players":[{"user_id":3,"name":"Noida","steam_id":76561198833044733,"connected_time":80000000000,"state":"active","ping":69},{"user_id":4,"name":"XaDen","steam_id":76561199168000180,"connected_time":34000000000,"state":"active","ping":64}]},{"server_id":52,"name":"Uncletopia | Warsaw | 4 | All Maps","name_short":"waw-4","host":"waw-1.pl.uncletopia.com","port":27045,"enabled":true,"region":"eu","cc":"pl","latitude":52.2297,"longitude":21.017532,"reserved":0,"last_update":"0001-01-01T00:00:00Z","name_a2s":"Uncletopia | Warsaw | 4 | All Maps","protocol":17,"map":"koth_highpass","folder":"tf","game":"Team Fortress","app_id":440,"player_count":0,"max_players":24,"Bots":0,"server_type":"Dedicated","server_os":"Linux","password":true,"vac":true,"version":"7882260","steam_id":85568392925397853,"keywords":["cp","nocrits","nodmgspread","uncletopia"],"game_id":440,"stv_port":27046,"stv_name":"Uncletopia | Warsaw | 4 | All Maps | STV","players":null},{"server_id":53,"name":"Uncletopia | Warsaw | 5 | Stopwatch Beta","name_short":"waw-5","host":"waw-1.pl.uncletopia.com","port":27055,"enabled":true,"region":"eu","cc":"pl","latitude":52.2297,"longitude":21.017532,"reserved":0,"last_update":"0001-01-01T00:00:00Z","name_a2s":"Uncletopia | Warsaw | 5 | Stopwatch Beta","protocol":17,"map":"cp_mountainlab","folder":"tf","game":"Team Fortress","app_id":440,"player_count":0,"max_players":24,"Bots":0,"server_type":"Dedicated","server_os":"Linux","password":true,"vac":true,"version":"7882260","steam_id":85568392925397854,"keywords":["cp","nocrits","nodmgspread","uncletopia"],"game_id":440,"stv_port":27056,"stv_name":"Uncletopia | Warsaw | 5 | Stopwatch Beta | STV","players":null},{"server_id":54,"name":"Uncletopia | Warsaw | 6 | Community","name_short":"waw-6","host":"waw-1.pl.uncletopia.com","port":27065,"enabled":true,"region":"eu","cc":"pl","latitude":52.2297,"longitude":21.017532,"reserved":0,"last_update":"0001-01-01T00:00:00Z","name_a2s":"Uncletopia | Warsaw | 6 | Community","protocol":17,"map":"koth_viaduct","folder":"tf","game":"Team Fortress","app_id":440,"player_count":0,"max_players":24,"Bots":0,"server_type":"Dedicated","server_os":"Linux","password":true,"vac":true,"version":"7882260","steam_id":85568392925397856,"keywords":["cp","nocrits","nodmgspread","uncletopia"],"game_id":440,"stv_port":27066,"stv_name":"Uncletopia | Warsaw | 6 | Community | STV","players":null}]}