{"status":true,"message":"","result":[{"server_id":9,"name":"Uncletopia | Atlanta | 1 | All Maps","name_short":"atl-1","host":"atl-1.us.uncletopia.com","port":27015,"enabled":true,"region":"us-east","cc":"us","latitude":33.753746,"longitude":-84.38633,"reserved":0,"last_update":"0001-01-01T00:00:00Z","name_a2s":"Uncletopia | Atlanta | 1 | All Maps","protocol":17,"map":"cp_process_final","folder":"tf","game":"Team Fortress","app_id":440,"player_count":24,"max_players":24,"Bots":0,"server_type":"Dedicated","server_os":"Linux","password":true,"vac":true,"version":"7882260","steam_id":85568392924469982,"keywords":["cp","nocrits","nodmgspread","uncletopia"],"game_id":440,"stv_port":27016,"stv_name":"Uncletopia | Atlanta | 1 | All Maps | STV","players":[{"user_id":282,"name":"David De Bergerac","steam_id":76561198010306294,"connected_time":943000000000,"state":"active","ping":80},{"user_id":266,"name":"hippo mode","steam_id":76561198073455521,"connected_time":2071000000000,"state":"active","ping":58},{"user_id":206,"name":"tasty","steam_id":76561198083839061,"connected_time":6213000000000,"state":"active","ping":67},{"user_id":287,"name":"‚òπ","steam_id":76561198804763186,"connected_time":349000000000,"state":"active","ping":61},{"user_id":248,"name":"catfish from toontown","steam_id":76561198060070002,"connected_time":3625000000000,"state":"active","ping":93},{"user_id":271,"name":"mothra","steam_id":76561198994634058,"connected_time":1675000000000,"state":"active","ping":68},{"user_id":255,"name":"Kaiju","steam_id":76561198035703156,"connected_time":2874000000000,"state":"active","ping":59},{"user_id":288,"name":"‡≤†_‡≤†","steam_id":76561198096221632,"connected_time":319000000000,"state":"active","ping":45},{"user_id":284,"name":"kingjeffry2012@hotmail.com","steam_id":76561198314104415,"connected_time":912000000000,"state":"active","ping":59},{"user_id":290,"name":"SlurpyTheDog","steam_id":76561198799733154,"connected_time":50000000000,"state":"active","ping":55},{"user_id":273,"name":"RarestGuide","steam_id":76561198050338923,"connected_time":1612000000000,"state":"active","ping":69},{"user_id":280,"name":"Grand Piano Tuna","steam_id":76561198135137213,"connected_time":1078000000000,"state":"active","ping":68},{"user_id":269,"name":"Paleo","steam_id":76561198053493855,"connected_time":1938000000000,"state":"active","ping":75},{"user_id":285,"name":"KBoneski ‚ô°","steam_id":76561198307409065,"connected_time":846000000000,"state":"active","ping":105},{"user_id":289,"name":"kite","steam_id":76561198346516392,"connected_time":199000000000,"state":"active","ping":85},{"user_id":215,"name":"Cursed Dog","steam_id":76561198090785078,"connected_time":5967000000000,"state":"active","ping":104},{"user_id":270,"name":"Tea Enthusiast","steam_id":76561198185583925,"connected_time":1922000000000,"state":"active","ping":74},{"user_id":231,"name":"alchemist","steam_id":76561198042595246,"connected_time":4773000000000,"state":"active","ping":61},{"user_id":262,"name":"TeyiaYT","steam_id":76561199216048520,"connected_time":2664000000000,"state":"active","ping":95},{"user_id":277,"name":"Phat Cat","steam_id":76561198123017274,"connected_time":1400000000000,"state":"active","ping":59},{"user_id":247,"name":"pool shark","steam_id":76561198130191179,"connected_time":3650000000000,"state":"active","ping":96},{"user_id":233,"name":"Bean Adjecant","steam_id":76561198039188307,"connected_time":4758000000000,"state":"active","ping":95},{"user_id":279,"name":"AlcoholicDad454","steam_id":76561198157414556,"connected_time":1096000000000,"state":"active","ping":67},{"user_id":234,"name":"sssaturn","steam_id":76561198118761367,"connected_time":4750000000000,"state":"active","ping":60}]},{"server_id":104,"name":"Uncletopia | Atlanta | 2 | All Maps","name_short":"atl-2","host":"atl-1.us.uncletopia.com","port":27025,"enabled":true,"region":"us-east","cc":"us","latitude":33.753746,"longitude":-84.38633,"reserved":0,"last_update":"0001-01-01T00:00:00Z","name_a2s":"Uncletopia | Atlanta | 2 | All Maps","protocol":17,"map":"pl_borneo","folder":"tf","game":"Team Fortress","app_id":440,"player_count":23,"max_players":24,"Bots":0,"server_type":"Dedicated","server_os":"Linux","password":true,"vac":true,"version":"7882260","steam_id":85568392924469983,"keywords":["nocrits","nodmgspread","payload","uncletopia"],"game_id":440,"stv_port":27026,"stv_name":"Uncletopia | Atlanta | 2 | All Maps | STV","players":[{"user_id":124,"name":"Drapph","steam_id":76561199384213314,"connected_time":475000000000,"state":"active","ping":88},{"user_id":125,"name":"TOKENLIZARD","steam_id":76561198218765205,"connected_time":55000000000,"state":"active","ping":89},{"user_id":109,"name":"dave","steam_id":76561198944952153,"connected_time":1242000000000,"state":"active","ping":60},{"user_id":111,"name":"izzydex","steam_id":76561199101531034,"connected_time":1208000000000,"state":"active","ping":76},{"user_id":113,"name":"pogo","steam_id":76561198148913461,"connected_time":1187000000000,"state":"active","ping":66},{"user_id":114,"name":"Muromasa","steam_id":76561198069883531,"connected_time":1186000000000,"state":"active","ping":87},{"user_id":92,"name":"Smoothbrain","steam_id":76561198154518912,"connected_time":2944000000000,"state":"active","ping":75},{"user_id":110,"name":"lilith","steam_id":76561198194471251,"connected_time":1230000000000,"state":"active","ping":31},{"user_id":108,"name":"adda","steam_id":76561198309013410,"connected_time":1262000000000,"state":"active","ping":74},{"user_id":69,"name":"the silly","steam_id":76561198850632709,"connected_time":3916000000000,"state":"active","ping":67},{"user_id":119,"name":"Grilled Jizo","steam_id":76561199250875340,"connected_time":1102000000000,"state":"active","ping":122},{"user_id":61,"name":"Sup m8","steam_id":76561198081659121,"connected_time":4273000000000,"state":"active","ping":45},{"user_id":106,"name":"ThatOneGuy831","steam_id":76561198000422558,"connected_time":1271000000000,"state":"active","ping":78},{"user_id":126,"name":"Random","steam_id":76561198318879454,"connected_time":45000000000,"state":"active","ping":87},{"user_id":104,"name":"Cassini","steam_id":76561198318526294,"connected_time":1285000000000,"state":"active","ping":44},{"user_id":127,"name":"Catastrobi","steam_id":76561198391022751,"connected_time":40000000000,"state":"spawning","ping":59},{"user_id":120,"name":"Notsocreative","steam_id":76561198236372202,"connected_time":1035000000000,"state":"active","ping":65},{"user_id":97,"name":"the piss maker (F2P)","steam_id":76561199338113724,"connected_time":2229000000000,"state":"active","ping":100},{"user_id":116,"name":"i love tranq","steam_id":76561198241948526,"connected_time":1168000000000,"state":"active","ping":81},{"user_id":128,"name":"Iron Argus","steam_id":76561198181088245,"connected_time":16000000000,"state":"spawning","ping":73},{"user_id":118,"name":"TastyWheat","steam_id":76561198855061918,"connected_time":1159000000000,"state":"active","ping":115},{"user_id":93,"name":"Oopsie Daisy ‚ùã","steam_id":76561198042144492,"connected_time":2840000000000,"state":"active","ping":51},{"user_id":102,"name":"Bulletbombat","steam_id":76561199122280347,"connected_time":1573000000000,"state":"active","ping":242}]},{"server_id":400,"name":"Uncletopia | Atlanta | 3 | Community","name_short":"atl-3","host":"atl-1.us.uncletopia.com","port":27035,"enabled":true,"region":"us-east","cc":"us","latitude":33.753746,"longitude":-84.38633,"reserved":0,"last_update":"0001-01-01T00:00:00Z","name_a2s":"Uncletopia | Atlanta | 3 | Community","protocol":17,"map":"workshop/pl_corrode_rc2.ugc546577989","folder":"tf","game":"Team Fortress","app_id":440,"player_count":0,"max_players":24,"Bots":0,"server_type":"Dedicated","server_os":"Linux","password":true,"vac":true,"version":"7882260","steam_id":85568392924515187,"keywords":["nocrits","nodmgspread","payload","uncletopia"],"game_id":440,"stv_port":27036,"stv_name":"Uncletopia | Atlanta | 3 | Community | STV","players":null},{"server_id":401,"name":"Uncletopia | Atlanta | 4 | No Payload","name_short":"atl-4","host":"atl-1.us.uncletopia.com","port":27045,"enabled":true,"region":"us-east","cc":"us","latitude":33.753746,"longitude":-84.38633,"reserved":0,"last_update":"0001-01-01T00:00:00Z","name_a2s":"","protocol":0,"map":"","folder":"","game":"","app_id":0,"player_count":0,"max_players":0,"Bots":0,"server_type":"","server_os":"","password":false,"vac":false,"version":"","steam_id":0,"keywords":null,"game_id":0,"stv_port":0,"stv_name":"","players":null},{"server_id":2,"name":"Uncletopia | Chicago | 1 | All Maps","name_short":"chi-1","host":"chi-1.us.uncletopia.com","port":27015,"enabled":true,"region":"us-central","cc":"us","latitude":41.881832,"longitude":-87.62318,"reserved":0,"last_update":"0001-01-01T00:00:00Z","name_a2s":"Uncletopia | Chicago | 1 | All Maps","protocol":17,"map":"cp_mountainlab","folder":"tf","game":"Team Fortress","app_id":440,"player_count":24,"max_players":24,"Bots":0,"server_type":"Dedicated","server_os":"Linux","password":true,"vac":true,"version":"7882260","steam_id":85568392924469984,"keywords":["cp","nocrits","nodmgspread","uncletopia"],"game_id":440,"stv_port":27016,"stv_name":"Uncletopia | Chicago | 1 | All Maps | STV","players":[{"user_id":439,"name":"badasscoolboy57","steam_id":76561198795412055,"connected_time":4189000000000,"state":"active","ping":81},{"user_id":466,"name":"carter","steam_id":76561198391280639,"connected_time":1487000000000,"state":"active","ping":47},{"user_id":476,"name":"Bean (real)","steam_id":76561199215043894,"connected_time":491000000000,"state":"active","ping":71},{"user_id":450,"name":"Also Known As Assteeth","steam_id":76561198049837377,"connected_time":2501000000000,"state":"active","ping":48},{"user_id":475,"name":"Whammy","steam_id":76561197984525567,"connected_time":523000000000,"state":"active","ping":84},{"user_id":477,"name":"floppy muppet","steam_id":76561198003076261,"connected_time":486000000000,"state":"active","ping":80},{"user_id":453,"name":"dr sex, md (sexologist)","steam_id":76561198115874625,"connected_time":2465000000000,"state":"active","ping":83},{"user_id":478,"name":"Chip Skylark","steam_id":76561198148263717,"connected_time":470000000000,"state":"active","ping":60},{"user_id":470,"name":"Mug Moment Gaming","steam_id":76561198233098136,"connected_time":985000000000,"state":"active","ping":69},{"user_id":442,"name":"Doubting Dave","steam_id":76561198066410749,"connected_time":3933000000000,"state":"active","ping":65},{"user_id":479,"name":"TheSquirrelofHuscurl","steam_id":76561198073379623,"connected_time":452000000000,"state":"active","ping":83},{"user_id":437,"name":"Blackbird","steam_id":76561198127818333,"connected_time":4320000000000,"state":"active","ping":50},{"user_id":471,"name":"viagra addict","steam_id":76561198017705248,"connected_time":841000000000,"state":"active","ping":45},{"user_id":472,"name":"Mburesh","steam_id":76561198137460717,"connected_time":826000000000,"state":"active","ping":55},{"user_id":457,"name":"Chestnut","steam_id":76561198078198968,"connected_time":2226000000000,"state":"active","ping":68},{"user_id":484,"name":"Fudge_Cake","steam_id":76561198059218167,"connected_time":163000000000,"state":"active","ping":81},{"user_id":480,"name":"Wigl","steam_id":76561198019324464,"connected_time":448000000000,"state":"active","ping":70},{"user_id":416,"name":"blob","steam_id":76561198122375328,"connected_time":5246000000000,"state":"active","ping":59},{"user_id":456,"name":"MgMaster7","steam_id":76561199229916638,"connected_time":2334000000000,"state":"active","ping":62},{"user_id":481,"name":"incompetentmedic","steam_id":76561199466073856,"connected_time":336000000000,"state":"active","ping":63},{"user_id":449,"name":"formerly blunz","steam_id":76561198420227358,"connected_time":2933000000000,"state":"active","ping":72},{"user_id":448,"name":"Peazy","steam_id":76561198168365864,"connected_time":3388000000000,"state":"active","ping":90},{"user_id":483,"name":"Œî ryan b'y","steam_id":76561197977850475,"connected_time":311000000000,"state":"active","ping":112},{"user_id":469,"name":"falugger1","steam_id":76561198113363042,"connected_time":1063000000000,"state":"active","ping":66}]},{"server_id":106,"name":"Uncletopia | Chicago | 2 | All Maps","name_short":"chi-2","host":"chi-1.us.uncletopia.com","port":27025,"enabled":true,"region":"us-central","cc":"us","latitude":41.881832,"longitude":-87.62318,"reserved":0,"last_update":"0001-01-01T00:00:00Z","name_a2s":"Uncletopia | Chicago | 2 | All Maps","protocol":17,"map":"cp_gorge","folder":"tf","game":"Team Fortress","app_id":440,"player_count":15,"max_players":24,"Bots":0,"server_type":"Dedicated","server_os":"Linux","password":true,"vac":true,"version":"7882260","steam_id":85568392924469985,"keywords":["cp","nocrits","nodmgspread","uncletopia"],"game_id":440,"stv_port":27026,"stv_name":"Uncletopia | Chicago | 2 | All Maps | STV","players":[{"user_id":45,"name":"crusher1598","steam_id":76561199160459733,"connected_time":194000000000,"state":"active","ping":43},{"user_id":40,"name":"HollyBlocky","steam_id":76561198030156100,"connected_time":363000000000,"state":"active","ping":62},{"user_id":22,"name":"ParTwo","steam_id":76561198011762629,"connected_time":1362000000000,"state":"active","ping":56},{"user_id":24,"name":"chronos","steam_id":76561199077776159,"connected_time":1242000000000,"state":"active","ping":190},{"user_id":26,"name":"dark souls boss","steam_id":76561198316610724,"connected_time":1184000000000,"state":"active","ping":85},{"user_id":42,"name":"SSdazed","steam_id":76561198971914486,"connected_time":280000000000,"state":"active","ping":32},{"user_id":30,"name":"Fresh Lychee","steam_id":76561198045399559,"connected_time":1042000000000,"state":"active","ping":48},{"user_id":31,"name":"Xzan","steam_id":76561198324944908,"connected_time":955000000000,"state":"active","ping":63},{"user_id":47,"name":"Charredgp","steam_id":76561197998827889,"connected_time":45000000000,"state":"active","ping":45},{"user_id":39,"name":"The World's Softest Sandwich","steam_id":76561198015577707,"connected_time":486000000000,"state":"active","ping":102},{"user_id":34,"name":"spud stealer 2000","steam_id":76561199264293695,"connected_time":759000000000,"state":"active","ping":56},{"user_id":48,"name":"Mediocre Gaming","steam_id":76561199230467980,"connected_time":20000000000,"state":"spawning","ping":64},{"user_id":49,"name":"sock","steam_id":76561199117597830,"connected_time":12000000000,"state":"spawning","ping":69},{"user_id":44,"name":"tay k out of prison","steam_id":76561198253731826,"connected_time":234000000000,"state":"active","ping":48},{"user_id":46,"name":"Infinity","steam_id":76561199134919099,"connected_time":169000000000,"state":"active","ping":67}]},{"server_id":402,"name":"Uncletopia | Chicago | 3 | All Maps","name_short":"chi-3","host":"chi-1.us.uncletopia.com","port":27035,"enabled":true,"region":"us-central","cc":"us","latitude":41.881832,"longitude":-87.62318,"reserved":0,"last_update":"0001-01-01T00:00:00Z","name_a2s":"Uncletopia | Chicago | 3 | All Maps","protocol":17,"map":"pl_upward","folder":"tf","game":"Team Fortress","app_id":440,"player_count":24,"max_players":24,"Bots":0,"server_type":"Dedicated","server_os":"Linux","password":true,"vac":true,"version":"7882260","steam_id":85568392924515191,"keywords":["nocrits","nodmgspread","payload","uncletopia"],"game_id":440,"stv_port":27036,"stv_name":"Uncletopia | Chicago | 3 | All Maps | STV","players":[{"user_id":112,"name":"Auto_Correct","steam_id":76561198254988078,"connected_time":9867000000000,"state":"active","ping":83},{"user_id":219,"name":"faxxy","steam_id":76561198079621240,"connected_time":586000000000,"state":"active","ping":67},{"user_id":167,"name":"Fobby #Savetf2","steam_id":76561198047681469,"connected_time":4620000000000,"state":"active","ping":76},{"user_id":228,"name":"Cdesmondd","steam_id":76561198072774462,"connected_time":84000000000,"state":"active","ping":55},{"user_id":220,"name":"3xtr3m3rWbyFan2901025","steam_id":76561198042286766,"connected_time":551000000000,"state":"active","ping":57},{"user_id":192,"name":"Yada #savetf2","steam_id":76561199103981181,"connected_time":2360000000000,"state":"active","ping":73},{"user_id":221,"name":"eredyn lft rgb","steam_id":76561198868116439,"connected_time":493000000000,"state":"active","ping":70},{"user_id":213,"name":"Sposeidon","steam_id":76561199044781490,"connected_time":1087000000000,"state":"active","ping":57},{"user_id":203,"name":"Eins","steam_id":76561199030343810,"connected_time":1831000000000,"state":"active","ping":79},{"user_id":222,"name":"General incompetence","steam_id":76561198967694381,"connected_time":477000000000,"state":"active","ping":71},{"user_id":223,"name":"MondoDong","steam_id":76561197991400109,"connected_time":394000000000,"state":"active","ping":59},{"user_id":224,"name":"Victor","steam_id":76561198848984975,"connected_time":376000000000,"state":"active","ping":80},{"user_id":204,"name":"The Horselords and Animal Gods","steam_id":76561197975094050,"connected_time":1830000000000,"state":"active","ping":109},{"user_id":225,"name":"ghastlierest gamer","steam_id":76561198057374871,"connected_time":314000000000,"state":"active","ping":61},{"user_id":226,"name":"MDD","steam_id":76561197998850659,"connected_time":302000000000,"state":"active","ping":81},{"user_id":212,"name":"RLC_","steam_id":76561198381190305,"connected_time":1188000000000,"state":"active","ping":118},{"user_id":216,"name":"CeigeBirb","steam_id":76561198068538473,"connected_time":705000000000,"state":"active","ping":75},{"user_id":218,"name":"Fluffeline","steam_id":76561198352909489,"connected_time":607000000000,"state":"active","ping":138},{"user_id":202,"name":"MidSobbes08","steam_id":76561199013101925,"connected_time":1836000000000,"state":"active","ping":85},{"user_id":115,"name":"Bomberman6868","steam_id":76561198101086506,"connected_time":9577000000000,"state":"active","ping":48},{"user_id":217,"name":"TheRiGuy21","steam_id":76561199466243640,"connected_time":672000000000,"state":"active","ping":84},{"user_id":227,"name":"TwoBit","steam_id":76561198062437559,"connected_time":289000000000,"state":"active","ping":75},{"user_id":207,"name":"Yummy Kabobz","steam_id":76561198067661705,"connected_time":1789000000000,"state":"active","ping":62},{"user_id":208,"name":"The Poop Dealer","steam_id":76561198141198352,"connected_time":1603000000000,"state":"active","ping":46}]},{"server_id":403,"name":"Uncletopia | Chicago | 4 | All Maps","name_short":"chi-4","host":"chi-1.us.uncletopia.com","port":27045,"enabled":true,"region":"us-central","cc":"us","latitude":41.881832,"longitude":-87.62318,"reserved":0,"last_update":"0001-01-01T00:00:00Z","name_a2s":"Uncletopia | Chicago | 4 | All Maps","protocol":17,"map":"pl_swiftwater_final1","folder":"tf","game":"Team Fortress","app_id":440,"player_count":24,"max_players":24,"Bots":0,"server_type":"Dedicated","server_os":"Linux","password":true,"vac":true,"version":"7882260","steam_id":85568392924515193,"keywords":["nocrits","nodmgspread","payload","uncletopia"],"game_id":440,"stv_port":27046,"stv_name":"Uncletopia | Chicago | 4 | All Maps | STV","players":[{"user_id":353,"name":"god gamer","steam_id":76561198168149434,"connected_time":1391000000000,"state":"active","ping":112},{"user_id":366,"name":"Ddonut gamer","steam_id":76561198858852245,"connected_time":228000000000,"state":"active","ping":116},{"user_id":367,"name":"scapegoat","steam_id":76561198188722751,"connected_time":226000000000,"state":"active","ping":90},{"user_id":363,"name":"[BBW] Justario","steam_id":76561198016095410,"connected_time":300000000000,"state":"active","ping":70},{"user_id":368,"name":"Tlaloc","steam_id":76561198375215983,"connected_time":182000000000,"state":"active","ping":120},{"user_id":371,"name":"gayass","steam_id":76561198396326793,"connected_time":139000000000,"state":"active","ping":89},{"user_id":227,"name":"Hindmost","steam_id":76561199081837220,"connected_time":10153000000000,"state":"active","ping":81},{"user_id":314,"name":"An Axe Man With An Axe Plan","steam_id":76561199031265293,"connected_time":4007000000000,"state":"active","ping":78},{"user_id":365,"name":"Raptoria","steam_id":76561198105613110,"connected_time":293000000000,"state":"active","ping":46},{"user_id":338,"name":"Infinitytacos","steam_id":76561198884260211,"connected_time":2651000000000,"state":"active","ping":61},{"user_id":339,"name":"Redninka","steam_id":76561198426721366,"connected_time":2613000000000,"state":"active","ping":73},{"user_id":329,"name":"d-_-b","steam_id":76561198120725877,"connected_time":3306000000000,"state":"active","ping":45},{"user_id":375,"name":"RaddaRaddaMan","steam_id":76561198354669477,"connected_time":90000000000,"state":"active","ping":111},{"user_id":340,"name":"King Of The Chill","steam_id":76561197971394640,"connected_time":2606000000000,"state":"active","ping":86},{"user_id":346,"name":"PoisonIvy","steam_id":76561198072384574,"connected_time":2040000000000,"state":"active","ping":49},{"user_id":372,"name":"gaming elliptical","steam_id":76561198013456569,"connected_time":136000000000,"state":"active","ping":48},{"user_id":373,"name":"Emperor Trombone","steam_id":76561199018354359,"connected_time":113000000000,"state":"active","ping":56},{"user_id":374,"name":"John","steam_id":76561198070700732,"connected_time":99000000000,"state":"active","ping":95},{"user_id":349,"name":"Gill-Man","steam_id":76561198072736830,"connected_time":1797000000000,"state":"active","ping":71},{"user_id":362,"name":"Scorpie Doodle","steam_id":76561198021845763,"connected_time":603000000000,"state":"active","ping":59},{"user_id":376,"name":"ACBucher","steam_id":76561198799154681,"connected_time":78000000000,"state":"active","ping":109},{"user_id":377,"name":"scrapheap","steam_id":76561198202407087,"connected_time":78000000000,"state":"active","ping":77},{"user_id":378,"name":"dr peppah chug!","steam_id":76561198068835693,"connected_time":75000000000,"state":"active","ping":86},{"user_id":379,"name":"Tom","steam_id":76561198139202942,"connected_time":70000000000,"state":"active","ping":83}]},{"server_id":36,"name":"Uncletopia | Chicago | 5 | All Maps","name_short":"chi-5","host":"chi-2.us.uncletopia.com","port":27015,"enabled":true,"region":"us-central","cc":"us","latitude":41.881832,"longitude":-87.62318,"reserved":0,"last_update":"0001-01-01T00:00:00Z","name_a2s":"Uncletopia | Chicago | 5 | All Maps","protocol":17,"map":"cp_mountainlab","folder":"tf","game":"Team Fortress","app_id":440,"player_count":0,"max_players":24,"Bots":0,"server_type":"Dedicated","server_os":"Linux","password":true,"vac":true,"version":"7882260","steam_id":85568392924866362,"keywords":["cp","nocrits","nodmgspread","uncletopia"],"game_id":440,"stv_port":27016,"stv_name":"Uncletopia | Chicago | 5 | All Maps | STV","players":null},{"server_id":37,"name":"Uncletopia | Chicago | 6 | All Maps","name_short":"chi-6","host":"chi-2.us.uncletopia.com","port":27025,"enabled":true,"region":"us-central","cc":"us","latitude":41.881832,"longitude":-87.62318,"reserved":0,"last_update":"0001-01-01T00:00:00Z","name_a2s":"Uncletopia | Chicago | 6 | All Maps","protocol":17,"map":"koth_viaduct","folder":"tf","game":"Team Fortress","app_id":440,"player_count":0,"max_players":24,"Bots":0,"server_type":"Dedicated","server_os":"Linux","password":true,"vac":true,"version":"7882260","steam_id":85568392924866363,"keywords":["cp","nocrits","nodmgspread","uncletopia"],"game_id":440,"stv_port":27026,"stv_name":"Uncletopia | Chicago | 6 | All Maps | STV","players":null},{"server_id":38,"name":"Uncletopia | Chicago | 7 | Stopwatch Beta","name_short":"chi-7","host":"chi-2.us.uncletopia.com","port":27035,"enabled":true,"region":"us-central","cc":"us","latitude":41.881832,"longitude":-87.62318,"reserved":0,"last_update":"0001-01-01T00:00:00Z","name_a2s":"Uncletopia | Chicago | 7 | Stopwatch Beta","protocol":17,"map":"pl_upward","folder":"tf","game":"Team Fortress","app_id":440,"player_count":0,"max_players":24,"Bots":0,"server_type":"Dedicated","server_os":"Linux","password":true,"vac":true,"version":"7882260","steam_id":85568392924866364,"keywords":["nocrits","nodmgspread","payload","uncletopia"],"game_id":440,"stv_port":27036,"stv_name":"Uncletopia | Chicago | 7 | Stopwatch Beta | STV","players":null},{"server_id":39,"name":"Uncletopia | Chicago | 8 | Community","name_short":"chi-8","host":"chi-2.us.uncletopia.com","port":27045,"enabled":true,"region":"us-central","cc":"us","latitude":41.881832,"longitude":-87.62318,"reserved":0,"last_update":"0001-01-01T00:00:00Z","name_a2s":"Uncletopia | Chicago | 8 | Community","protocol":17,"map":"workshop/cp_alloy_rc3.ugc592805587","folder":"tf","game":"Team Fortress","app_id":440,"player_count":0,"max_players":24,"Bots":0,"server_type":"Dedicated","server_os":"Linux","password":true,"vac":true,"version":"7882260","steam_id":85568392924866365,"keywords":["cp","nocrits","nodmgspread","uncletopia"],"game_id":440,"stv_port":27046,"stv_name":"Uncletopia | Chicago | 8 | Community | STV","players":null},{"server_id":8,"name":"Uncletopia | Dallas | 1 | All Maps","name_short":"dal-1","host":"dal-1.us.uncletopia.com","port":27015,"enabled":true,"region":"us-central","cc":"us","latitude":32.779167,"longitude":-96.80889,"reserved":0,"last_update":"0001-01-01T00:00:00Z","name_a2s":"Uncletopia | Dallas | 1 | All Maps","protocol":17,"map":"pl_upward","folder":"tf","game":"Team Fortress","app_id":440,"player_count":24,"max_players":24,"Bots":0,"server_type":"Dedicated","server_os":"Linux","password":true,"vac":true,"version":"7882260","steam_id":85568392924469986,"keywords":["nocrits","nodmgspread","payload","uncletopia"],"game_id":440,"stv_port":27016,"stv_name":"Uncletopia | Dallas | 1 | All Maps | STV","players":[{"user_id":473,"name":"Chunk Stuffer","steam_id":76561198856508573,"connected_time":935000000000,"state":"active","ping":35},{"user_id":483,"name":"GatoSeiko","steam_id":76561198001001360,"connected_time":442000000000,"state":"active","ping":192},{"user_id":426,"name":"Unlock The Shock (She/They)","steam_id":76561198823616667,"connected_time":2992000000000,"state":"active","ping":58},{"user_id":484,"name":"Squiliam","steam_id":76561198025278006,"connected_time":441000000000,"state":"active","ping":42},{"user_id":474,"name":"ducky","steam_id":76561198007764271,"connected_time":648000000000,"state":"active","ping":60},{"user_id":491,"name":"Critical","steam_id":76561198123744966,"connected_time":192000000000,"state":"active","ping":93},{"user_id":397,"name":"NerpMC","steam_id":76561199380119436,"connected_time":6282000000000,"state":"active","ping":109},{"user_id":485,"name":"Combatspok","steam_id":76561197971598115,"connected_time":438000000000,"state":"active","ping":82},{"user_id":472,"name":"Jesse Bear","steam_id":76561198217075305,"connected_time":1230000000000,"state":"active","ping":100},{"user_id":487,"name":"I'm gonna Nut","steam_id":76561199127423378,"connected_time":305000000000,"state":"active","ping":85},{"user_id":481,"name":"Lotusberry","steam_id":76561198058506867,"connected_time":597000000000,"state":"active","ping":115},{"user_id":422,"name":"Kng","steam_id":76561198993248203,"connected_time":3590000000000,"state":"active","ping":92},{"user_id":368,"name":"aintnowaiyboi","steam_id":76561198301372369,"connected_time":7950000000000,"state":"active","ping":34},{"user_id":432,"name":"Dabbledornk","steam_id":76561198065241300,"connected_time":2757000000000,"state":"active","ping":76},{"user_id":492,"name":"AllMyProblemsAreBecauseOfSociet","steam_id":76561198081617990,"connected_time":109000000000,"state":"active","ping":97},{"user_id":435,"name":"Kanye‚Äôs therapist","steam_id":76561198855665947,"connected_time":2708000000000,"state":"active","ping":93},{"user_id":457,"name":"maxeatpie","steam_id":76561198438294875,"connected_time":2263000000000,"state":"active","ping":89},{"user_id":460,"name":"Sideways 8","steam_id":76561199013791052,"connected_time":2171000000000,"state":"active","ping":146},{"user_id":437,"name":"JetpackHamster","steam_id":76561198332390022,"connected_time":2682000000000,"state":"active","ping":92},{"user_id":490,"name":"Fightin Cow","steam_id":76561198080941486,"connected_time":290000000000,"state":"active","ping":56},{"user_id":482,"name":"cypherzero","steam_id":76561199182960322,"connected_time":590000000000,"state":"active","ping":53},{"user_id":489,"name":"BurningKev","steam_id":76561198057688837,"connected_time":292000000000,"state":"active","ping":76},{"user_id":470,"name":"[BALLS] r30848","steam_id":76561199123984543,"connected_time":1410000000000,"state":"active","ping":55},{"user_id":442,"name":"Deltaco","steam_id":76561198094572694,"connected_time":2552000000000,"state":"active","ping":125}]},{"server_id":108,"name":"Uncletopia | Dallas | 2 | All Maps","name_short":"dal-2","host":"dal-1.us.uncletopia.com","port":27025,"enabled":true,"region":"us-central","cc":"us","latitude":32.779167,"longitude":-96.80889,"reserved":0,"last_update":"0001-01-01T00:00:00Z","name_a2s":"Uncletopia | Dallas | 2 | All Maps","protocol":17,"map":"pl_pier","folder":"tf","game":"Team Fortress","app_id":440,"player_count":24,"max_players":24,"Bots":0,"server_type":"Dedicated","server_os":"Linux","password":true,"vac":true,"version":"7882260","steam_id":85568392924469988,"keywords":["nocrits","nodmgspread","payload","uncletopia"],"game_id":440,"stv_port":27026,"stv_name":"Uncletopia | Dallas | 2 | All Maps | STV","players":[{"user_id":120,"name":"Engineer Gaming","steam_id":76561199386119444,"connected_time":3622000000000,"state":"active","ping":88},{"user_id":66,"name":"VixianUwU","steam_id":76561198948815060,"connected_time":6549000000000,"state":"active","ping":76},{"user_id":138,"name":"0vii","steam_id":76561198117084598,"connected_time":1349000000000,"state":"active","ping":94},{"user_id":149,"name":"`o2","steam_id":76561197992030936,"connected_time":908000000000,"state":"active","ping":83},{"user_id":154,"name":"SteelMachineT","steam_id":76561197970633344,"connected_time":88000000000,"state":"active","ping":105},{"user_id":68,"name":"b","steam_id":76561198376231372,"connected_time":6533000000000,"state":"active","ping":90},{"user_id":117,"name":"TrustworthyStranger","steam_id":76561198154105678,"connected_time":3772000000000,"state":"active","ping":75},{"user_id":92,"name":"Tying the knot","steam_id":76561198247794130,"connected_time":5683000000000,"state":"active","ping":65},{"user_id":111,"name":"DMM","steam_id":76561198065426171,"connected_time":4050000000000,"state":"active","ping":55},{"user_id":126,"name":"Jasmine Rice","steam_id":76561198163163590,"connected_time":3064000000000,"state":"active","ping":60},{"user_id":140,"name":"RIP DUNK.","steam_id":76561198111259720,"connected_time":1291000000000,"state":"active","ping":82},{"user_id":142,"name":"Raizen","steam_id":76561199092445367,"connected_time":1210000000000,"state":"active","ping":71},{"user_id":136,"name":"[FOFS]billyburl","steam_id":76561198079535159,"connected_time":1588000000000,"state":"active","ping":84},{"user_id":115,"name":"Col Ngohk","steam_id":76561198241643372,"connected_time":3977000000000,"state":"active","ping":95},{"user_id":150,"name":"CURSED_ROKIM","steam_id":76561199120016510,"connected_time":682000000000,"state":"active","ping":103},{"user_id":137,"name":"oh the treachery","steam_id":76561198127851014,"connected_time":1376000000000,"state":"active","ping":48},{"user_id":153,"name":"meatBALL sub lova 38 (meatball)","steam_id":76561198965781031,"connected_time":224000000000,"state":"active","ping":99},{"user_id":91,"name":"CasTR34","steam_id":76561198381561291,"connected_time":5753000000000,"state":"active","ping":57},{"user_id":152,"name":"Penguinodle","steam_id":76561199082347306,"connected_time":365000000000,"state":"active","ping":40},{"user_id":107,"name":"Hollister's Tree","steam_id":76561198982631429,"connected_time":4111000000000,"state":"active","ping":62},{"user_id":135,"name":"melko","steam_id":76561198806496924,"connected_time":1680000000000,"state":"active","ping":161},{"user_id":146,"name":"bolainassr0","steam_id":76561199079078845,"connected_time":1086000000000,"state":"active","ping":142},{"user_id":151,"name":"Griffinsteed","steam_id":76561198042847912,"connected_time":557000000000,"state":"active","ping":75},{"user_id":148,"name":"moe","steam_id":76561198929586245,"connected_time":1038000000000,"state":"active","ping":71}]},{"server_id":5,"name":"Uncletopia | Frankfurt | 1 | All Maps","name_short":"frk-1","host":"frk-1.de.uncletopia.com","port":27015,"enabled":true,"region":"eu","cc":"de","latitude":50.110924,"longitude":8.682127,"reserved":0,"last_update":"0001-01-01T00:00:00Z","name_a2s":"Uncletopia | Frankfurt | 1 | All Maps","protocol":17,"map":"pl_pier","folder":"tf","game":"Team Fortress","app_id":440,"player_count":23,"max_players":24,"Bots":0,"server_type":"Dedicated","server_os":"Linux","password":true,"vac":true,"version":"7882260","steam_id":85568392924469989,"keywords":["nocrits","nodmgspread","payload","uncletopia"],"game_id":440,"stv_port":27016,"stv_name":"Uncletopia | Frankfurt | 1 | All Maps | STV","players":[{"user_id":586,"name":"Mr. Watch","steam_id":76561198276103501,"connected_time":2318000000000,"state":"active","ping":79},{"user_id":588,"name":"Maru","steam_id":76561198030931030,"connected_time":2286000000000,"state":"active","ping":65},{"user_id":550,"name":"ARROGANT","steam_id":76561198113089831,"connected_time":5333000000000,"state":"active","ping":95},{"user_id":617,"name":"üòà COCKDESTROYER üòà","steam_id":76561198042846999,"connected_time":261000000000,"state":"active","ping":64},{"user_id":604,"name":"hieronimus","steam_id":76561198085900150,"connected_time":841000000000,"state":"active","ping":60},{"user_id":607,"name":"Farmercy","steam_id":76561198000038039,"connected_time":823000000000,"state":"active","ping":58},{"user_id":622,"name":"|Zomaxx|","steam_id":76561198138925802,"connected_time":114000000000,"state":"active","ping":75},{"user_id":561,"name":"vdl","steam_id":76561198044583116,"connected_time":3858000000000,"state":"active","ping":92},{"user_id":579,"name":"KeTlEr","steam_id":76561198100957443,"connected_time":2520000000000,"state":"active","ping":73},{"user_id":559,"name":"Serton‚ôù","steam_id":76561198011061126,"connected_time":4290000000000,"state":"active","ping":84},{"user_id":620,"name":"Greasus (The Shockingly Obese)","steam_id":76561198027738546,"connected_time":157000000000,"state":"active","ping":57},{"user_id":619,"name":"Chongy BO","steam_id":76561198128907311,"connected_time":203000000000,"state":"active","ping":86},{"user_id":615,"name":"say gex","steam_id":76561198808819694,"connected_time":590000000000,"state":"active","ping":45},{"user_id":612,"name":"vi hava en usel regering","steam_id":76561198037978654,"connected_time":737000000000,"state":"active","ping":71},{"user_id":590,"name":"Kurage","steam_id":76561198021221288,"connected_time":2102000000000,"state":"active","ping":57},{"user_id":558,"name":"Sarah Obama Michella","steam_id":76561198078996559,"connected_time":4497000000000,"state":"active","ping":77},{"user_id":624,"name":"Artificial.Ignorance","steam_id":76561198453090180,"connected_time":105000000000,"state":"active","ping":150},{"user_id":580,"name":"sokige","steam_id":76561198167112371,"connected_time":2507000000000,"state":"active","ping":94},{"user_id":595,"name":"Penis Scout","steam_id":76561198860424456,"connected_time":1654000000000,"state":"active","ping":61},{"user_id":592,"name":"domek brexit geezerüá¨üáß","steam_id":76561198048447632,"connected_time":1994000000000,"state":"active","ping":75},{"user_id":596,"name":"EQPL aramyis","steam_id":76561199080688428,"connected_time":1644000000000,"state":"active","ping":95},{"user_id":616,"name":"Jimmy's balls","steam_id":76561198841930820,"connected_time":345000000000,"state":"active","ping":91},{"user_id":582,"name":"hlug2340","steam_id":76561198087970118,"connected_time":2506000000000,"state":"active","ping":105}]},{"server_id":110,"name":"Uncletopia | Frankfurt | 2 | All Maps","name_short":"frk-2","host":"frk-1.de.uncletopia.com","port":27025,"enabled":true,"region":"eu","cc":"de","latitude":50.110924,"longitude":8.682127,"reserved":0,"last_update":"0001-01-01T00:00:00Z","name_a2s":"Uncletopia | Frankfurt | 2 | All Maps","protocol":17,"map":"cp_dustbowl","folder":"tf","game":"Team Fortress","app_id":440,"player_count":24,"max_players":24,"Bots":0,"server_type":"Dedicated","server_os":"Linux","password":true,"vac":true,"version":"7882260","steam_id":85568392924469990,"keywords":["cp","nocrits","nodmgspread","uncletopia"],"game_id":440,"stv_port":27026,"stv_name":"Uncletopia | Frankfurt | 2 | All Maps | STV","players":[{"user_id":679,"name":"Sir Kiops","steam_id":76561198022769275,"connected_time":17000000000,"state":"spawning","ping":244},{"user_id":643,"name":"Toasty5050","steam_id":76561198073540881,"connected_time":2668000000000,"state":"active","ping":41},{"user_id":608,"name":"S Ka Y","steam_id":76561197993423450,"connected_time":4285000000000,"state":"active","ping":59},{"user_id":672,"name":"big naked bruh","steam_id":76561199179040672,"connected_time":287000000000,"state":"active","ping":71},{"user_id":653,"name":"Toni Pepperoni","steam_id":76561198814211030,"connected_time":1989000000000,"state":"active","ping":113},{"user_id":667,"name":"Accident","steam_id":76561198115160396,"connected_time":438000000000,"state":"active","ping":69},{"user_id":644,"name":"Rimx","steam_id":76561198053034840,"connected_time":2611000000000,"state":"active","ping":92},{"user_id":654,"name":"Paladin","steam_id":76561198042593027,"connected_time":1978000000000,"state":"active","ping":82},{"user_id":668,"name":"Bobo","steam_id":76561198052308399,"connected_time":394000000000,"state":"active","ping":60},{"user_id":641,"name":"–ú–∏—Å—Ç–µ—Ä –ë–æ–º–±–∞—Å—Ç–∏–∫","steam_id":76561199037424034,"connected_time":2786000000000,"state":"active","ping":112},{"user_id":669,"name":"WarAndroid","steam_id":76561198873727435,"connected_time":372000000000,"state":"active","ping":60},{"user_id":678,"name":"snsmac","steam_id":76561198082821185,"connected_time":62000000000,"state":"active","ping":50},{"user_id":655,"name":"Wade Wilson's Spoilt C4","steam_id":76561198013884709,"connected_time":1965000000000,"state":"active","ping":81},{"user_id":650,"name":"MagPootis","steam_id":76561198157065778,"connected_time":2136000000000,"state":"active","ping":73},{"user_id":673,"name":"Economic crisis","steam_id":76561198063562843,"connected_time":225000000000,"state":"active","ping":73},{"user_id":663,"name":"Zoe","steam_id":76561198055380605,"connected_time":966000000000,"state":"active","ping":68},{"user_id":660,"name":"tiny carrots with big ambitions","steam_id":76561198069649097,"connected_time":1367000000000,"state":"active","ping":75},{"user_id":680,"name":"Rizziologist","steam_id":76561198089003514,"connected_time":17000000000,"state":"active","ping":43},{"user_id":676,"name":"‚àö(-Wolf)","steam_id":76561198024769704,"connected_time":155000000000,"state":"active","ping":92},{"user_id":677,"name":"garten of banban","steam_id":76561199231165566,"connected_time":146000000000,"state":"active","ping":155},{"user_id":599,"name":"joebot","steam_id":76561197975606100,"connected_time":4902000000000,"state":"active","ping":147},{"user_id":665,"name":"iniT","steam_id":76561198019883794,"connected_time":808000000000,"state":"active","ping":60},{"user_id":627,"name":"Danio211","steam_id":76561199228698878,"connected_time":3294000000000,"state":"active","ping":88},{"user_id":646,"name":"mkwii","steam_id":76561198062507768,"connected_time":2393000000000,"state":"active","ping":54}]},{"server_id":308,"name":"Uncletopia | Frankfurt | 3 | All Maps","name_short":"frk-3","host":"frk-1.de.uncletopia.com","port":27035,"enabled":true,"region":"eu","cc":"de","latitude":50.110924,"longitude":8.682127,"reserved":0,"last_update":"0001-01-01T00:00:00Z","name_a2s":"Uncletopia | Frankfurt | 3 | All Maps","protocol":17,"map":"pl_upward","folder":"tf","game":"Team Fortress","app_id":440,"player_count":3,"max_players":24,"Bots":0,"server_type":"Dedicated","server_os":"Linux","password":true,"vac":true,"version":"7882260","steam_id":85568392924504274,"keywords":["nocrits","nodmgspread","payload","uncletopia"],"game_id":440,"stv_port":27036,"stv_name":"Uncletopia | Frankfurt | 3 | All Maps | STV","players":[{"user_id":442,"name":"bonour74","steam_id":76561199089910337,"connected_time":74000000000,"state":"spawning","ping":148},{"user_id":436,"name":"Trucker McGubber","steam_id":76561198322960934,"connected_time":476000000000,"state":"active","ping":42},{"user_id":394,"name":"finbar","steam_id":76561198056812396,"connected_time":4012000000000,"state":"active","ping":82}]},{"server_id":309,"name":"Uncletopia | Frankfurt | 4 | All Maps","name_short":"frk-4","host":"frk-1.de.uncletopia.com","port":27045,"enabled":true,"region":"eu","cc":"de","latitude":50.110924,"longitude":8.682127,"reserved":0,"last_update":"0001-01-01T00:00:00Z","name_a2s":"Uncletopia | Frankfurt | 4 | All Maps","protocol":17,"map":"cp_5gorge","folder":"tf","game":"Team Fortress","app_id":440,"player_count":24,"max_players":24,"Bots":0,"server_type":"Dedicated","server_os":"Linux","password":true,"vac":true,"version":"7882260","steam_id":85568392924504275,"keywords":["cp","nocrits","nodmgspread","uncletopia"],"game_id":440,"stv_port":27046,"stv_name":"Uncletopia | Frankfurt | 4 | All Maps | STV","players":[{"user_id":183,"name":"peso enjoyer","steam_id":76561198798177799,"connected_time":3933000000000,"state":"active","ping":76},{"user_id":191,"name":"Ice Cream Sandwich","steam_id":76561198891046692,"connected_time":2897000000000,"state":"active","ping":59},{"user_id":141,"name":"Spectral Sloth","steam_id":76561198170083139,"connected_time":6892000000000,"state":"active","ping":79},{"user_id":214,"name":"Sir Warock","steam_id":76561198180468693,"connected_time":892000000000,"state":"active","ping":84},{"user_id":192,"name":"I_Forgot_My_Name","steam_id":76561198173424578,"connected_time":2842000000000,"state":"active","ping":62},{"user_id":215,"name":"GroGroudonDu31","steam_id":76561198155106297,"connected_time":890000000000,"state":"active","ping":62},{"user_id":177,"name":"Milosz52","steam_id":76561199060940204,"connected_time":4269000000000,"state":"active","ping":79},{"user_id":176,"name":"alice","steam_id":76561198269200388,"connected_time":4433000000000,"state":"active","ping":75},{"user_id":175,"name":"WICKED BARSIK","steam_id":76561198120927230,"connected_time":4470000000000,"state":"active","ping":110},{"user_id":212,"name":"StingyLettuce","steam_id":76561199010337406,"connected_time":985000000000,"state":"active","ping":112},{"user_id":234,"name":"Fridge","steam_id":76561198071665589,"connected_time":8000000000,"state":"active","ping":167},{"user_id":233,"name":"Oldorusse","steam_id":76561198152677801,"connected_time":154000000000,"state":"active","ping":62},{"user_id":216,"name":"Szeregowy LowiRyb","steam_id":76561198855967762,"connected_time":883000000000,"state":"active","ping":130},{"user_id":227,"name":"Vollys","steam_id":76561198018077773,"connected_time":449000000000,"state":"active","ping":55},{"user_id":226,"name":"wgbubl","steam_id":76561199133004884,"connected_time":511000000000,"state":"active","ping":95},{"user_id":228,"name":"sus man","steam_id":76561199234935153,"connected_time":280000000000,"state":"active","ping":90},{"user_id":229,"name":"soup","steam_id":76561198386933065,"connected_time":262000000000,"state":"active","ping":58},{"user_id":220,"name":"tendru","steam_id":76561198000917831,"connected_time":781000000000,"state":"active","ping":47},{"user_id":221,"name":"Dozorce oblouku","steam_id":76561198048683488,"connected_time":692000000000,"state":"active","ping":57},{"user_id":232,"name":"Miltaneix","steam_id":76561198017751181,"connected_time":217000000000,"state":"active","ping":72},{"user_id":231,"name":"Qiep","steam_id":76561198068742826,"connected_time":244000000000,"state":"active","ping":61},{"user_id":223,"name":"Vitamin Weee","steam_id":76561199183937747,"connected_time":661000000000,"state":"active","ping":86},{"user_id":225,"name":"SteaL","steam_id":76561198016020144,"connected_time":631000000000,"state":"active","ping":46},{"user_id":205,"name":"Milk","steam_id":76561198125876588,"connected_time":1943000000000,"state":"active","ping":58}]},{"server_id":310,"name":"Uncletopia | Frankfurt | 5 | All Maps","name_short":"frk-5","host":"frk-1.de.uncletopia.com","port":27055,"enabled":true,"region":"eu","cc":"de","latitude":50.110924,"longitude":8.682127,"reserved":0,"last_update":"0001-01-01T00:00:00Z","name_a2s":"Uncletopia | Frankfurt | 5 | All Maps","protocol":17,"map":"pl_upward","folder":"tf","game":"Team Fortress","app_id":440,"player_count":4,"max_players":24,"Bots":0,"server_type":"Dedicated","server_os":"Linux","password":true,"vac":true,"version":"7882260","steam_id":85568392924504277,"keywords":["nocrits","nodmgspread","payload","uncletopia"],"game_id":440,"stv_port":27056,"stv_name":"Uncletopia | Frankfurt | 5 | All Maps | STV","players":[{"user_id":24,"name":"i heal gay people","steam_id":76561198032167311,"connected_time":802000000000,"state":"active","ping":73},{"user_id":25,"name":"nakedpee","steam_id":76561198064345980,"connected_time":785000000000,"state":"active","ping":75},{"user_id":26,"name":"–ø—Ä–æ339","steam_id":76561198428111079,"connected_time":606000000000,"state":"active","ping":108},{"user_id":27,"name":"(can chat)mafutbolero","steam_id":76561199233664005,"connected_time":259000000000,"state":"active","ping":71}]},{"server_id":311,"name":"Uncletopia | Frankfurt | 6 | All Maps","name_short":"frk-6","host":"frk-1.de.uncletopia.com","port":27065,"enabled":true,"region":"eu","cc":"de","latitude":50.110924,"longitude":8.682127,"reserved":0,"last_update":"0001-01-01T00:00:00Z","name_a2s":"Uncletopia | Frankfurt | 6 | All Maps","protocol":17,"map":"pl_barnblitz","folder":"tf","game":"Team Fortress","app_id":440,"player_count":23,"max_players":24,"Bots":0,"server_type":"Dedicated","server_os":"Linux","password":true,"vac":true,"version":"7882260","steam_id":85568392924504278,"keywords":["nocrits","nodmgspread","payload","uncletopia"],"game_id":440,"stv_port":27066,"stv_name":"Uncletopia | Frankfurt | 6 | All Maps | STV","players":[{"user_id":46,"name":"Eazy-E hbivnm","steam_id":76561197996468677,"connected_time":64000000000,"state":"active","ping":59},{"user_id":12,"name":"WOW i'm dead","steam_id":76561199082267619,"connected_time":3066000000000,"state":"active","ping":73},{"user_id":13,"name":"roblan11","steam_id":76561198066839258,"connected_time":2611000000000,"state":"active","ping":46},{"user_id":27,"name":"ran is running","steam_id":76561199443185667,"connected_time":1586000000000,"state":"active","ping":150},{"user_id":28,"name":"Playad","steam_id":76561198977412147,"connected_time":1448000000000,"state":"active","ping":61},{"user_id":29,"name":"MiManTV","steam_id":76561198094459522,"connected_time":1185000000000,"state":"active","ping":72},{"user_id":30,"name":"Escanoar","steam_id":76561199078487016,"connected_time":1173000000000,"state":"active","ping":80},{"user_id":31,"name":"The pusheen cat","steam_id":76561199002462516,"connected_time":1039000000000,"state":"active","ping":85},{"user_id":19,"name":"AxyzS | affenbr0t_6o4","steam_id":76561197981823456,"connected_time":2293000000000,"state":"active","ping":63},{"user_id":40,"name":"eduardo","steam_id":76561198014491925,"connected_time":290000000000,"state":"active","ping":78},{"user_id":33,"name":"n174","steam_id":76561199465285458,"connected_time":760000000000,"state":"active","ping":59},{"user_id":47,"name":"vurtun","steam_id":76561198857395274,"connected_time":40000000000,"state":"active","ping":51},{"user_id":39,"name":"Koleisus","steam_id":76561198045374646,"connected_time":432000000000,"state":"active","ping":66},{"user_id":42,"name":"Carrot (woman)","steam_id":76561198139404261,"connected_time":207000000000,"state":"active","ping":55},{"user_id":44,"name":"i_Like_Sandwich","steam_id":76561199215996779,"connected_time":168000000000,"state":"active","ping":68},{"user_id":45,"name":"D_Ink","steam_id":76561198267716662,"connected_time":142000000000,"state":"active","ping":54},{"user_id":48,"name":"wavy","steam_id":76561198175433731,"connected_time":34000000000,"state":"active","ping":76},{"user_id":49,"name":"morlo-^ | bbX","steam_id":76561198249301650,"connected_time":29000000000,"state":"active","ping":40},{"user_id":50,"name":"stepbro","steam_id":76561198119607160,"connected_time":21000000000,"state":"active","ping":68},{"user_id":51,"name":"EkkiHinrik","steam_id":76561198078791141,"connected_time":14000000000,"state":"active","ping":98},{"user_id":52,"name":"Margaret \"ninja\" Thatcher Gamin","steam_id":76561198376160820,"connected_time":13000000000,"state":"active","ping":91},{"user_id":53,"name":"Laco","steam_id":76561199073073486,"connected_time":10000000000,"state":"spawning","ping":85},{"user_id":54,"name":"D√≥ri St√≥ri","steam_id":76561198103633890,"connected_time":4000000000,"state":"spawning","ping":87}]},{"server_id":23,"name":"Uncletopia | Frankfurt | 7 | Stopwatch Beta","name_short":"frk-7","host":"frk-1.de.uncletopia.com","port":27075,"enabled":true,"region":"eu","cc":"de","latitude":50.110924,"longitude":8.682127,"reserved":0,"last_update":"0001-01-01T00:00:00Z","name_a2s":"Uncletopia | Frankfurt | 7 | Stopwatch Beta","protocol":17,"map":"workshop/koth_clearcut_b15.ugc2107050255","folder":"tf","game":"Team Fortress","app_id":440,"player_count":0,"max_players":24,"Bots":0,"server_type":"Dedicated","server_os":"Linux","password":true,"vac":true,"version":"7882260","steam_id":85568392924742827,"keywords":["cp","nocrits","nodmgspread","uncletopia"],"game_id":440,"stv_port":27076,"stv_name":"Uncletopia | Frankfurt | 7 | Stopwatch Beta | STV","players":null},{"server_id":24,"name":"Uncletopia | Frankfurt | 8 | Community","name_short":"frk-8","host":"frk-1.de.uncletopia.com","port":27085,"enabled":true,"region":"eu","cc":"de","latitude":50.110924,"longitude":8.682127,"reserved":0,"last_update":"0001-01-01T00:00:00Z","name_a2s":"Uncletopia | Frankfurt | 8 | Community","protocol":17,"map":"workshop/pl_barnblitz_pro7.ugc582280235","folder":"tf","game":"Team Fortress","app_id":440,"player_count":24,"max_players":24,"Bots":0,"server_type":"Dedicated","server_os":"Linux","password":true,"vac":true,"version":"7882260","steam_id":85568392924742828,"keywords":["nocrits","nodmgspread","payload","uncletopia"],"game_id":440,"stv_port":27086,"stv_name":"Uncletopia | Frankfurt | 8 | Community | STV","players":[{"user_id":473,"name":"GMsU | DaLuigi","steam_id":76561198054486188,"connected_time":799000000000,"state":"active","ping":44},{"user_id":453,"name":"szmen","steam_id":76561198072569764,"connected_time":2184000000000,"state":"active","ping":85},{"user_id":460,"name":"dragonos451","steam_id":76561198041146385,"connected_time":1693000000000,"state":"active","ping":59},{"user_id":474,"name":"jge","steam_id":76561198123186387,"connected_time":306000000000,"state":"active","ping":58},{"user_id":455,"name":"Rapop101","steam_id":76561198125796030,"connected_time":1923000000000,"state":"active","ping":74},{"user_id":471,"name":"Mr.TEA","steam_id":76561198014381591,"connected_time":1151000000000,"state":"active","ping":61},{"user_id":461,"name":"Hrki","steam_id":76561198090451546,"connected_time":1686000000000,"state":"active","ping":58},{"user_id":466,"name":"KaasKrans","steam_id":76561198240451972,"connected_time":1462000000000,"state":"active","ping":59},{"user_id":475,"name":"THE GLIZZOMANCER","steam_id":76561198079524152,"connected_time":260000000000,"state":"active","ping":53},{"user_id":434,"name":"GMsU | Rebikas","steam_id":76561198077053764,"connected_time":3742000000000,"state":"active","ping":42},{"user_id":476,"name":"combine","steam_id":76561198007909007,"connected_time":250000000000,"state":"active","ping":56},{"user_id":420,"name":"Technic","steam_id":76561198128096130,"connected_time":4499000000000,"state":"active","ping":55},{"user_id":465,"name":"Pyrolander","steam_id":76561198050785450,"connected_time":1580000000000,"state":"active","ping":54},{"user_id":477,"name":"Mr.O #deletesniper","steam_id":76561198039567498,"connected_time":231000000000,"state":"active","ping":60},{"user_id":482,"name":"rets","steam_id":76561198061551392,"connected_time":23000000000,"state":"active","ping":99},{"user_id":449,"name":"GMsU | Smiley","steam_id":76561198121494414,"connected_time":2537000000000,"state":"active","ping":84},{"user_id":478,"name":"DelT","steam_id":76561198204007537,"connected_time":213000000000,"state":"active","ping":45},{"user_id":402,"name":"D0kai","steam_id":76561198389271720,"connected_time":5339000000000,"state":"active","ping":64},{"user_id":479,"name":"randompixel","steam_id":76561198003941207,"connected_time":141000000000,"state":"active","ping":66},{"user_id":480,"name":"zak","steam_id":76561197998895428,"connected_time":122000000000,"state":"active","ping":52},{"user_id":430,"name":"B.batt","steam_id":76561198998684199,"connected_time":4211000000000,"state":"active","ping":119},{"user_id":472,"name":"freudiyon","steam_id":76561199236101087,"connected_time":1150000000000,"state":"active","ping":95},{"user_id":427,"name":"GMsU | Acoul","steam_id":76561198229222992,"connected_time":4375000000000,"state":"active","ping":45},{"user_id":481,"name":"Trontallent","steam_id":76561198277647230,"connected_time":121000000000,"state":"active","ping":50}]},{"server_id":202,"name":"Uncletopia | Hong Kong | 1 | All Maps","name_short":"hgk-1","host":"hgk-1.hk.uncletopia.com","port":27015,"enabled":true,"region":"asia","cc":"hk","latitude":22.302711,"longitude":114.177216,"reserved":0,"last_update":"0001-01-01T00:00:00Z","name_a2s":"Uncletopia | Hong Kong | 1 | All Maps","protocol":17,"map":"cp_altitude","folder":"tf","game":"Team Fortress","app_id":440,"player_count":0,"max_players":24,"Bots":0,"server_type":"Dedicated","server_os":"Linux","password":true,"vac":true,"version":"7882260","steam_id":85568392924494504,"keywords":["cp","nocrits","nodmgspread","uncletopia"],"game_id":440,"stv_port":27016,"stv_name":"Uncletopia | Hong Kong | 1 | All Maps | STV","players":null},{"server_id":1,"name":"Uncletopia | Los Angeles | 1 | All Maps","name_short":"lax-1","host":"lax-1.us.uncletopia.com","port":27015,"enabled":true,"region":"us-west","cc":"us","latitude":33.94279,"longitude":-118.41004,"reserved":0,"last_update":"0001-01-01T00:00:00Z","name_a2s":"Uncletopia | Los Angeles | 1 | All Maps","protocol":17,"map":"cp_sunshine","folder":"tf","game":"Team Fortress","app_id":440,"player_count":0,"max_players":24,"Bots":0,"server_type":"Dedicated","server_os":"Linux","password":true,"vac":true,"version":"7882260","steam_id":85568392924469991,"keywords":["cp","nocrits","nodmgspread","uncletopia"],"game_id":440,"stv_port":27016,"stv_name":"Uncletopia | Los Angeles | 1 | All Maps | STV","players":null},{"server_id":112,"name":"Uncletopia | Los Angeles | 2 | All Maps","name_short":"lax-2","host":"lax-1.us.uncletopia.com","port":27025,"enabled":true,"region":"us-west","cc":"us","latitude":33.94279,"longitude":-118.41004,"reserved":0,"last_update":"0001-01-01T00:00:00Z","name_a2s":"Uncletopia | Los Angeles | 2 | All Maps","protocol":17,"map":"koth_cascade","folder":"tf","game":"Team Fortress","app_id":440,"player_count":0,"max_players":24,"Bots":0,"server_type":"Dedicated","server_os":"Linux","password":true,"vac":true,"version":"7882260","steam_id":85568392924469992,"keywords":["cp","nocrits","nodmgspread","uncletopia"],"game_id":440,"stv_port":27026,"stv_name":"Uncletopia | Los Angeles | 2 | All Maps | STV","players":null},{"server_id":324,"name":"Uncletopia | Los Angeles | 3 | All Maps","name_short":"lax-3","host":"lax-1.us.uncletopia.com","port":27035,"enabled":true,"region":"us-west","cc":"us","latitude":33.94279,"longitude":-118.41004,"reserved":0,"last_update":"0001-01-01T00:00:00Z","name_a2s":"Uncletopia | Los Angeles | 3 | All Maps","protocol":17,"map":"koth_cascade","folder":"tf","game":"Team Fortress","app_id":440,"player_count":0,"max_players":24,"Bots":0,"server_type":"Dedicated","server_os":"Linux","password":true,"vac":true,"version":"7882260","steam_id":85568392924510198,"keywords":["cp","nocrits","nodmgspread","uncletopia"],"game_id":440,"stv_port":27036,"stv_name":"Uncletopia | Los Angeles | 3 | All Maps | STV","players":null},{"server_id":25,"name":"Uncletopia | Los Angeles | 4 | Stopwatch Beta","name_short":"lax-4","host":"lax-1.us.uncletopia.com","port":27045,"enabled":true,"region":"us-west","cc":"us","latitude":33.94279,"longitude":-118.41004,"reserved":0,"last_update":"0001-01-01T00:00:00Z","name_a2s":"Uncletopia | Los Angeles | 4 | Stopwatch Beta","protocol":17,"map":"koth_viaduct","folder":"tf","game":"Team Fortress","app_id":440,"player_count":0,"max_players":24,"Bots":0,"server_type":"Dedicated","server_os":"Linux","password":true,"vac":true,"version":"7882260","steam_id":85568392924510199,"keywords":["cp","nocrits","nodmgspread","uncletopia"],"game_id":440,"stv_port":27046,"stv_name":"Uncletopia | Los Angeles | 4 | Stopwatch Beta | STV","players":null},{"server_id":11,"name":"Uncletopia | London | 1 | All Maps","name_short":"lon-1","host":"lon-1.uk.uncletopia.com","port":27015,"enabled":true,"region":"eu","cc":"gb","latitude":51.509865,"longitude":-0.118092,"reserved":0,"last_update":"0001-01-01T00:00:00Z","name_a2s":"Uncletopia | London | 1 | All Maps","protocol":17,"map":"pl_borneo","folder":"tf","game":"Team Fortress","app_id":440,"player_count":23,"max_players":24,"Bots":0,"server_type":"Dedicated","server_os":"Linux","password":true,"vac":true,"version":"7882260","steam_id":85568392924367362,"keywords":["nocrits","nodmgspread","payload","uncletopia"],"game_id":440,"stv_port":27016,"stv_name":"Uncletopia | London | 1 | All Maps | STV","players":[{"user_id":709,"name":"Skinny101","steam_id":76561197985599360,"connected_time":520000000000,"state":"spawning","ping":61},{"user_id":692,"name":"jitt cant hang ong","steam_id":76561198190583242,"connected_time":1485000000000,"state":"spawning","ping":204},{"user_id":691,"name":"üÉî Nugg1t(she/they)","steam_id":76561198065652251,"connected_time":1588000000000,"state":"spawning","ping":174},{"user_id":710,"name":"hank (from idaho)","steam_id":76561198801083746,"connected_time":426000000000,"state":"spawning","ping":201},{"user_id":654,"name":"KnugenIV","steam_id":76561198127091993,"connected_time":5035000000000,"state":"spawning","ping":201},{"user_id":517,"name":"‚ô•aura‚ô•","steam_id":76561198066258544,"connected_time":15459000000000,"state":"spawning","ping":197},{"user_id":693,"name":"unconditional love","steam_id":76561199026097466,"connected_time":1484000000000,"state":"spawning","ping":226},{"user_id":679,"name":"Littleyoshifan","steam_id":76561198445491045,"connected_time":2764000000000,"state":"spawning","ping":140},{"user_id":667,"name":"gexfan3165","steam_id":76561199459414738,"connected_time":3469000000000,"state":"spawning","ping":141},{"user_id":714,"name":"Bogadoo jonsen","steam_id":76561198218613716,"connected_time":13000000000,"state":"connecting","ping":91},{"user_id":698,"name":"Codex","steam_id":76561198068748584,"connected_time":1091000000000,"state":"spawning","ping":161},{"user_id":649,"name":"eva.","steam_id":76561198054474684,"connected_time":5664000000000,"state":"spawning","ping":230},{"user_id":699,"name":"leonioni","steam_id":76561198833825968,"connected_time":1069000000000,"state":"spawning","ping":185},{"user_id":700,"name":"orbb","steam_id":76561199057953617,"connected_time":1051000000000,"state":"spawning","ping":203},{"user_id":706,"name":"BatemanPatrick","steam_id":76561198393691611,"connected_time":761000000000,"state":"spawning","ping":134},{"user_id":713,"name":"the_Qcumber","steam_id":76561199152515819,"connected_time":74000000000,"state":"spawning","ping":154},{"user_id":674,"name":"Star_","steam_id":76561198160975698,"connected_time":3022000000000,"state":"spawning","ping":161},{"user_id":701,"name":"bigmazi","steam_id":76561198133276643,"connected_time":1013000000000,"state":"spawning","ping":243},{"user_id":689,"name":"hex3","steam_id":76561198054404646,"connected_time":1683000000000,"state":"spawning","ping":101},{"user_id":685,"name":"shooer!","steam_id":76561198110531281,"connected_time":2174000000000,"state":"spawning","ping":146},{"user_id":702,"name":"gr3821","steam_id":76561198091531010,"connected_time":1012000000000,"state":"spawning","ping":151},{"user_id":711,"name":"t.tv/anguishjumps","steam_id":76561198086442571,"connected_time":258000000000,"state":"spawning","ping":137},{"user_id":635,"name":"jimmy bob","steam_id":76561198319583692,"connected_time":6841000000000,"state":"spawning","ping":127}]},{"server_id":114,"name":"Uncletopia | London | 2 | All Maps","name_short":"lon-2","host":"lon-1.uk.uncletopia.com","port":27025,"enabled":true,"region":"eu","cc":"gb","latitude":51.509865,"longitude":-0.118092,"reserved":0,"last_update":"0001-01-01T00:00:00Z","name_a2s":"Uncletopia | London | 2 | All Maps","protocol":17,"map":"pl_badwater","folder":"tf","game":"Team Fortress","app_id":440,"player_count":24,"max_players":24,"Bots":0,"server_type":"Dedicated","server_os":"Linux","password":true,"vac":true,"version":"7882260","steam_id":85568392924470941,"keywords":["nocrits","nodmgspread","payload","uncletopia"],"game_id":440,"stv_port":27026,"stv_name":"Uncletopia | London | 2 | All Maps | STV","players":[{"user_id":487,"name":"arcticcu","steam_id":76561198002435882,"connected_time":2425000000000,"state":"active","ping":82},{"user_id":494,"name":"PGAndy","steam_id":76561199218070297,"connected_time":2047000000000,"state":"active","ping":93},{"user_id":495,"name":"Spotmonkey","steam_id":76561198003994092,"connected_time":1642000000000,"state":"active","ping":59},{"user_id":512,"name":"StumpKnuckle","steam_id":76561197995325320,"connected_time":120000000000,"state":"active","ping":58},{"user_id":468,"name":"Aspartus","steam_id":76561198101385763,"connected_time":3270000000000,"state":"active","ping":39},{"user_id":469,"name":"Eggy_The_Tyrone","steam_id":76561198036857277,"connected_time":3269000000000,"state":"active","ping":71},{"user_id":506,"name":"zinzyk","steam_id":76561198128011822,"connected_time":883000000000,"state":"active","ping":68},{"user_id":423,"name":"FoOzTV","steam_id":76561197998636728,"connected_time":5841000000000,"state":"active","ping":67},{"user_id":412,"name":"Snake-chan","steam_id":76561199044755854,"connected_time":6571000000000,"state":"active","ping":70},{"user_id":509,"name":"SnowShot","steam_id":76561198004766638,"connected_time":713000000000,"state":"active","ping":73},{"user_id":499,"name":"jona3838","steam_id":76561199097658195,"connected_time":1227000000000,"state":"active","ping":103},{"user_id":467,"name":"ptsd","steam_id":76561199382587543,"connected_time":3366000000000,"state":"active","ping":70},{"user_id":453,"name":"Ott","steam_id":76561198276464481,"connected_time":3915000000000,"state":"active","ping":56},{"user_id":500,"name":"jj","steam_id":76561198079200985,"connected_time":1170000000000,"state":"active","ping":59},{"user_id":488,"name":"Yelowchy","steam_id":76561198199416121,"connected_time":2401000000000,"state":"active","ping":74},{"user_id":505,"name":"Soaya","steam_id":76561199101510855,"connected_time":990000000000,"state":"active","ping":46},{"user_id":478,"name":"Raulca25","steam_id":76561199068256964,"connected_time":2889000000000,"state":"active","ping":83},{"user_id":461,"name":"After8","steam_id":76561198090750865,"connected_time":3571000000000,"state":"active","ping":70},{"user_id":510,"name":"monkaChrist","steam_id":76561197996448859,"connected_time":429000000000,"state":"active","ping":79},{"user_id":491,"name":"source radio","steam_id":76561197972287320,"connected_time":2350000000000,"state":"active","ping":78},{"user_id":470,"name":"‡πñ€£€úSir Robbiewolf","steam_id":76561198001357988,"connected_time":3208000000000,"state":"active","ping":70},{"user_id":493,"name":"the least schizo med main","steam_id":76561198048530109,"connected_time":2291000000000,"state":"active","ping":77},{"user_id":476,"name":"FuneralDJ (semen demon)","steam_id":76561198105320071,"connected_time":2998000000000,"state":"active","ping":76},{"user_id":508,"name":"Pomson 6000","steam_id":76561198344588858,"connected_time":870000000000,"state":"active","ping":53}]},{"server_id":320,"name":"Uncletopia | London | 3 | All Maps","name_short":"lon-3","host":"lon-1.uk.uncletopia.com","port":27035,"enabled":true,"region":"eu","cc":"gb","latitude":51.509865,"longitude":-0.118092,"reserved":0,"last_update":"0001-01-01T00:00:00Z","name_a2s":"Uncletopia | London | 3 | All Maps","protocol":17,"map":"ctf_2fort","folder":"tf","game":"Team Fortress","app_id":440,"player_count":23,"max_players":24,"Bots":0,"server_type":"Dedicated","server_os":"Linux","password":true,"vac":true,"version":"7882260","steam_id":85568392924510192,"keywords":["ctf","nocrits","nodmgspread","uncletopia"],"game_id":440,"stv_port":27036,"stv_name":"Uncletopia | London | 3 | All Maps | STV","players":[{"user_id":28,"name":"stefanbejenari","steam_id":76561199466718294,"connected_time":7168000000000,"state":"active","ping":85},{"user_id":27,"name":"RLCrazyCat3","steam_id":76561197983757878,"connected_time":7593000000000,"state":"active","ping":66},{"user_id":113,"name":"cold","steam_id":76561199017901552,"connected_time":637000000000,"state":"active","ping":156},{"user_id":117,"name":"Dr. Funkenstein","steam_id":76561197977816210,"connected_time":402000000000,"state":"active","ping":48},{"user_id":101,"name":"Endoflobbywaittime","steam_id":76561199457528443,"connected_time":1336000000000,"state":"active","ping":167},{"user_id":112,"name":"cock","steam_id":76561198307522022,"connected_time":649000000000,"state":"active","ping":50},{"user_id":71,"name":"0lloe","steam_id":76561198070861443,"connected_time":3962000000000,"state":"active","ping":48},{"user_id":90,"name":"Helios","steam_id":76561199260846464,"connected_time":3184000000000,"state":"active","ping":66},{"user_id":108,"name":"Michael","steam_id":76561198003146906,"connected_time":886000000000,"state":"active","ping":39},{"user_id":125,"name":"Flying skyhigh","steam_id":76561198372971096,"connected_time":283000000000,"state":"active","ping":67},{"user_id":100,"name":"Endi","steam_id":76561198914938199,"connected_time":1409000000000,"state":"active","ping":102},{"user_id":109,"name":"Plep","steam_id":76561198840259819,"connected_time":884000000000,"state":"active","ping":49},{"user_id":43,"name":"GoblinGaming","steam_id":76561198360395476,"connected_time":5140000000000,"state":"active","ping":41},{"user_id":131,"name":"redcoat","steam_id":76561199017322894,"connected_time":91000000000,"state":"active","ping":53},{"user_id":114,"name":"person who like the pomson","steam_id":76561199452855953,"connected_time":625000000000,"state":"active","ping":71},{"user_id":118,"name":"jeff","steam_id":76561198272815746,"connected_time":340000000000,"state":"active","ping":55},{"user_id":123,"name":"ethan","steam_id":76561198119495513,"connected_time":299000000000,"state":"active","ping":43},{"user_id":124,"name":"big poo","steam_id":76561198129157178,"connected_time":298000000000,"state":"active","ping":81},{"user_id":132,"name":"techno rush 536","steam_id":76561198889392973,"connected_time":34000000000,"state":"active","ping":57},{"user_id":127,"name":"Doomsday","steam_id":76561198210559757,"connected_time":248000000000,"state":"active","ping":53},{"user_id":128,"name":"Memelord #69,420","steam_id":76561199013403918,"connected_time":234000000000,"state":"active","ping":74},{"user_id":59,"name":"Townsend And Sons","steam_id":76561199072698153,"connected_time":4547000000000,"state":"active","ping":71},{"user_id":130,"name":"NotChloe","steam_id":76561198080658092,"connected_time":199000000000,"state":"active","ping":60}]},{"server_id":321,"name":"Uncletopia | London | 4 | All Maps","name_short":"lon-4","host":"lon-1.uk.uncletopia.com","port":27045,"enabled":true,"region":"eu","cc":"gb","latitude":51.509865,"longitude":-0.118092,"reserved":0,"last_update":"0001-01-01T00:00:00Z","name_a2s":"Uncletopia | London | 4 | All Maps","protocol":17,"map":"pl_upward","folder":"tf","game":"Team Fortress","app_id":440,"player_count":24,"max_players":24,"Bots":0,"server_type":"Dedicated","server_os":"Linux","password":true,"vac":true,"version":"7882260","steam_id":85568392924510193,"keywords":["nocrits","nodmgspread","payload","uncletopia"],"game_id":440,"stv_port":27046,"stv_name":"Uncletopia | London | 4 | All Maps | STV","players":[{"user_id":224,"name":"IONYCH","steam_id":76561198378350040,"connected_time":382000000000,"state":"active","ping":89},{"user_id":217,"name":"JeanCorben","steam_id":76561197965133561,"connected_time":753000000000,"state":"active","ping":44},{"user_id":204,"name":"mindas tf2.LT","steam_id":76561198056839438,"connected_time":1137000000000,"state":"active","ping":69},{"user_id":195,"name":"Grimm","steam_id":76561198044684227,"connected_time":1896000000000,"state":"active","ping":63},{"user_id":222,"name":"f√©nix","steam_id":76561198083199151,"connected_time":524000000000,"state":"active","ping":57},{"user_id":213,"name":"zvekan","steam_id":76561198381101196,"connected_time":836000000000,"state":"active","ping":73},{"user_id":211,"name":"Renamed","steam_id":76561199000442784,"connected_time":869000000000,"state":"active","ping":84},{"user_id":194,"name":"svantezch","steam_id":76561198373831657,"connected_time":1944000000000,"state":"active","ping":78},{"user_id":191,"name":"graaaah","steam_id":76561198285862099,"connected_time":2385000000000,"state":"active","ping":38},{"user_id":154,"name":"Menezeris","steam_id":76561198840506844,"connected_time":6084000000000,"state":"active","ping":61},{"user_id":225,"name":"etc","steam_id":76561197998394797,"connected_time":25000000000,"state":"active","ping":50},{"user_id":148,"name":"Zerfesh","steam_id":76561198117534358,"connected_time":6289000000000,"state":"active","ping":108},{"user_id":157,"name":"Pa≈•ko Gener√°l","steam_id":76561198341579640,"connected_time":6046000000000,"state":"active","ping":71},{"user_id":181,"name":"G.R.E","steam_id":76561197979806514,"connected_time":4026000000000,"state":"active","ping":46},{"user_id":216,"name":"clunk","steam_id":76561198836460767,"connected_time":790000000000,"state":"active","ping":74},{"user_id":190,"name":"skill","steam_id":76561198106012909,"connected_time":2675000000000,"state":"active","ping":80},{"user_id":208,"name":"DrSacrebleu","steam_id":76561198053229115,"connected_time":1031000000000,"state":"active","ping":67},{"user_id":218,"name":"Wujek Cacek","steam_id":76561198010267943,"connected_time":736000000000,"state":"active","ping":77},{"user_id":141,"name":"astigmatic","steam_id":76561199103959197,"connected_time":6806000000000,"state":"active","ping":98},{"user_id":220,"name":"Narvhal√∏","steam_id":76561198147495474,"connected_time":685000000000,"state":"active","ping":41},{"user_id":219,"name":"Foreskin Gamer","steam_id":76561198283106341,"connected_time":736000000000,"state":"active","ping":53},{"user_id":221,"name":"euphoricfilth (it/her)","steam_id":76561198100160865,"connected_time":649000000000,"state":"active","ping":116},{"user_id":223,"name":"kreeekz","steam_id":76561198014431602,"connected_time":442000000000,"state":"active","ping":75},{"user_id":168,"name":"AwterSix","steam_id":76561198042561678,"connected_time":4670000000000,"state":"active","ping":70}]},{"server_id":21,"name":"Uncletopia | London | 5 | All Maps","name_short":"lon-5","host":"lon-1.uk.uncletopia.com","port":27055,"enabled":true,"region":"eu","cc":"gb","latitude":51.509865,"longitude":-0.118092,"reserved":0,"last_update":"0001-01-01T00:00:00Z","name_a2s":"Uncletopia | London | 5 | All Maps","protocol":17,"map":"pl_snowycoast","folder":"tf","game":"Team Fortress","app_id":440,"player_count":24,"max_players":24,"Bots":0,"server_type":"Dedicated","server_os":"Linux","password":true,"vac":true,"version":"7882260","steam_id":85568392924742829,"keywords":["nocrits","nodmgspread","payload","uncletopia"],"game_id":440,"stv_port":27056,"stv_name":"Uncletopia | London | 5 | All Maps | STV","players":[{"user_id":147,"name":"s a i","steam_id":76561197970379754,"connected_time":1560000000000,"state":"active","ping":60},{"user_id":143,"name":"proxac","steam_id":76561198851157897,"connected_time":2123000000000,"state":"active","ping":64},{"user_id":131,"name":"Brazilian Manga","steam_id":76561198075007033,"connected_time":3016000000000,"state":"active","ping":56},{"user_id":109,"name":"Sylvanas","steam_id":76561198154904165,"connected_time":4485000000000,"state":"active","ping":106},{"user_id":164,"name":"U1F","steam_id":76561198053700703,"connected_time":379000000000,"state":"active","ping":41},{"user_id":156,"name":"JanChr98","steam_id":76561198256239784,"connected_time":1042000000000,"state":"active","ping":96},{"user_id":150,"name":"niandits","steam_id":76561198419798900,"connected_time":1324000000000,"state":"active","ping":194},{"user_id":172,"name":"Hoxton","steam_id":76561198129209505,"connected_time":203000000000,"state":"active","ping":81},{"user_id":167,"name":"Ecy","steam_id":76561198110756682,"connected_time":278000000000,"state":"active","ping":46},{"user_id":163,"name":"Max Power","steam_id":76561198019269089,"connected_time":405000000000,"state":"active","ping":58},{"user_id":149,"name":"Washburne","steam_id":76561198032810579,"connected_time":1423000000000,"state":"active","ping":45},{"user_id":161,"name":"Malai","steam_id":76561198062537014,"connected_time":431000000000,"state":"active","ping":73},{"user_id":95,"name":"Cabbch","steam_id":76561198045955679,"connected_time":5646000000000,"state":"active","ping":45},{"user_id":152,"name":"mi cara cuando","steam_id":76561199387584010,"connected_time":1214000000000,"state":"active","ping":86},{"user_id":165,"name":"wasto-/-‚Ñ¢","steam_id":76561198102888038,"connected_time":313000000000,"state":"active","ping":60},{"user_id":166,"name":"Dewotter","steam_id":76561198007653168,"connected_time":289000000000,"state":"active","ping":60},{"user_id":168,"name":"lore","steam_id":76561198120984188,"connected_time":278000000000,"state":"active","ping":67},{"user_id":169,"name":"BubbleBlep (Violet)","steam_id":76561198092568116,"connected_time":267000000000,"state":"active","ping":82},{"user_id":42,"name":"Margaret Thatcher","steam_id":76561198124463930,"connected_time":8619000000000,"state":"active","ping":45},{"user_id":121,"name":"PukeaNuke","steam_id":76561199406528643,"connected_time":4066000000000,"state":"active","ping":49},{"user_id":128,"name":"Marquis de Hoto","steam_id":76561198080687708,"connected_time":3233000000000,"state":"active","ping":78},{"user_id":118,"name":"Random","steam_id":76561199079951047,"connected_time":4233000000000,"state":"active","ping":91},{"user_id":171,"name":"The Mask...","steam_id":76561198052402891,"connected_time":204000000000,"state":"active","ping":54},{"user_id":159,"name":"slifty","steam_id":76561198166682199,"connected_time":962000000000,"state":"active","ping":56}]},{"server_id":22,"name":"Uncletopia | London | 6 | All Maps","name_short":"lon-6","host":"lon-1.uk.uncletopia.com","port":27065,"enabled":true,"region":"eu","cc":"gb","latitude":51.509865,"longitude":-0.118092,"reserved":0,"last_update":"0001-01-01T00:00:00Z","name_a2s":"Uncletopia | London | 6 | All Maps","protocol":17,"map":"cp_altitude","folder":"tf","game":"Team Fortress","app_id":440,"player_count":13,"max_players":24,"Bots":0,"server_type":"Dedicated","server_os":"Linux","password":true,"vac":true,"version":"7882260","steam_id":85568392924742830,"keywords":["cp","nocrits","nodmgspread","uncletopia"],"game_id":440,"stv_port":27066,"stv_name":"Uncletopia | London | 6 | All Maps | STV","players":[{"user_id":86,"name":"Akkie.","steam_id":76561198017619091,"connected_time":875000000000,"state":"active","ping":59},{"user_id":93,"name":"Voks_","steam_id":76561198159687785,"connected_time":85000000000,"state":"active","ping":70},{"user_id":76,"name":"Rengii76","steam_id":76561198869802076,"connected_time":1160000000000,"state":"active","ping":85},{"user_id":91,"name":"++Old_M@N++","steam_id":76561197994792094,"connected_time":107000000000,"state":"spawning","ping":68},{"user_id":92,"name":"godmodule","steam_id":76561198165995444,"connected_time":101000000000,"state":"active","ping":76},{"user_id":78,"name":"Politick√© Provokace","steam_id":76561198412700635,"connected_time":1077000000000,"state":"active","ping":60},{"user_id":96,"name":"HOI","steam_id":76561198061182117,"connected_time":68000000000,"state":"active","ping":50},{"user_id":90,"name":"jt7","steam_id":76561198073655162,"connected_time":414000000000,"state":"active","ping":66},{"user_id":27,"name":"ideamerit","steam_id":76561198934423030,"connected_time":4051000000000,"state":"active","ping":75},{"user_id":83,"name":"cheesy chuck the chuck e cheese","steam_id":76561198013502376,"connected_time":916000000000,"state":"active","ping":53},{"user_id":84,"name":"Well, off to hang myself","steam_id":76561198053374944,"connected_time":915000000000,"state":"active","ping":69},{"user_id":55,"name":"Hexagon","steam_id":76561198151205758,"connected_time":3033000000000,"state":"active","ping":56},{"user_id":42,"name":"Mr. Mundy","steam_id":76561198132008918,"connected_time":3906000000000,"state":"active","ping":86}]},{"server_id":40,"name":"Uncletopia | London | 7 | No Payload","name_short":"lon-7","host":"lon-1.uk.uncletopia.com","port":27075,"enabled":true,"region":"eu","cc":"gb","latitude":51.509865,"longitude":-0.118092,"reserved":0,"last_update":"0001-01-01T00:00:00Z","name_a2s":"Uncletopia | London | 7 | No Payload","protocol":17,"map":"koth_harvest_final","folder":"tf","game":"Team Fortress","app_id":440,"player_count":24,"max_players":24,"Bots":0,"server_type":"Dedicated","server_os":"Linux","password":true,"vac":true,"version":"7882260","steam_id":85568392924964314,"keywords":["cp","nocrits","nodmgspread","uncletopia"],"game_id":440,"stv_port":27076,"stv_name":"Uncletopia | London | 7 | No Payload | STV","players":[{"user_id":335,"name":"pano","steam_id":76561198157446722,"connected_time":477000000000,"state":"active","ping":70},{"user_id":339,"name":"Mr Gnash","steam_id":76561198007410990,"connected_time":367000000000,"state":"active","ping":67},{"user_id":345,"name":"grzybiarz2022","steam_id":76561199409218561,"connected_time":158000000000,"state":"active","ping":120},{"user_id":315,"name":"Wattsy","steam_id":76561199143306500,"connected_time":2817000000000,"state":"active","ping":174},{"user_id":307,"name":"Lyncurion","steam_id":76561199260022725,"connected_time":3754000000000,"state":"active","ping":81},{"user_id":239,"name":"wtabs","steam_id":76561198831766743,"connected_time":6813000000000,"state":"active","ping":78},{"user_id":341,"name":"KANGZ","steam_id":76561198280363127,"connected_time":241000000000,"state":"active","ping":42},{"user_id":311,"name":"Edgar","steam_id":76561198065255259,"connected_time":3109000000000,"state":"active","ping":47},{"user_id":342,"name":"Painini","steam_id":76561198086673896,"connected_time":240000000000,"state":"active","ping":58},{"user_id":304,"name":"TheBeardedM1G","steam_id":76561198040208946,"connected_time":4466000000000,"state":"active","ping":41},{"user_id":343,"name":"rune","steam_id":76561198274501007,"connected_time":222000000000,"state":"active","ping":77},{"user_id":344,"name":"Klokov","steam_id":76561198240633534,"connected_time":195000000000,"state":"active","ping":68},{"user_id":321,"name":"MellowBoy-2354","steam_id":76561199080630632,"connected_time":2002000000000,"state":"active","ping":164},{"user_id":346,"name":"Mauve","steam_id":76561198371121377,"connected_time":121000000000,"state":"active","ping":47},{"user_id":347,"name":"Soloman","steam_id":76561199212054667,"connected_time":102000000000,"state":"active","ping":43},{"user_id":233,"name":"Maddie Downich","steam_id":76561198152392309,"connected_time":7658000000000,"state":"active","ping":48},{"user_id":348,"name":"stonebum","steam_id":76561198057004606,"connected_time":93000000000,"state":"active","ping":54},{"user_id":212,"name":"LarsInABox","steam_id":76561198028329262,"connected_time":9144000000000,"state":"active","ping":75},{"user_id":323,"name":"Nithle","steam_id":76561198025372740,"connected_time":1974000000000,"state":"active","ping":30},{"user_id":331,"name":"Vershal Smershal","steam_id":76561198116223995,"connected_time":963000000000,"state":"active","ping":57},{"user_id":334,"name":"hallu","steam_id":76561198198581079,"connected_time":767000000000,"state":"active","ping":66},{"user_id":325,"name":"Anonymous47007","steam_id":76561199005211417,"connected_time":1970000000000,"state":"active","ping":79},{"user_id":264,"name":"Fat Pigeon","steam_id":76561198817940142,"connected_time":6128000000000,"state":"active","ping":45},{"user_id":349,"name":"sz(k)","steam_id":76561198118500940,"connected_time":45000000000,"state":"active","ping":69}]},{"server_id":41,"name":"Uncletopia | London | 8 | Community","name_short":"lon-8","host":"lon-1.uk.uncletopia.com","port":27085,"enabled":true,"region":"eu","cc":"gb","latitude":51.509865,"longitude":-0.118092,"reserved":0,"last_update":"0001-01-01T00:00:00Z","name_a2s":"Uncletopia | London | 8 | Community","protocol":17,"map":"workshop/koth_trenchfoot_b1a.ugc731436616","folder":"tf","game":"Team Fortress","app_id":440,"player_count":0,"max_players":24,"Bots":0,"server_type":"Dedicated","server_os":"Linux","password":true,"vac":true,"version":"7882260","steam_id":85568392924964315,"keywords":["cp","nocrits","nodmgspread","uncletopia"],"game_id":440,"stv_port":27086,"stv_name":"Uncletopia | London | 8 | Community | STV","players":null},{"server_id":300,"name":"Uncletopia | Montr√©al | 1 | All Maps","name_short":"mtl-1","host":"mtl-1.ca.uncletopia.com","port":27015,"enabled":true,"region":"us-east","cc":"ca","latitude":45.50889,"longitude":-73.56167,"reserved":0,"last_update":"0001-01-01T00:00:00Z","name_a2s":"Uncletopia | Montr√©al | 1 | All Maps","protocol":17,"map":"cp_dustbowl","folder":"tf","game":"Team Fortress","app_id":440,"player_count":0,"max_players":24,"Bots":0,"server_type":"Dedicated","server_os":"Linux","password":true,"vac":true,"version":"7882260","steam_id":85568392924500087,"keywords":["cp","nocrits","nodmgspread","uncletopia"],"game_id":440,"stv_port":27016,"stv_name":"Uncletopia | Montr√©al | 1 | All Maps | STV","players":null},{"server_id":301,"name":"Uncletopia | Montr√©al | 2 | All Maps","name_short":"mtl-2","host":"mtl-1.ca.uncletopia.com","port":27025,"enabled":true,"region":"us-east","cc":"ca","latitude":45.50889,"longitude":-73.56167,"reserved":0,"last_update":"0001-01-01T00:00:00Z","name_a2s":"Uncletopia | Montr√©al | 2 | All Maps","protocol":17,"map":"pl_swiftwater_final1","folder":"tf","game":"Team Fortress","app_id":440,"player_count":0,"max_players":24,"Bots":0,"server_type":"Dedicated","server_os":"Linux","password":true,"vac":true,"version":"7882260","steam_id":85568392924500088,"keywords":["nocrits","nodmgspread","payload","uncletopia"],"game_id":440,"stv_port":27026,"stv_name":"Uncletopia | Montr√©al | 2 | All Maps | STV","players":null},{"server_id":302,"name":"Uncletopia | Montr√©al | 3 | All Maps","name_short":"mtl-3","host":"mtl-1.ca.uncletopia.com","port":27035,"enabled":true,"region":"us-east","cc":"ca","latitude":45.50889,"longitude":-73.56167,"reserved":0,"last_update":"0001-01-01T00:00:00Z","name_a2s":"Uncletopia | Montr√©al | 3 | All Maps","protocol":17,"map":"pl_swiftwater_final1","folder":"tf","game":"Team Fortress","app_id":440,"player_count":0,"max_players":24,"Bots":0,"server_type":"Dedicated","server_os":"Linux","password":true,"vac":true,"version":"7882260","steam_id":85568392924500089,"keywords":["nocrits","nodmgspread","payload","uncletopia"],"game_id":440,"stv_port":27036,"stv_name":"Uncletopia | Montr√©al | 3 | All Maps | STV","players":null},{"server_id":303,"name":"Uncletopia | Montr√©al | 4 | No Payload","name_short":"mtl-4","host":"mtl-1.ca.uncletopia.com","port":27045,"enabled":true,"region":"us-east","cc":"ca","latitude":45.50889,"longitude":-73.56167,"reserved":0,"last_update":"0001-01-01T00:00:00Z","name_a2s":"Uncletopia | Montr√©al | 4 | No Payload","protocol":17,"map":"koth_highpass","folder":"tf","game":"Team Fortress","app_id":440,"player_count":0,"max_players":24,"Bots":0,"server_type":"Dedicated","server_os":"Linux","password":true,"vac":true,"version":"7882260","steam_id":85568392924500090,"keywords":["cp","nocrits","nodmgspread","uncletopia"],"game_id":440,"stv_port":27046,"stv_name":"Uncletopia | Montr√©al | 4 | No Payload | STV","players":null},{"server_id":13,"name":"Uncletopia | New York City | 1 | All Maps","name_short":"nyc-1","host":"nyc-1.us.uncletopia.com","port":27015,"enabled":true,"region":"us-east","cc":"us","latitude":40.73061,"longitude":-73.93524,"reserved":0,"last_update":"0001-01-01T00:00:00Z","name_a2s":"Uncletopia | New York City | 1 | All Maps","protocol":17,"map":"pl_upward","folder":"tf","game":"Team Fortress","app_id":440,"player_count":24,"max_players":24,"Bots":0,"server_type":"Dedicated","server_os":"Linux","password":true,"vac":true,"version":"7882260","steam_id":85568392924469993,"keywords":["nocrits","nodmgspread","payload","uncletopia"],"game_id":440,"stv_port":27016,"stv_name":"Uncletopia | New York City | 1 | All Maps | STV","players":[{"user_id":71,"name":"Sh/7 Stain","steam_id":76561198408817739,"connected_time":1460000000000,"state":"active","ping":72},{"user_id":80,"name":"turd ferguson","steam_id":76561198071620782,"connected_time":696000000000,"state":"active","ping":170},{"user_id":13,"name":"Fish","steam_id":76561199258053772,"connected_time":4593000000000,"state":"active","ping":74},{"user_id":18,"name":"Gaskranx","steam_id":76561198020269547,"connected_time":4286000000000,"state":"active","ping":53},{"user_id":86,"name":"Lord TriM","steam_id":76561198048332533,"connected_time":267000000000,"state":"active","ping":91},{"user_id":62,"name":"wool","steam_id":76561198869689933,"connected_time":1748000000000,"state":"active","ping":54},{"user_id":84,"name":"a bellhop","steam_id":76561198046797995,"connected_time":623000000000,"state":"active","ping":69},{"user_id":87,"name":"inphlate","steam_id":76561199016973013,"connected_time":266000000000,"state":"active","ping":66},{"user_id":81,"name":"Ghost Lord","steam_id":76561198088956723,"connected_time":684000000000,"state":"active","ping":95},{"user_id":79,"name":"A damien","steam_id":76561198174767478,"connected_time":1086000000000,"state":"active","ping":88},{"user_id":82,"name":"Spookskeppnook","steam_id":76561199216336545,"connected_time":676000000000,"state":"active","ping":79},{"user_id":66,"name":"Jaydyn","steam_id":76561198140326797,"connected_time":1668000000000,"state":"active","ping":61},{"user_id":36,"name":"Mr_Frosty","steam_id":76561199380389079,"connected_time":3093000000000,"state":"active","ping":81},{"user_id":88,"name":"Sigiferd","steam_id":76561198148788110,"connected_time":239000000000,"state":"active","ping":122},{"user_id":53,"name":"TRx AxIon2","steam_id":76561198980931557,"connected_time":2133000000000,"state":"active","ping":49},{"user_id":65,"name":"Xx_gam3rberg_xX","steam_id":76561199035781025,"connected_time":1699000000000,"state":"active","ping":81},{"user_id":67,"name":"Estrogen Bundle","steam_id":76561198086733903,"connected_time":1624000000000,"state":"active","ping":46},{"user_id":55,"name":"Herr M√ºller","steam_id":76561198064876829,"connected_time":2081000000000,"state":"active","ping":100},{"user_id":76,"name":"Sneaky_Tank","steam_id":76561198078814793,"connected_time":1386000000000,"state":"active","ping":75},{"user_id":60,"name":"bruhmajorL69","steam_id":76561198870063561,"connected_time":1890000000000,"state":"active","ping":64},{"user_id":44,"name":"TinCanDim","steam_id":76561198184039682,"connected_time":2910000000000,"state":"active","ping":123},{"user_id":83,"name":"Mecha","steam_id":76561198014927379,"connected_time":676000000000,"state":"active","ping":72},{"user_id":85,"name":"lil costco","steam_id":76561198043862737,"connected_time":309000000000,"state":"active","ping":41},{"user_id":49,"name":"MF COOM","steam_id":76561198073522463,"connected_time":2869000000000,"state":"active","ping":165}]},{"server_id":14,"name":"Uncletopia | New York City | 2 | All Maps","name_short":"nyc-2","host":"nyc-1.us.uncletopia.com","port":27025,"enabled":true,"region":"us-east","cc":"us","latitude":40.73061,"longitude":-73.93524,"reserved":0,"last_update":"0001-01-01T00:00:00Z","name_a2s":"Uncletopia | New York City | 2 | All Maps","protocol":17,"map":"cp_dustbowl","folder":"tf","game":"Team Fortress","app_id":440,"player_count":24,"max_players":24,"Bots":0,"server_type":"Dedicated","server_os":"Linux","password":true,"vac":true,"version":"7882260","steam_id":85568392924469994,"keywords":["cp","nocrits","nodmgspread","uncletopia"],"game_id":440,"stv_port":27026,"stv_name":"Uncletopia | New York City | 2 | All Maps | STV","players":[{"user_id":131,"name":"6t26j","steam_id":76561198278282836,"connected_time":1001000000000,"state":"active","ping":47},{"user_id":144,"name":"G-G-G-GAMERSHOT","steam_id":76561198798980951,"connected_time":172000000000,"state":"active","ping":42},{"user_id":145,"name":"Musica Universalis","steam_id":76561198184794174,"connected_time":127000000000,"state":"active","ping":56},{"user_id":137,"name":"whoopsydoodle","steam_id":76561198045145360,"connected_time":698000000000,"state":"active","ping":44},{"user_id":82,"name":"Trotsky Gaming","steam_id":76561199101638460,"connected_time":4832000000000,"state":"active","ping":89},{"user_id":9,"name":"Periculosum PhD in Funny","steam_id":76561198123370914,"connected_time":9865000000000,"state":"active","ping":85},{"user_id":130,"name":"lamadre07","steam_id":76561198067337453,"connected_time":1079000000000,"state":"active","ping":111},{"user_id":124,"name":"Terry Aki","steam_id":76561199212875471,"connected_time":1310000000000,"state":"active","ping":81},{"user_id":117,"name":"Microreo","steam_id":76561198006966554,"connected_time":2201000000000,"state":"active","ping":59},{"user_id":142,"name":"specialinsect","steam_id":76561198324718706,"connected_time":564000000000,"state":"active","ping":117},{"user_id":116,"name":"Snoozey","steam_id":76561198017120466,"connected_time":2303000000000,"state":"active","ping":78},{"user_id":85,"name":"Bee_Pirate","steam_id":76561199000599111,"connected_time":4715000000000,"state":"active","ping":62},{"user_id":135,"name":"CronaTV","steam_id":76561198062956313,"connected_time":807000000000,"state":"active","ping":78},{"user_id":143,"name":"Evil_Elephant","steam_id":76561199055338631,"connected_time":374000000000,"state":"active","ping":87},{"user_id":113,"name":"ADRIEN BRODY","steam_id":76561198009299473,"connected_time":2386000000000,"state":"active","ping":55},{"user_id":132,"name":"Chilidestroy","steam_id":76561199101551797,"connected_time":1001000000000,"state":"active","ping":82},{"user_id":139,"name":"ggjjpp360","steam_id":76561199275187032,"connected_time":618000000000,"state":"active","ping":88},{"user_id":118,"name":"King","steam_id":76561198039763676,"connected_time":2177000000000,"state":"active","ping":74},{"user_id":146,"name":"swooce","steam_id":76561198156232484,"connected_time":9000000000,"state":"spawning","ping":48},{"user_id":75,"name":"Gentoo Linux Gaming","steam_id":76561197999657118,"connected_time":5654000000000,"state":"active","ping":75},{"user_id":125,"name":"Mossed Ball","steam_id":76561199031256509,"connected_time":1166000000000,"state":"active","ping":71},{"user_id":147,"name":"SHADY SWEATER SALESMAN","steam_id":76561198014616865,"connected_time":9000000000,"state":"active","ping":53},{"user_id":121,"name":"Brawmario","steam_id":76561198025313430,"connected_time":1569000000000,"state":"active","ping":165},{"user_id":90,"name":"Nerrrd_","steam_id":76561198870129960,"connected_time":3981000000000,"state":"active","ping":45}]},{"server_id":15,"name":"Uncletopia | New York City | 3 | Stopwatch Beta","name_short":"nyc-3","host":"nyc-1.us.uncletopia.com","port":27035,"enabled":true,"region":"us-east","cc":"us","latitude":40.73061,"longitude":-73.93524,"reserved":0,"last_update":"0001-01-01T00:00:00Z","name_a2s":"Uncletopia | New York City | 3 | Stopwatch Beta","protocol":17,"map":"pl_borneo","folder":"tf","game":"Team Fortress","app_id":440,"player_count":0,"max_players":24,"Bots":0,"server_type":"Dedicated","server_os":"Linux","password":true,"vac":true,"version":"7882260","steam_id":85568392924742820,"keywords":["nocrits","nodmgspread","payload","uncletopia"],"game_id":440,"stv_port":27036,"stv_name":"Uncletopia | New York City | 3 | Stopwatch Beta | STV","players":null},{"server_id":16,"name":"Uncletopia | New York City | 4 | Community","name_short":"nyc-4","host":"nyc-1.us.uncletopia.com","port":27045,"enabled":true,"region":"us-east","cc":"us","latitude":40.73061,"longitude":-73.93524,"reserved":0,"last_update":"0001-01-01T00:00:00Z","name_a2s":"Uncletopia | New York City | 4 | Community","protocol":17,"map":"cp_altitude","folder":"tf","game":"Team Fortress","app_id":440,"player_count":0,"max_players":24,"Bots":0,"server_type":"Dedicated","server_os":"Linux","password":true,"vac":true,"version":"7882260","steam_id":85568392924742821,"keywords":["cp","nocrits","nodmgspread","uncletopia"],"game_id":440,"stv_port":27046,"stv_name":"Uncletopia | New York City | 4 | Community | STV","players":null},{"server_id":142,"name":"Uncletopia | S√£o Paulo | 1 | All Maps","name_short":"sao-1","host":"sao-1.br.uncletopia.com","port":27015,"enabled":true,"region":"sa","cc":"br","latitude":-23.533773,"longitude":-46.62529,"reserved":0,"last_update":"0001-01-01T00:00:00Z","name_a2s":"Uncletopia | S√£o Paulo | 1 | All Maps","protocol":17,"map":"pl_upward","folder":"tf","game":"Team Fortress","app_id":440,"player_count":1,"max_players":24,"Bots":0,"server_type":"Dedicated","server_os":"Linux","password":true,"vac":true,"version":"7882260","steam_id":85568392924469996,"keywords":["nocrits","nodmgspread","payload","uncletopia"],"game_id":440,"stv_port":27016,"stv_name":"Uncletopia | S√£o Paulo | 1 | All Maps | STV","players":[{"user_id":3,"name":"m00n","steam_id":76561199136509500,"connected_time":72000000000,"state":"active","ping":300}]},{"server_id":143,"name":"Uncletopia | S√£o Paulo | 2 | All Maps","name_short":"sao-2","host":"sao-2.br.uncletopia.com","port":27015,"enabled":true,"region":"sa","cc":"br","latitude":-23.533773,"longitude":-46.62529,"reserved":0,"last_update":"0001-01-01T00:00:00Z","name_a2s":"Uncletopia | S√£o Paulo | 2 | All Maps","protocol":17,"map":"koth_viaduct","folder":"tf","game":"Team Fortress","app_id":440,"player_count":0,"max_players":24,"Bots":0,"server_type":"Dedicated","server_os":"Linux","password":true,"vac":true,"version":"7882260","steam_id":85568392924485349,"keywords":["cp","nocrits","nodmgspread","uncletopia"],"game_id":440,"stv_port":27016,"stv_name":"Uncletopia | S√£o Paulo | 2 | All Maps | STV","players":null},{"server_id":7,"name":"Uncletopia | Seattle | 1 | All Maps","name_short":"sea-1","host":"sea-1.us.uncletopia.com","port":27015,"enabled":true,"region":"us-west","cc":"us","latitude":47.608013,"longitude":-122.33517,"reserved":0,"last_update":"0001-01-01T00:00:00Z","name_a2s":"Uncletopia | Seattle | 1 | All Maps","protocol":17,"map":"pl_upward","folder":"tf","game":"Team Fortress","app_id":440,"player_count":23,"max_players":24,"Bots":0,"server_type":"Dedicated","server_os":"Linux","password":true,"vac":true,"version":"7882260","steam_id":85568392924469997,"keywords":["nocrits","nodmgspread","payload","uncletopia"],"game_id":440,"stv_port":27016,"stv_name":"Uncletopia | Seattle | 1 | All Maps | STV","players":[{"user_id":194,"name":"gloobern","steam_id":76561198341190679,"connected_time":377000000000,"state":"active","ping":62},{"user_id":156,"name":"Sploonbabagoosecooties","steam_id":76561198139972201,"connected_time":2355000000000,"state":"active","ping":63},{"user_id":120,"name":"Party_Garden","steam_id":76561198136313469,"connected_time":7080000000000,"state":"active","ping":134},{"user_id":115,"name":"\\m/ Cyfun (she/it)","steam_id":76561197960882221,"connected_time":7242000000000,"state":"active","ping":101},{"user_id":149,"name":"[TrC] Dackstrus","steam_id":76561197973518509,"connected_time":2815000000000,"state":"active","ping":57},{"user_id":142,"name":"lili","steam_id":76561199391478575,"connected_time":3792000000000,"state":"active","ping":70},{"user_id":179,"name":"‚ù§Cookie‚ù§","steam_id":76561198167488304,"connected_time":1108000000000,"state":"active","ping":115},{"user_id":180,"name":"exephur","steam_id":76561198135763234,"connected_time":1094000000000,"state":"active","ping":66},{"user_id":182,"name":"Alan","steam_id":76561198977083959,"connected_time":1065000000000,"state":"active","ping":66},{"user_id":168,"name":"Skai","steam_id":76561198048890384,"connected_time":1746000000000,"state":"active","ping":83},{"user_id":144,"name":"Pockets","steam_id":76561198001742296,"connected_time":3574000000000,"state":"active","ping":107},{"user_id":128,"name":"Za Zombie","steam_id":76561198055545262,"connected_time":6166000000000,"state":"active","ping":92},{"user_id":188,"name":"evilOlive","steam_id":76561198106222025,"connected_time":951000000000,"state":"active","ping":86},{"user_id":177,"name":"super smash2josh","steam_id":76561198140864125,"connected_time":1176000000000,"state":"active","ping":62},{"user_id":192,"name":"Ruben","steam_id":76561198048508642,"connected_time":498000000000,"state":"active","ping":51},{"user_id":195,"name":"Ziggie Smalls","steam_id":76561198804592809,"connected_time":112000000000,"state":"active","ping":46},{"user_id":187,"name":"Skabbety","steam_id":76561198168044257,"connected_time":1019000000000,"state":"active","ping":43},{"user_id":181,"name":"What are you doing?!","steam_id":76561198405248691,"connected_time":1094000000000,"state":"active","ping":75},{"user_id":151,"name":"lusty","steam_id":76561198138478947,"connected_time":2618000000000,"state":"active","ping":40},{"user_id":124,"name":"Keamy","steam_id":76561199471434875,"connected_time":6208000000000,"state":"active","ping":44},{"user_id":174,"name":"rat gets the cheese","steam_id":76561198031234032,"connected_time":1440000000000,"state":"active","ping":100},{"user_id":189,"name":"OHGODBEES!","steam_id":76561198000653374,"connected_time":890000000000,"state":"active","ping":96},{"user_id":191,"name":"--)YawgMoss(-- \"The Salt\"","steam_id":76561198072971649,"connected_time":820000000000,"state":"active","ping":67}]},{"server_id":119,"name":"Uncletopia | Seattle | 2 | All Maps","name_short":"sea-2","host":"sea-1.us.uncletopia.com","port":27025,"enabled":true,"region":"us-west","cc":"us","latitude":47.608013,"longitude":-122.33517,"reserved":0,"last_update":"0001-01-01T00:00:00Z","name_a2s":"Uncletopia | Seattle | 2 | All Maps","protocol":17,"map":"pl_borneo","folder":"tf","game":"Team Fortress","app_id":440,"player_count":24,"max_players":24,"Bots":0,"server_type":"Dedicated","server_os":"Linux","password":true,"vac":true,"version":"7882260","steam_id":85568392924469998,"keywords":["nocrits","nodmgspread","payload","uncletopia"],"game_id":440,"stv_port":27026,"stv_name":"Uncletopia | Seattle | 2 | All Maps | STV","players":[{"user_id":135,"name":"Dr. Mantis Tobaggan, M.D.","steam_id":76561198028550499,"connected_time":440000000000,"state":"active","ping":128},{"user_id":99,"name":"CasemanTheBlondeBear","steam_id":76561198144862404,"connected_time":2940000000000,"state":"active","ping":52},{"user_id":120,"name":"Joe Cocker","steam_id":76561199080728119,"connected_time":1480000000000,"state":"active","ping":56},{"user_id":93,"name":"sillyjack","steam_id":76561198844273999,"connected_time":3360000000000,"state":"active","ping":43},{"user_id":124,"name":"Banzai","steam_id":76561198196503877,"connected_time":1023000000000,"state":"active","ping":45},{"user_id":134,"name":"ThePirateKenway","steam_id":76561198115156181,"connected_time":485000000000,"state":"active","ping":95},{"user_id":113,"name":"The Owlchemist","steam_id":76561198010239032,"connected_time":1750000000000,"state":"active","ping":72},{"user_id":128,"name":"SomeRandomMail","steam_id":76561199002913110,"connected_time":711000000000,"state":"active","ping":65},{"user_id":103,"name":"Zeebop","steam_id":76561198148332988,"connected_time":2631000000000,"state":"active","ping":102},{"user_id":136,"name":"chat gpt hedgee","steam_id":76561198800365464,"connected_time":317000000000,"state":"active","ping":63},{"user_id":97,"name":"LWebb","steam_id":76561199162936929,"connected_time":3010000000000,"state":"active","ping":104},{"user_id":110,"name":"professional twelve year old","steam_id":76561198858796870,"connected_time":1987000000000,"state":"active","ping":44},{"user_id":129,"name":"stoner","steam_id":76561198161747964,"connected_time":710000000000,"state":"active","ping":69},{"user_id":123,"name":"Mico (Mico)","steam_id":76561198125462953,"connected_time":1256000000000,"state":"active","ping":46},{"user_id":108,"name":"RICE A RONI JABRONI","steam_id":76561198251653444,"connected_time":2217000000000,"state":"active","ping":131},{"user_id":115,"name":"n99k","steam_id":76561198203732449,"connected_time":1725000000000,"state":"active","ping":121},{"user_id":107,"name":"Polly Geist","steam_id":76561198271964253,"connected_time":2363000000000,"state":"active","ping":68},{"user_id":82,"name":"dweaver","steam_id":76561198119610135,"connected_time":4274000000000,"state":"active","ping":88},{"user_id":130,"name":"Œ≤","steam_id":76561198163535075,"connected_time":710000000000,"state":"active","ping":116},{"user_id":131,"name":"smaerdevahot","steam_id":76561198369075257,"connected_time":703000000000,"state":"active","ping":56},{"user_id":132,"name":"ryghehn","steam_id":76561198195359229,"connected_time":682000000000,"state":"active","ping":44},{"user_id":58,"name":"the","steam_id":76561198003226288,"connected_time":6072000000000,"state":"active","ping":118},{"user_id":78,"name":"b3afy","steam_id":76561198084208649,"connected_time":5016000000000,"state":"active","ping":51},{"user_id":133,"name":"X-7","steam_id":76561198127217378,"connected_time":632000000000,"state":"active","ping":122}]},{"server_id":406,"name":"Uncletopia | Seattle | 3 | Stopwatch Beta","name_short":"sea-3","host":"sea-1.us.uncletopia.com","port":27035,"enabled":true,"region":"us-west","cc":"us","latitude":47.608013,"longitude":-122.33517,"reserved":0,"last_update":"0001-01-01T00:00:00Z","name_a2s":"Uncletopia | Seattle | 3 | Stopwatch Beta","protocol":17,"map":"koth_viaduct","folder":"tf","game":"Team Fortress","app_id":440,"player_count":0,"max_players":24,"Bots":0,"server_type":"Dedicated","server_os":"Linux","password":true,"vac":true,"version":"7882260","steam_id":85568392924515217,"keywords":["cp","nocrits","nodmgspread","uncletopia"],"game_id":440,"stv_port":27036,"stv_name":"Uncletopia | Seattle | 3 | Stopwatch Beta | STV","players":null},{"server_id":17,"name":"Uncletopia | San Francisco | 1 | All Maps","name_short":"sfo-1","host":"sfo-1.us.uncletopia.com","port":27015,"enabled":true,"region":"us-west","cc":"us","latitude":37.77397,"longitude":-122.4313,"reserved":0,"last_update":"0001-01-01T00:00:00Z","name_a2s":"Uncletopia | San Francisco | 1 | All Maps","protocol":17,"map":"pl_borneo","folder":"tf","game":"Team Fortress","app_id":440,"player_count":24,"max_players":24,"Bots":0,"server_type":"Dedicated","server_os":"Linux","password":true,"vac":true,"version":"7882260","steam_id":85568392924469999,"keywords":["nocrits","nodmgspread","payload","uncletopia"],"game_id":440,"stv_port":27016,"stv_name":"Uncletopia | San Francisco | 1 | All Maps | STV","players":[{"user_id":109,"name":"Mr.Beast","steam_id":76561198100385184,"connected_time":1063000000000,"state":"active","ping":54},{"user_id":95,"name":"Jacob Hornberger 2016","steam_id":76561198204549723,"connected_time":2532000000000,"state":"active","ping":133},{"user_id":101,"name":"SHADOW (he/him)","steam_id":76561198207768148,"connected_time":1837000000000,"state":"active","ping":54},{"user_id":105,"name":"June","steam_id":76561198141803658,"connected_time":1432000000000,"state":"active","ping":55},{"user_id":124,"name":"CopperBox","steam_id":76561198068217248,"connected_time":183000000000,"state":"active","ping":74},{"user_id":122,"name":"Lizardman","steam_id":76561198022410505,"connected_time":287000000000,"state":"active","ping":48},{"user_id":123,"name":"Lone_Explorer","steam_id":76561198081972715,"connected_time":218000000000,"state":"active","ping":87},{"user_id":97,"name":"GlizzLord","steam_id":76561198321010427,"connected_time":2314000000000,"state":"active","ping":74},{"user_id":121,"name":"Bean456","steam_id":76561199179804378,"connected_time":336000000000,"state":"active","ping":129},{"user_id":125,"name":"Jay","steam_id":76561198148464582,"connected_time":177000000000,"state":"connecting","ping":0},{"user_id":61,"name":"ForAPessimistImPrettyOptimistic","steam_id":76561198170128009,"connected_time":4596000000000,"state":"active","ping":53},{"user_id":104,"name":"OmniMoto","steam_id":76561198091298557,"connected_time":1439000000000,"state":"active","ping":74},{"user_id":117,"name":"wuddles","steam_id":76561198025782349,"connected_time":573000000000,"state":"active","ping":54},{"user_id":130,"name":"Blitzy","steam_id":76561198149472890,"connected_time":59000000000,"state":"active","ping":90},{"user_id":114,"name":"goldhed","steam_id":76561198051751133,"connected_time":928000000000,"state":"active","ping":78},{"user_id":127,"name":"jumbi","steam_id":76561198353456379,"connected_time":158000000000,"state":"active","ping":73},{"user_id":108,"name":"Vriska Serket Liker","steam_id":76561198052017573,"connected_time":1387000000000,"state":"active","ping":76},{"user_id":115,"name":"Chordz","steam_id":76561198055478510,"connected_time":890000000000,"state":"active","ping":100},{"user_id":65,"name":"Ockulus","steam_id":76561199069638460,"connected_time":4308000000000,"state":"active","ping":54},{"user_id":118,"name":"Sappable Sentry","steam_id":76561199189265323,"connected_time":480000000000,"state":"active","ping":116},{"user_id":99,"name":"Steemy","steam_id":76561198041775529,"connected_time":2033000000000,"state":"active","ping":119},{"user_id":119,"name":"Mike Oxlong","steam_id":76561198078737601,"connected_time":430000000000,"state":"active","ping":105},{"user_id":128,"name":"Messi x Shrek Gay Fanfic","steam_id":76561198804745780,"connected_time":152000000000,"state":"active","ping":60},{"user_id":129,"name":"static","steam_id":76561198364916394,"connected_time":89000000000,"state":"active","ping":60}]},{"server_id":18,"name":"Uncletopia | San Francisco | 2 | All Maps","name_short":"sfo-2","host":"sfo-1.us.uncletopia.com","port":27025,"enabled":true,"region":"us-west","cc":"us","latitude":37.77397,"longitude":-122.4313,"reserved":0,"last_update":"0001-01-01T00:00:00Z","name_a2s":"Uncletopia | San Francisco | 2 | All Maps","protocol":17,"map":"cp_dustbowl","folder":"tf","game":"Team Fortress","app_id":440,"player_count":5,"max_players":24,"Bots":0,"server_type":"Dedicated","server_os":"Linux","password":true,"vac":true,"version":"7882260","steam_id":85568392924470000,"keywords":["cp","nocrits","nodmgspread","uncletopia"],"game_id":440,"stv_port":27026,"stv_name":"Uncletopia | San Francisco | 2 | All Maps | STV","players":[{"user_id":3,"name":"OneTrueMako","steam_id":76561199108504378,"connected_time":3750000000000,"state":"active","ping":143},{"user_id":11,"name":"Young Sandwich","steam_id":76561198180908482,"connected_time":557000000000,"state":"active","ping":118},{"user_id":6,"name":"Axelonemillion15","steam_id":76561198421342282,"connected_time":2985000000000,"state":"active","ping":65},{"user_id":12,"name":"Jay","steam_id":76561198148464582,"connected_time":77000000000,"state":"active","ping":88},{"user_id":13,"name":"GENERAL OBIWAN KENOBI","steam_id":76561199159391245,"connected_time":69000000000,"state":"spawning","ping":81}]},{"server_id":19,"name":"Uncletopia | San Francisco | 3 | Stopwatch Beta","name_short":"sfo-3","host":"sfo-1.us.uncletopia.com","port":27035,"enabled":true,"region":"us-west","cc":"us","latitude":37.77397,"longitude":-122.4313,"reserved":0,"last_update":"0001-01-01T00:00:00Z","name_a2s":"Uncletopia | San Francisco | 3 | Stopwatch Beta","protocol":17,"map":"pl_snowycoast","folder":"tf","game":"Team Fortress","app_id":440,"player_count":0,"max_players":24,"Bots":0,"server_type":"Dedicated","server_os":"Linux","password":true,"vac":true,"version":"7882260","steam_id":85568392924742824,"keywords":["nocrits","nodmgspread","payload","uncletopia"],"game_id":440,"stv_port":27036,"stv_name":"Uncletopia | San Francisco | 3 | Stopwatch Beta | STV","players":null},{"server_id":20,"name":"Uncletopia | San Francisco | 4 | Community","name_short":"sfo-4","host":"sfo-1.us.uncletopia.com","port":27045,"enabled":true,"region":"us-west","cc":"us","latitude":37.77397,"longitude":-122.4313,"reserved":0,"last_update":"0001-01-01T00:00:00Z","name_a2s":"Uncletopia | San Francisco | 4 | Community","protocol":17,"map":"pl_swiftwater_final1","folder":"tf","game":"Team Fortress","app_id":440,"player_count":0,"max_players":24,"Bots":0,"server_type":"Dedicated","server_os":"Linux","password":true,"vac":true,"version":"7882260","steam_id":85568392924742826,"keywords":["nocrits","nodmgspread","payload","uncletopia"],"game_id":440,"stv_port":27046,"stv_name":"Uncletopia | San Francisco | 4 | Community | STV","players":null},{"server_id":141,"name":"Uncletopia | Sydney | 1 | All Maps","name_short":"syd-1","host":"syd-1.au.uncletopia.com","port":27015,"enabled":true,"region":"au","cc":"au","latitude":-33.865143,"longitude":151.2099,"reserved":0,"last_update":"0001-01-01T00:00:00Z","name_a2s":"Uncletopia | Sydney | 1 | All Maps","protocol":17,"map":"cp_altitude","folder":"tf","game":"Team Fortress","app_id":440,"player_count":0,"max_players":24,"Bots":0,"server_type":"Dedicated","server_os":"Linux","password":true,"vac":true,"version":"7882260","steam_id":85568392924470001,"keywords":["cp","nocrits","nodmgspread","uncletopia"],"game_id":440,"stv_port":27016,"stv_name":"Uncletopia | Sydney | 1 | All Maps | STV","players":null},{"server_id":123,"name":"Uncletopia | Sydney | 2 | All Maps","name_short":"syd-2","host":"syd-1.au.uncletopia.com","port":27025,"enabled":true,"region":"au","cc":"au","latitude":-33.865143,"longitude":151.2099,"reserved":0,"last_update":"0001-01-01T00:00:00Z","name_a2s":"Uncletopia | Sydney | 2 | All Maps","protocol":17,"map":"cp_snakewater_final1","folder":"tf","game":"Team Fortress","app_id":440,"player_count":0,"max_players":24,"Bots":0,"server_type":"Dedicated","server_os":"Linux","password":true,"vac":true,"version":"7882260","steam_id":85568392924470002,"keywords":["cp","nocrits","nodmgspread","uncletopia"],"game_id":440,"stv_port":27026,"stv_name":"Uncletopia | Sydney | 2 | All Maps | STV","players":null},{"server_id":395,"name":"Uncletopia | Sydney | 3 | All Maps","name_short":"syd-3","host":"syd-1.au.uncletopia.com","port":27035,"enabled":true,"region":"au","cc":"au","latitude":-33.865143,"longitude":151.2099,"reserved":0,"last_update":"0001-01-01T00:00:00Z","name_a2s":"Uncletopia | Sydney | 3 | All Maps","protocol":17,"map":"pl_badwater","folder":"tf","game":"Team Fortress","app_id":440,"player_count":0,"max_players":24,"Bots":0,"server_type":"Dedicated","server_os":"Linux","password":true,"vac":true,"version":"7882260","steam_id":85568392925194467,"keywords":["nocrits","nodmgspread","payload","uncletopia"],"game_id":440,"stv_port":27036,"stv_name":"Uncletopia | Sydney | 3 | All Maps | STV","players":null},{"server_id":396,"name":"Uncletopia | Sydney | 4 | All Maps","name_short":"syd-4","host":"syd-1.au.uncletopia.com","port":27045,"enabled":true,"region":"au","cc":"au","latitude":-33.865143,"longitude":151.2099,"reserved":0,"last_update":"0001-01-01T00:00:00Z","name_a2s":"Uncletopia | Sydney | 4 | All Maps","protocol":17,"map":"cp_altitude","folder":"tf","game":"Team Fortress","app_id":440,"player_count":0,"max_players":24,"Bots":0,"server_type":"Dedicated","server_os":"Linux","password":true,"vac":true,"version":"7882260","steam_id":85568392925397958,"keywords":["cp","nocrits","nodmgspread","uncletopia"],"game_id":440,"stv_port":27046,"stv_name":"Uncletopia | Sydney | 4 | All Maps | STV","players":null},{"server_id":58,"name":"Uncletopia | Sydney | 5 | Stopwatch Beta","name_short":"syd-5","host":"syd-1.au.uncletopia.com","port":27055,"enabled":true,"region":"au","cc":"au","latitude":-33.865143,"longitude":151.2099,"reserved":0,"last_update":"0001-01-01T00:00:00Z","name_a2s":"Uncletopia | Sydney | 5 | Stopwatch Beta","protocol":17,"map":"koth_viaduct","folder":"tf","game":"Team Fortress","app_id":440,"player_count":0,"max_players":24,"Bots":0,"server_type":"Dedicated","server_os":"Linux","password":true,"vac":true,"version":"7882260","steam_id":85568392925397959,"keywords":["cp","nocrits","nodmgspread","uncletopia"],"game_id":440,"stv_port":27056,"stv_name":"Uncletopia | Sydney | 5 | Stopwatch Beta | STV","players":null},{"server_id":59,"name":"Uncletopia | Sydney | 6 | Community","name_short":"syd-6","host":"syd-1.au.uncletopia.com","port":27065,"enabled":true,"region":"au","cc":"au","latitude":-33.865143,"longitude":151.2099,"reserved":0,"last_update":"0001-01-01T00:00:00Z","name_a2s":"Uncletopia | Sydney | 6 | Community","protocol":17,"map":"pl_upward","folder":"tf","game":"Team Fortress","app_id":440,"player_count":0,"max_players":24,"Bots":0,"server_type":"Dedicated","server_os":"Linux","password":true,"vac":true,"version":"7882260","steam_id":85568392925397960,"keywords":["nocrits","nodmgspread","payload","uncletopia"],"game_id":440,"stv_port":27066,"stv_name":"Uncletopia | Sydney | 6 | Community | STV","players":null},{"server_id":49,"name":"Uncletopia | Warsaw | 1 | All Maps","name_short":"waw-1","host":"waw-1.pl.uncletopia.com","port":27015,"enabled":true,"region":"eu","cc":"pl","latitude":52.2297,"longitude":21.017532,"reserved":0,"last_update":"0001-01-01T00:00:00Z","name_a2s":"","protocol":0,"map":"","folder":"","game":"","app_id":0,"player_count":0,"max_players":0,"Bots":0,"server_type":"","server_os":"","password":false,"vac":false,"version":"","steam_id":0,"keywords":null,"game_id":0,"stv_port":0,"stv_name":"","players":null},{"server_id":50,"name":"Uncletopia | Warsaw | 2 | All Maps","name_short":"waw-2","host":"waw-1.pl.uncletopia.com","port":27025,"enabled":true,"region":"eu","cc":"pl","latitude":52.2297,"longitude":21.017532,"reserved":0,"last_update":"0001-01-01T00:00:00Z","name_a2s":"Uncletopia | Warsaw | 2 | All Maps","protocol":17,"map":"koth_viaduct","folder":"tf","game":"Team Fortress","app_id":440,"player_count":0,"max_players":24,"Bots":0,"server_type":"Dedicated","server_os":"Linux","password":true,"vac":true,"version":"7882260","steam_id":85568392925397851,"keywords":["cp","nocrits","nodmgspread","uncletopia"],"game_id":440,"stv_port":27026,"stv_name":"Uncletopia | Warsaw | 2 | All Maps | STV","players":null},{"server_id":51,"name":"Uncletopia | Warsaw | 3 | All Maps","name_short":"waw-3","host":"waw-1.pl.uncletopia.com","port":27035,"enabled":true,"region":"eu","cc":"pl","latitude":52.2297,"longitude":21.017532,"reserved":0,"last_update":"0001-01-01T00:00:00Z","name_a2s":"Uncletopia | Warsaw | 3 | All Maps","protocol":17,"map":"koth_highpass","folder":"tf","game":"Team Fortress","app_id":440,"player_count":22,"max_players":24,"Bots":0,"server_type":"Dedicated","server_os":"Linux","password":true,"vac":true,"version":"7882260","steam_id":85568392925397852,"keywords":["cp","nocrits","nodmgspread","uncletopia"],"game_id":440,"stv_port":27036,"stv_name":"Uncletopia | Warsaw | 3 | All Maps | STV","players":[{"user_id":58,"name":"EddieTheBear","steam_id":76561197962698753,"connected_time":132000000000,"state":"active","ping":83},{"user_id":4,"name":"Tortoise01Swe","steam_id":76561198118673227,"connected_time":2993000000000,"state":"active","ping":89},{"user_id":5,"name":"Elix","steam_id":76561198157179447,"connected_time":2988000000000,"state":"active","ping":71},{"user_id":6,"name":"DOODL","steam_id":76561198358378176,"connected_time":2977000000000,"state":"active","ping":90},{"user_id":51,"name":"TheShield","steam_id":76561199158386096,"connected_time":602000000000,"state":"active","ping":83},{"user_id":45,"name":"Smart Chimp","steam_id":76561198243603442,"connected_time":930000000000,"state":"active","ping":89},{"user_id":9,"name":"Xestoch","steam_id":76561197999642906,"connected_time":2800000000000,"state":"active","ping":140},{"user_id":10,"name":"Morfiwen","steam_id":76561198930976764,"connected_time":2792000000000,"state":"active","ping":76},{"user_id":11,"name":"Smiasykao","steam_id":76561198253132954,"connected_time":2782000000000,"state":"active","ping":79},{"user_id":57,"name":"Vitgone","steam_id":76561198322880238,"connected_time":222000000000,"state":"active","ping":85},{"user_id":46,"name":"Big Water","steam_id":76561198009715361,"connected_time":897000000000,"state":"active","ping":171},{"user_id":47,"name":"Counter Plexus","steam_id":76561198081479942,"connected_time":814000000000,"state":"active","ping":85},{"user_id":50,"name":"dog","steam_id":76561198063919822,"connected_time":639000000000,"state":"active","ping":67},{"user_id":22,"name":"Gorzel","steam_id":76561198828273330,"connected_time":2144000000000,"state":"active","ping":57},{"user_id":24,"name":"≈Çysy_bambo","steam_id":76561198996474600,"connected_time":2095000000000,"state":"active","ping":68},{"user_id":30,"name":"Syd","steam_id":76561198020515027,"connected_time":1719000000000,"state":"active","ping":63},{"user_id":52,"name":"noobdog","steam_id":76561198036486671,"connected_time":538000000000,"state":"active","ping":74},{"user_id":32,"name":"Hercules","steam_id":76561198041164170,"connected_time":1690000000000,"state":"active","ping":35},{"user_id":34,"name":"Pain in a Box","steam_id":76561197990777173,"connected_time":1642000000000,"state":"active","ping":213},{"user_id":44,"name":"Z.","steam_id":76561198367362266,"connected_time":1182000000000,"state":"active","ping":91},{"user_id":53,"name":"Engophanobia","steam_id":76561198071860413,"connected_time":536000000000,"state":"active","ping":73},{"user_id":54,"name":"BreadAcres","steam_id":76561198098217082,"connected_time":528000000000,"state":"active","ping":72}]},{"server_id":52,"name":"Uncletopia | Warsaw | 4 | All Maps","name_short":"waw-4","host":"waw-1.pl.uncletopia.com","port":27045,"enabled":true,"region":"eu","cc":"pl","latitude":52.2297,"longitude":21.017532,"reserved":0,"last_update":"0001-01-01T00:00:00Z","name_a2s":"Uncletopia | Warsaw | 4 | All Maps","protocol":17,"map":"koth_cascade","folder":"tf","game":"Team Fortress","app_id":440,"player_count":0,"max_players":24,"Bots":0,"server_type":"Dedicated","server_os":"Linux","password":true,"vac":true,"version":"7882260","steam_id":85568392925397853,"keywords":["cp","nocrits","nodmgspread","uncletopia"],"game_id":440,"stv_port":27046,"stv_name":"Uncletopia | Warsaw | 4 | All Maps | STV","players":null},{"server_id":53,"name":"Uncletopia | Warsaw | 5 | Stopwatch Beta","name_short":"waw-5","host":"waw-1.pl.uncletopia.com","port":27055,"enabled":true,"region":"eu","cc":"pl","latitude":52.2297,"longitude":21.017532,"reserved":0,"last_update":"0001-01-01T00:00:00Z","name_a2s":"Uncletopia | Warsaw | 5 | Stopwatch Beta","protocol":17,"map":"cp_gullywash_final1","folder":"tf","game":"Team Fortress","app_id":440,"player_count":0,"max_players":24,"Bots":0,"server_type":"Dedicated","server_os":"Linux","password":true,"vac":true,"version":"7882260","steam_id":85568392925397854,"keywords":["cp","nocrits","nodmgspread","uncletopia"],"game_id":440,"stv_port":27056,"stv_name":"Uncletopia | Warsaw | 5 | Stopwatch Beta | STV","players":null},{"server_id":54,"name":"Uncletopia | Warsaw | 6 | Community","name_short":"waw-6","host":"waw-1.pl.uncletopia.com","port":27065,"enabled":true,"region":"eu","cc":"pl","latitude":52.2297,"longitude":21.017532,"reserved":0,"last_update":"0001-01-01T00:00:00Z","name_a2s":"Uncletopia | Warsaw | 6 | Community","protocol":17,"map":"workshop/cp_croissant_final.ugc458840209","folder":"tf","game":"Team Fortress","app_id":440,"player_count":0,"max_players":24,"Bots":0,"server_type":"Dedicated","server_os":"Linux","password":true,"vac":true,"version":"7882260","steam_id":85568392925397856,"keywords":["cp","nocrits","nodmgspread","uncletopia"],"game_id":440,"stv_port":27066,"stv_name":"Uncletopia | Warsaw | 6 | Community | STV","players":null}]}