{"status":true,"message":"","result":[{"server_id":9,"name":"Uncletopia | Atlanta | 1 | All Maps","name_short":"atl-1","host":"atl-1.us.uncletopia.com","port":27015,"enabled":true,"region":"us-east","cc":"us","latitude":33.753746,"longitude":-84.38633,"reserved":0,"last_update":"0001-01-01T00:00:00Z","name_a2s":"Uncletopia | Atlanta | 1 | All Maps","protocol":17,"map":"pl_snowycoast","folder":"tf","game":"Team Fortress","app_id":440,"player_count":24,"max_players":24,"Bots":0,"server_type":"Dedicated","server_os":"Linux","password":true,"vac":true,"version":"7961495","steam_id":85568392924469982,"keywords":["nocrits","nodmgspread","payload","uncletopia"],"game_id":440,"stv_port":27016,"stv_name":"Uncletopia | Atlanta | 1 | All Maps | STV","players":null},{"server_id":104,"name":"Uncletopia | Atlanta | 2 | All Maps","name_short":"atl-2","host":"atl-1.us.uncletopia.com","port":27025,"enabled":true,"region":"us-east","cc":"us","latitude":33.753746,"longitude":-84.38633,"reserved":0,"last_update":"0001-01-01T00:00:00Z","name_a2s":"Uncletopia | Atlanta | 2 | All Maps","protocol":17,"map":"cp_altitude","folder":"tf","game":"Team Fortress","app_id":440,"player_count":23,"max_players":24,"Bots":0,"server_type":"Dedicated","server_os":"Linux","password":true,"vac":true,"version":"7961495","steam_id":85568392924469983,"keywords":["cp","nocrits","nodmgspread","uncletopia"],"game_id":440,"stv_port":27026,"stv_name":"Uncletopia | Atlanta | 2 | All Maps | STV","players":null},{"server_id":400,"name":"Uncletopia | Atlanta | 3 | Stopwatch","name_short":"atl-3","host":"atl-1.us.uncletopia.com","port":27035,"enabled":true,"region":"us-east","cc":"us","latitude":33.753746,"longitude":-84.38633,"reserved":0,"last_update":"0001-01-01T00:00:00Z","name_a2s":"Uncletopia | Atlanta | 3 | Stopwatch","protocol":17,"map":"cp_sunshine","folder":"tf","game":"Team Fortress","app_id":440,"player_count":0,"max_players":24,"Bots":0,"server_type":"Dedicated","server_os":"Linux","password":true,"vac":true,"version":"7961495","steam_id":85568392924515187,"keywords":["cp","nocrits","nodmgspread","uncletopia"],"game_id":440,"stv_port":27036,"stv_name":"Uncletopia | Atlanta | 3 | Stopwatch | STV","players":null},{"server_id":401,"name":"Uncletopia | Atlanta | 4 | Community","name_short":"atl-4","host":"atl-1.us.uncletopia.com","port":27045,"enabled":true,"region":"us-east","cc":"us","latitude":33.753746,"longitude":-84.38633,"reserved":0,"last_update":"0001-01-01T00:00:00Z","name_a2s":"Uncletopia | Atlanta | 4 | Community","protocol":17,"map":"cp_hazyfort_rc6","folder":"tf","game":"Team Fortress","app_id":440,"player_count":5,"max_players":24,"Bots":0,"server_type":"Dedicated","server_os":"Linux","password":true,"vac":true,"version":"7961495","steam_id":85568392924515188,"keywords":["cp","nocrits","nodmgspread","uncletopia"],"game_id":440,"stv_port":27046,"stv_name":"Uncletopia | Atlanta | 4 | Community | STV","players":null},{"server_id":2,"name":"Uncletopia | Chicago | 1 | All Maps","name_short":"chi-1","host":"chi-1.us.uncletopia.com","port":27015,"enabled":true,"region":"us-central","cc":"us","latitude":41.881832,"longitude":-87.62318,"reserved":0,"last_update":"0001-01-01T00:00:00Z","name_a2s":"Uncletopia | Chicago | 1 | All Maps","protocol":17,"map":"koth_brazil","folder":"tf","game":"Team Fortress","app_id":440,"player_count":24,"max_players":24,"Bots":0,"server_type":"Dedicated","server_os":"Linux","password":true,"vac":true,"version":"7961495","steam_id":85568392924469984,"keywords":["cp","nocrits","nodmgspread","uncletopia"],"game_id":440,"stv_port":27016,"stv_name":"Uncletopia | Chicago | 1 | All Maps | STV","players":[{"user_id":334,"name":"Riltreks","steam_id":76561198800482183,"connected_time":1603000000000,"state":"active","ping":86},{"user_id":221,"name":"Rex","steam_id":76561198138365053,"connected_time":10821000000000,"state":"active","ping":133},{"user_id":350,"name":"Guwop","steam_id":76561197970425737,"connected_time":350000000000,"state":"active","ping":57},{"user_id":344,"name":"fish  ‚óè","steam_id":76561198999217575,"connected_time":794000000000,"state":"active","ping":67},{"user_id":218,"name":"Ras","steam_id":76561198123546775,"connected_time":11534000000000,"state":"active","ping":102},{"user_id":311,"name":"nucket","steam_id":76561198028658527,"connected_time":3242000000000,"state":"active","ping":106},{"user_id":355,"name":"QuarticalPhysics","steam_id":76561198061386266,"connected_time":146000000000,"state":"active","ping":120},{"user_id":292,"name":"‚ô•Bunny‚ô•Slut‚ô•","steam_id":76561198206376851,"connected_time":5087000000000,"state":"active","ping":134},{"user_id":347,"name":"mango lassi","steam_id":76561198019038889,"connected_time":372000000000,"state":"active","ping":99},{"user_id":341,"name":"RPGnoob","steam_id":76561198384913758,"connected_time":1049000000000,"state":"active","ping":84},{"user_id":312,"name":"Joey Lemons","steam_id":76561198068104187,"connected_time":3230000000000,"state":"active","ping":43},{"user_id":317,"name":"TallBit","steam_id":76561199059748976,"connected_time":2395000000000,"state":"active","ping":59},{"user_id":230,"name":"DinkleBerg","steam_id":76561198891626233,"connected_time":10463000000000,"state":"active","ping":60},{"user_id":272,"name":"TheOneZoot","steam_id":76561198121944243,"connected_time":6952000000000,"state":"active","ping":80},{"user_id":351,"name":"Letters","steam_id":76561198035508148,"connected_time":350000000000,"state":"active","ping":66},{"user_id":354,"name":"JtsRes","steam_id":76561197994809241,"connected_time":169000000000,"state":"active","ping":61},{"user_id":254,"name":"Astoriae!","steam_id":76561199090168858,"connected_time":8835000000000,"state":"active","ping":74},{"user_id":348,"name":"Swiftmend","steam_id":76561197995595692,"connected_time":369000000000,"state":"active","ping":75},{"user_id":349,"name":"Coup de Grass","steam_id":76561198011643226,"connected_time":368000000000,"state":"active","ping":76},{"user_id":353,"name":"Angelica Pickles","steam_id":76561198052391179,"connected_time":313000000000,"state":"active","ping":100},{"user_id":321,"name":"Jihadi Spunk Trumpet","steam_id":76561198014792482,"connected_time":2040000000000,"state":"active","ping":78},{"user_id":316,"name":"Based White Man","steam_id":76561199491889281,"connected_time":2803000000000,"state":"active","ping":100},{"user_id":325,"name":"NikoOS (NO SOUND)","steam_id":76561198180020521,"connected_time":1844000000000,"state":"active","ping":112},{"user_id":308,"name":"Crows!","steam_id":76561198150086324,"connected_time":3318000000000,"state":"active","ping":64}]},{"server_id":106,"name":"Uncletopia | Chicago | 2 | All Maps","name_short":"chi-2","host":"chi-1.us.uncletopia.com","port":27025,"enabled":true,"region":"us-central","cc":"us","latitude":41.881832,"longitude":-87.62318,"reserved":0,"last_update":"0001-01-01T00:00:00Z","name_a2s":"Uncletopia | Chicago | 2 | All Maps","protocol":17,"map":"pl_frontier_final","folder":"tf","game":"Team Fortress","app_id":440,"player_count":24,"max_players":24,"Bots":0,"server_type":"Dedicated","server_os":"Linux","password":true,"vac":true,"version":"7961495","steam_id":85568392924469985,"keywords":["nocrits","nodmgspread","payload","uncletopia"],"game_id":440,"stv_port":27026,"stv_name":"Uncletopia | Chicago | 2 | All Maps | STV","players":[{"user_id":397,"name":"--_Cook_--","steam_id":76561198080855748,"connected_time":901000000000,"state":"active","ping":49},{"user_id":378,"name":"Dr_Cecil","steam_id":76561198873862113,"connected_time":2299000000000,"state":"active","ping":113},{"user_id":383,"name":"pup","steam_id":76561198145921847,"connected_time":1513000000000,"state":"active","ping":60},{"user_id":382,"name":"yaldabaoth","steam_id":76561198084606869,"connected_time":1523000000000,"state":"active","ping":43},{"user_id":384,"name":"Grandma","steam_id":76561198419412841,"connected_time":1478000000000,"state":"active","ping":47},{"user_id":379,"name":"ZombieMaster428","steam_id":76561198085251146,"connected_time":2081000000000,"state":"active","ping":73},{"user_id":399,"name":"Freezing0K","steam_id":76561198142170847,"connected_time":767000000000,"state":"active","ping":103},{"user_id":396,"name":"K.O. Stradivarius","steam_id":76561198974913245,"connected_time":1063000000000,"state":"active","ping":67},{"user_id":401,"name":"Spookmaster","steam_id":76561198170041861,"connected_time":559000000000,"state":"active","ping":26},{"user_id":375,"name":"Rat under your floors","steam_id":76561198105613110,"connected_time":2447000000000,"state":"active","ping":50},{"user_id":370,"name":"Mr. Cheesey","steam_id":76561198153462183,"connected_time":3139000000000,"state":"active","ping":62},{"user_id":403,"name":"Provocator","steam_id":76561197961830410,"connected_time":383000000000,"state":"active","ping":70},{"user_id":363,"name":"ShadowDragon0125","steam_id":76561198343849022,"connected_time":3491000000000,"state":"active","ping":74},{"user_id":393,"name":"whathashit69","steam_id":76561199013105760,"connected_time":1164000000000,"state":"active","ping":161},{"user_id":400,"name":"Shaunt","steam_id":76561198171551057,"connected_time":660000000000,"state":"active","ping":52},{"user_id":377,"name":"Aspxts","steam_id":76561199125254746,"connected_time":2391000000000,"state":"active","ping":56},{"user_id":404,"name":"Minnie","steam_id":76561198091052019,"connected_time":154000000000,"state":"active","ping":66},{"user_id":373,"name":"Candy Sparkles","steam_id":76561198126871264,"connected_time":3028000000000,"state":"active","ping":86},{"user_id":371,"name":"._o\u003c","steam_id":76561198313364985,"connected_time":3131000000000,"state":"active","ping":115},{"user_id":369,"name":"Chrysalis","steam_id":76561198028576126,"connected_time":3287000000000,"state":"active","ping":68},{"user_id":307,"name":"kimchy101","steam_id":76561198202721584,"connected_time":6183000000000,"state":"active","ping":55},{"user_id":394,"name":"lexi","steam_id":76561198176299759,"connected_time":1160000000000,"state":"active","ping":81},{"user_id":381,"name":"gods hungriest pitbull","steam_id":76561198111669774,"connected_time":1614000000000,"state":"active","ping":47},{"user_id":398,"name":"i suffer from ligma","steam_id":76561199158496518,"connected_time":770000000000,"state":"active","ping":119}]},{"server_id":402,"name":"Uncletopia | Chicago | 3 | All Maps","name_short":"chi-3","host":"chi-1.us.uncletopia.com","port":27035,"enabled":true,"region":"us-central","cc":"us","latitude":41.881832,"longitude":-87.62318,"reserved":0,"last_update":"0001-01-01T00:00:00Z","name_a2s":"Uncletopia | Chicago | 3 | All Maps","protocol":17,"map":"pl_swiftwater_final1","folder":"tf","game":"Team Fortress","app_id":440,"player_count":24,"max_players":24,"Bots":0,"server_type":"Dedicated","server_os":"Linux","password":true,"vac":true,"version":"7961495","steam_id":85568392924515191,"keywords":["nocrits","nodmgspread","payload","uncletopia"],"game_id":440,"stv_port":27036,"stv_name":"Uncletopia | Chicago | 3 | All Maps | STV","players":[{"user_id":640,"name":"NukaTheRabbit {Fur}","steam_id":76561198058692928,"connected_time":659000000000,"state":"active","ping":56},{"user_id":632,"name":"Dum_Bass(Fish)","steam_id":76561197988105207,"connected_time":1057000000000,"state":"active","ping":65},{"user_id":606,"name":"Vid","steam_id":76561198011086127,"connected_time":3001000000000,"state":"active","ping":70},{"user_id":623,"name":"sirmcmango","steam_id":76561199228880344,"connected_time":1630000000000,"state":"active","ping":64},{"user_id":582,"name":"brains","steam_id":76561198197388678,"connected_time":5258000000000,"state":"active","ping":90},{"user_id":635,"name":"some tree","steam_id":76561198166093346,"connected_time":957000000000,"state":"active","ping":60},{"user_id":649,"name":"Anxious Nerd Bird","steam_id":76561198112178602,"connected_time":280000000000,"state":"active","ping":116},{"user_id":627,"name":"Stoopnagle","steam_id":76561198011942560,"connected_time":1393000000000,"state":"active","ping":96},{"user_id":643,"name":"Ballsack Shaver","steam_id":76561199011739378,"connected_time":422000000000,"state":"active","ping":66},{"user_id":642,"name":"Tis_Me_Hacksoulslayer1","steam_id":76561198340064206,"connected_time":567000000000,"state":"active","ping":84},{"user_id":645,"name":"Ulapin","steam_id":76561198034512409,"connected_time":402000000000,"state":"active","ping":115},{"user_id":575,"name":"reis","steam_id":76561199232952016,"connected_time":5628000000000,"state":"active","ping":172},{"user_id":652,"name":"hoos","steam_id":76561198045985910,"connected_time":182000000000,"state":"active","ping":104},{"user_id":653,"name":"Winkrill #transrights","steam_id":76561198108515561,"connected_time":181000000000,"state":"active","ping":75},{"user_id":644,"name":"leaving lunar orbit","steam_id":76561199085974120,"connected_time":411000000000,"state":"active","ping":75},{"user_id":614,"name":"Dabbledornk","steam_id":76561198065241300,"connected_time":2042000000000,"state":"active","ping":59},{"user_id":618,"name":"Madeline the Mad","steam_id":76561198153456869,"connected_time":1854000000000,"state":"active","ping":71},{"user_id":638,"name":"feed chakra","steam_id":76561198105065307,"connected_time":779000000000,"state":"active","ping":47},{"user_id":646,"name":"Aaron","steam_id":76561198091157802,"connected_time":394000000000,"state":"active","ping":65},{"user_id":631,"name":"Walkiing","steam_id":76561198074473413,"connected_time":1073000000000,"state":"active","ping":45},{"user_id":608,"name":"Polite Frog","steam_id":76561198296968646,"connected_time":2972000000000,"state":"active","ping":79},{"user_id":650,"name":"ChillmyGrill","steam_id":76561199112703727,"connected_time":255000000000,"state":"active","ping":83},{"user_id":634,"name":"Robin","steam_id":76561198121165149,"connected_time":969000000000,"state":"active","ping":45},{"user_id":654,"name":"Quilfus Scrofel","steam_id":76561198160308375,"connected_time":139000000000,"state":"active","ping":61}]},{"server_id":403,"name":"Uncletopia | Chicago | 4 | All Maps","name_short":"chi-4","host":"chi-1.us.uncletopia.com","port":27045,"enabled":true,"region":"us-central","cc":"us","latitude":41.881832,"longitude":-87.62318,"reserved":0,"last_update":"0001-01-01T00:00:00Z","name_a2s":"Uncletopia | Chicago | 4 | All Maps","protocol":17,"map":"pl_upward","folder":"tf","game":"Team Fortress","app_id":440,"player_count":24,"max_players":24,"Bots":0,"server_type":"Dedicated","server_os":"Linux","password":true,"vac":true,"version":"7961495","steam_id":85568392924515193,"keywords":["nocrits","nodmgspread","payload","uncletopia"],"game_id":440,"stv_port":27046,"stv_name":"Uncletopia | Chicago | 4 | All Maps | STV","players":[{"user_id":409,"name":"Bussy Bandit","steam_id":76561198034028769,"connected_time":157000000000,"state":"active","ping":55},{"user_id":386,"name":"ATruePanda #SaveTF2","steam_id":76561198448287701,"connected_time":1855000000000,"state":"active","ping":60},{"user_id":411,"name":";w;","steam_id":76561199058284787,"connected_time":59000000000,"state":"active","ping":62},{"user_id":333,"name":"HollyBlocky","steam_id":76561198030156100,"connected_time":6911000000000,"state":"active","ping":72},{"user_id":377,"name":"That Dude","steam_id":76561198980486227,"connected_time":2409000000000,"state":"active","ping":99},{"user_id":412,"name":"winner","steam_id":76561198241948526,"connected_time":13000000000,"state":"active","ping":54},{"user_id":395,"name":"8o8","steam_id":76561198996923332,"connected_time":1165000000000,"state":"active","ping":87},{"user_id":372,"name":"dirty disgusting troll","steam_id":76561198882404753,"connected_time":2483000000000,"state":"active","ping":80},{"user_id":378,"name":"White_Wizard_Named_Corona","steam_id":76561198055652735,"connected_time":2394000000000,"state":"active","ping":92},{"user_id":413,"name":"Mekhane Here","steam_id":76561198303879452,"connected_time":12000000000,"state":"spawning","ping":89},{"user_id":408,"name":"Mr. DeLarge","steam_id":76561198336820066,"connected_time":354000000000,"state":"active","ping":105},{"user_id":285,"name":"boa constrictor pussy","steam_id":76561198079178866,"connected_time":9571000000000,"state":"active","ping":62},{"user_id":392,"name":"JUSTINA","steam_id":76561199009634635,"connected_time":1537000000000,"state":"active","ping":111},{"user_id":396,"name":"Mikael_01","steam_id":76561199080253129,"connected_time":960000000000,"state":"active","ping":190},{"user_id":401,"name":"Jamendithas","steam_id":76561198119537716,"connected_time":833000000000,"state":"active","ping":83},{"user_id":394,"name":"crulorys","steam_id":76561198070794764,"connected_time":1195000000000,"state":"active","ping":93},{"user_id":414,"name":"œÜCliff RacerœÜ","steam_id":76561198095908193,"connected_time":9000000000,"state":"spawning","ping":56},{"user_id":406,"name":"Water","steam_id":76561199014288792,"connected_time":734000000000,"state":"active","ping":88},{"user_id":393,"name":"menonamed","steam_id":76561198199564382,"connected_time":1449000000000,"state":"active","ping":70},{"user_id":404,"name":"PeopleOrderOurPatties","steam_id":76561198323144922,"connected_time":814000000000,"state":"active","ping":63},{"user_id":397,"name":"Om3gaB34t","steam_id":76561198855812365,"connected_time":919000000000,"state":"active","ping":58},{"user_id":407,"name":"Octo","steam_id":76561199056210895,"connected_time":734000000000,"state":"active","ping":126},{"user_id":358,"name":"Polar","steam_id":76561198096852688,"connected_time":4174000000000,"state":"active","ping":58}]},{"server_id":36,"name":"Uncletopia | Chicago | 5 | All Maps","name_short":"chi-5","host":"chi-2.us.uncletopia.com","port":27015,"enabled":true,"region":"us-central","cc":"us","latitude":41.881832,"longitude":-87.62318,"reserved":0,"last_update":"0001-01-01T00:00:00Z","name_a2s":"Uncletopia | Chicago | 5 | All Maps","protocol":17,"map":"pl_pier","folder":"tf","game":"Team Fortress","app_id":440,"player_count":20,"max_players":24,"Bots":0,"server_type":"Dedicated","server_os":"Linux","password":true,"vac":true,"version":"7961495","steam_id":85568392924866362,"keywords":["nocrits","nodmgspread","payload","uncletopia"],"game_id":440,"stv_port":27016,"stv_name":"Uncletopia | Chicago | 5 | All Maps | STV","players":[{"user_id":98,"name":"‡πñ€£€úMagic","steam_id":76561199272962550,"connected_time":2703000000000,"state":"connecting","ping":77},{"user_id":123,"name":"Lyra","steam_id":76561198156481620,"connected_time":1124000000000,"state":"connecting","ping":45},{"user_id":131,"name":"Allahgator","steam_id":76561198280659041,"connected_time":841000000000,"state":"connecting","ping":85},{"user_id":100,"name":"tiananmensquare1989","steam_id":76561199076837870,"connected_time":2630000000000,"state":"connecting","ping":88},{"user_id":134,"name":"derpasurarex","steam_id":76561198296201468,"connected_time":539000000000,"state":"connecting","ping":66},{"user_id":93,"name":"younggflylyfe","steam_id":76561199477357832,"connected_time":3330000000000,"state":"connecting","ping":84},{"user_id":84,"name":"tsbro40","steam_id":76561199455605580,"connected_time":3653000000000,"state":"connecting","ping":90},{"user_id":94,"name":"5yt LFB","steam_id":76561198041643833,"connected_time":3315000000000,"state":"connecting","ping":106},{"user_id":101,"name":"fictitious swag circulation","steam_id":76561198072179483,"connected_time":2170000000000,"state":"connecting","ping":115},{"user_id":116,"name":"Bisque","steam_id":76561198327661850,"connected_time":1479000000000,"state":"connecting","ping":111},{"user_id":132,"name":"bluetacos","steam_id":76561198880622349,"connected_time":791000000000,"state":"connecting","ping":108},{"user_id":113,"name":"NovaSc6ut","steam_id":76561198277163301,"connected_time":1595000000000,"state":"connecting","ping":93},{"user_id":127,"name":"TiltedHat","steam_id":76561198047685121,"connected_time":1080000000000,"state":"connecting","ping":146},{"user_id":57,"name":"corned beef","steam_id":76561199366782761,"connected_time":4891000000000,"state":"connecting","ping":158},{"user_id":133,"name":"Fuzzy","steam_id":76561198113445043,"connected_time":669000000000,"state":"connecting","ping":86},{"user_id":107,"name":"josh","steam_id":76561198111565081,"connected_time":1661000000000,"state":"connecting","ping":140},{"user_id":115,"name":"Ecifircas","steam_id":76561198068654532,"connected_time":1560000000000,"state":"connecting","ping":96},{"user_id":75,"name":"jon.cinnamon","steam_id":76561198127316418,"connected_time":4366000000000,"state":"connecting","ping":78},{"user_id":125,"name":"WhiteIce","steam_id":76561198042895118,"connected_time":1116000000000,"state":"connecting","ping":74}]},{"server_id":37,"name":"Uncletopia | Chicago | 6 | All Maps","name_short":"chi-6","host":"chi-2.us.uncletopia.com","port":27025,"enabled":true,"region":"us-central","cc":"us","latitude":41.881832,"longitude":-87.62318,"reserved":0,"last_update":"0001-01-01T00:00:00Z","name_a2s":"Uncletopia | Chicago | 6 | All Maps","protocol":17,"map":"pl_frontier_final","folder":"tf","game":"Team Fortress","app_id":440,"player_count":23,"max_players":24,"Bots":0,"server_type":"Dedicated","server_os":"Linux","password":true,"vac":true,"version":"7961495","steam_id":85568392924866363,"keywords":["nocrits","nodmgspread","payload","uncletopia"],"game_id":440,"stv_port":27026,"stv_name":"Uncletopia | Chicago | 6 | All Maps | STV","players":[{"user_id":505,"name":"Tunac","steam_id":76561198115533350,"connected_time":1364000000000,"state":"active","ping":53},{"user_id":498,"name":"Homvel","steam_id":76561198000848413,"connected_time":1944000000000,"state":"active","ping":52},{"user_id":515,"name":"cousin dusty","steam_id":76561198001488041,"connected_time":928000000000,"state":"active","ping":83},{"user_id":517,"name":"Zymiren","steam_id":76561198054985471,"connected_time":723000000000,"state":"active","ping":98},{"user_id":529,"name":"djpanda248","steam_id":76561199101846393,"connected_time":129000000000,"state":"active","ping":126},{"user_id":525,"name":"Bombsgamer","steam_id":76561198350009050,"connected_time":265000000000,"state":"active","ping":77},{"user_id":461,"name":"Fatpoob","steam_id":76561198056730096,"connected_time":5292000000000,"state":"active","ping":58},{"user_id":513,"name":"rainintokyo","steam_id":76561198436383373,"connected_time":974000000000,"state":"active","ping":129},{"user_id":519,"name":"WM1 PYRO","steam_id":76561198045893896,"connected_time":458000000000,"state":"active","ping":112},{"user_id":510,"name":"Û†Å≥ ‚ÅßArgo","steam_id":76561198353725622,"connected_time":999000000000,"state":"active","ping":75},{"user_id":528,"name":"Fargo","steam_id":76561198044703931,"connected_time":169000000000,"state":"active","ping":74},{"user_id":470,"name":"Pandora Nyx","steam_id":76561198093475054,"connected_time":4444000000000,"state":"active","ping":67},{"user_id":526,"name":"Microsoft Word","steam_id":76561198797633439,"connected_time":258000000000,"state":"active","ping":103},{"user_id":507,"name":"Y O S H A","steam_id":76561197981812788,"connected_time":1317000000000,"state":"active","ping":77},{"user_id":523,"name":"Nicholas Bastion","steam_id":76561198160792126,"connected_time":390000000000,"state":"active","ping":88},{"user_id":508,"name":"kaputon","steam_id":76561198146299782,"connected_time":1011000000000,"state":"active","ping":60},{"user_id":492,"name":"vinny6","steam_id":76561198386735728,"connected_time":2471000000000,"state":"active","ping":62},{"user_id":531,"name":"Jasper‚Ñ¢","steam_id":76561198260018463,"connected_time":22000000000,"state":"spawning","ping":65},{"user_id":512,"name":"Nerb","steam_id":76561199229719409,"connected_time":993000000000,"state":"active","ping":89},{"user_id":431,"name":"Im the puncher","steam_id":76561199059653595,"connected_time":7140000000000,"state":"active","ping":97},{"user_id":530,"name":"Scum Knight | T.I.D.K.","steam_id":76561198282444763,"connected_time":59000000000,"state":"active","ping":64},{"user_id":520,"name":"Cosmic sR","steam_id":76561198081738675,"connected_time":445000000000,"state":"active","ping":83},{"user_id":496,"name":"Acorn","steam_id":76561198353480153,"connected_time":2376000000000,"state":"active","ping":71}]},{"server_id":38,"name":"Uncletopia | Chicago | 7 | Stopwatch","name_short":"chi-7","host":"chi-2.us.uncletopia.com","port":27035,"enabled":true,"region":"us-central","cc":"us","latitude":41.881832,"longitude":-87.62318,"reserved":0,"last_update":"0001-01-01T00:00:00Z","name_a2s":"Uncletopia | Chicago | 7 | Stopwatch","protocol":17,"map":"pl_badwater","folder":"tf","game":"Team Fortress","app_id":440,"player_count":0,"max_players":24,"Bots":0,"server_type":"Dedicated","server_os":"Linux","password":true,"vac":true,"version":"7961495","steam_id":85568392924866364,"keywords":["nocrits","nodmgspread","payload","uncletopia"],"game_id":440,"stv_port":27036,"stv_name":"Uncletopia | Chicago | 7 | Stopwatch | STV","players":null},{"server_id":39,"name":"Uncletopia | Chicago | 8 | Community","name_short":"chi-8","host":"chi-2.us.uncletopia.com","port":27045,"enabled":true,"region":"us-central","cc":"us","latitude":41.881832,"longitude":-87.62318,"reserved":0,"last_update":"0001-01-01T00:00:00Z","name_a2s":"Uncletopia | Chicago | 8 | Community","protocol":17,"map":"workshop/pl_boundary_final1.ugc456799153","folder":"tf","game":"Team Fortress","app_id":440,"player_count":0,"max_players":24,"Bots":0,"server_type":"Dedicated","server_os":"Linux","password":true,"vac":true,"version":"7961495","steam_id":85568392924866365,"keywords":["nocrits","nodmgspread","payload","uncletopia"],"game_id":440,"stv_port":27046,"stv_name":"Uncletopia | Chicago | 8 | Community | STV","players":null},{"server_id":8,"name":"Uncletopia | Dallas | 1 | All Maps","name_short":"dal-1","host":"dal-1.us.uncletopia.com","port":27015,"enabled":true,"region":"us-central","cc":"us","latitude":32.779167,"longitude":-96.80889,"reserved":0,"last_update":"0001-01-01T00:00:00Z","name_a2s":"Uncletopia | Dallas | 1 | All Maps","protocol":17,"map":"cp_altitude","folder":"tf","game":"Team Fortress","app_id":440,"player_count":24,"max_players":24,"Bots":0,"server_type":"Dedicated","server_os":"Linux","password":true,"vac":true,"version":"7961495","steam_id":85568392924469986,"keywords":["cp","nocrits","nodmgspread","uncletopia"],"game_id":440,"stv_port":27016,"stv_name":"Uncletopia | Dallas | 1 | All Maps | STV","players":[{"user_id":494,"name":"CamCam","steam_id":76561198079997306,"connected_time":1249000000000,"state":"active","ping":76},{"user_id":498,"name":"Artemis","steam_id":76561198260558457,"connected_time":541000000000,"state":"active","ping":119},{"user_id":507,"name":"Cebula33","steam_id":76561197984964095,"connected_time":9000000000,"state":"spawning","ping":98},{"user_id":506,"name":"ZeeZeroEvents","steam_id":76561198169759258,"connected_time":14000000000,"state":"spawning","ping":31},{"user_id":490,"name":"Yapple Dapple","steam_id":76561198082422815,"connected_time":1360000000000,"state":"active","ping":61},{"user_id":499,"name":"VaL-ASROC","steam_id":76561198886493635,"connected_time":536000000000,"state":"active","ping":69},{"user_id":484,"name":"Professionally Braindead „ÉÑ","steam_id":76561198276714220,"connected_time":1655000000000,"state":"active","ping":36},{"user_id":488,"name":"CreateADebate","steam_id":76561198115760035,"connected_time":1377000000000,"state":"active","ping":61},{"user_id":477,"name":"artichoke","steam_id":76561198980994364,"connected_time":2254000000000,"state":"active","ping":125},{"user_id":504,"name":"Demoman's Fried chicken","steam_id":76561199056701141,"connected_time":486000000000,"state":"active","ping":91},{"user_id":441,"name":"inzang","steam_id":76561198088318074,"connected_time":5776000000000,"state":"active","ping":55},{"user_id":505,"name":"wfair","steam_id":76561198202139366,"connected_time":208000000000,"state":"active","ping":66},{"user_id":486,"name":"THRONGLER","steam_id":76561198198563466,"connected_time":1471000000000,"state":"active","ping":62},{"user_id":500,"name":"tf2player001","steam_id":76561199497314797,"connected_time":535000000000,"state":"active","ping":111},{"user_id":497,"name":"TheGFG","steam_id":76561198166150556,"connected_time":909000000000,"state":"active","ping":71},{"user_id":404,"name":"OwningTundra2","steam_id":76561198936893224,"connected_time":8501000000000,"state":"active","ping":63},{"user_id":496,"name":"flippercurve","steam_id":76561199238295034,"connected_time":926000000000,"state":"active","ping":70},{"user_id":493,"name":"skunch","steam_id":76561198069771288,"connected_time":1282000000000,"state":"active","ping":85},{"user_id":485,"name":"webaline  =Ôºæ‚óè ‚ãè ‚óèÔºæ=","steam_id":76561199052450127,"connected_time":1481000000000,"state":"active","ping":72},{"user_id":368,"name":"Deadline","steam_id":76561199079078845,"connected_time":10862000000000,"state":"active","ping":92},{"user_id":478,"name":"Hobbes","steam_id":76561197967448497,"connected_time":2209000000000,"state":"active","ping":77},{"user_id":471,"name":"dab","steam_id":76561197997990613,"connected_time":3591000000000,"state":"active","ping":91},{"user_id":449,"name":"Angry Ginger","steam_id":76561198256929349,"connected_time":5548000000000,"state":"active","ping":76},{"user_id":503,"name":"blue duck the 2nd","steam_id":76561198263142765,"connected_time":508000000000,"state":"active","ping":150}]},{"server_id":108,"name":"Uncletopia | Dallas | 2 | All Maps","name_short":"dal-2","host":"dal-1.us.uncletopia.com","port":27025,"enabled":true,"region":"us-central","cc":"us","latitude":32.779167,"longitude":-96.80889,"reserved":0,"last_update":"0001-01-01T00:00:00Z","name_a2s":"Uncletopia | Dallas | 2 | All Maps","protocol":17,"map":"koth_lakeside_final","folder":"tf","game":"Team Fortress","app_id":440,"player_count":24,"max_players":24,"Bots":0,"server_type":"Dedicated","server_os":"Linux","password":true,"vac":true,"version":"7961495","steam_id":85568392924469988,"keywords":["cp","nocrits","nodmgspread","uncletopia"],"game_id":440,"stv_port":27026,"stv_name":"Uncletopia | Dallas | 2 | All Maps | STV","players":[{"user_id":256,"name":"Hey","steam_id":76561198447517893,"connected_time":1404000000000,"state":"active","ping":88},{"user_id":269,"name":"heyCharn","steam_id":76561198058641350,"connected_time":616000000000,"state":"active","ping":72},{"user_id":167,"name":"Burny Sanders","steam_id":76561197961879048,"connected_time":8736000000000,"state":"active","ping":45},{"user_id":250,"name":"Commodore","steam_id":76561198042112852,"connected_time":2279000000000,"state":"active","ping":82},{"user_id":249,"name":"CDRW Enjoyer","steam_id":76561198119393205,"connected_time":2451000000000,"state":"active","ping":60},{"user_id":211,"name":"five night at freddy(real)","steam_id":76561199026721822,"connected_time":5313000000000,"state":"active","ping":88},{"user_id":257,"name":"Seskova","steam_id":76561198090207032,"connected_time":1391000000000,"state":"active","ping":114},{"user_id":183,"name":"narutokid37","steam_id":76561198239286750,"connected_time":7915000000000,"state":"active","ping":78},{"user_id":263,"name":"SkaCola","steam_id":76561198880242934,"connected_time":1216000000000,"state":"active","ping":94},{"user_id":265,"name":"luscaPUTO","steam_id":76561199037598902,"connected_time":1136000000000,"state":"active","ping":140},{"user_id":258,"name":"pluto","steam_id":76561198354990729,"connected_time":1327000000000,"state":"active","ping":92},{"user_id":170,"name":"Autumn, The Only Good Season","steam_id":76561198103496593,"connected_time":8727000000000,"state":"active","ping":64},{"user_id":254,"name":"Mr. Bixby","steam_id":76561198868839264,"connected_time":1622000000000,"state":"active","ping":55},{"user_id":207,"name":"Stryder","steam_id":76561199387418697,"connected_time":5549000000000,"state":"active","ping":68},{"user_id":233,"name":"cozy","steam_id":76561199044037628,"connected_time":3208000000000,"state":"active","ping":114},{"user_id":259,"name":"Slope115117","steam_id":76561199028794627,"connected_time":1324000000000,"state":"active","ping":86},{"user_id":184,"name":"teaf","steam_id":76561198406252824,"connected_time":7740000000000,"state":"active","ping":105},{"user_id":247,"name":"Wood Crow","steam_id":76561198046802071,"connected_time":2531000000000,"state":"active","ping":54},{"user_id":261,"name":"Asolator0","steam_id":76561198095809798,"connected_time":1242000000000,"state":"active","ping":81},{"user_id":251,"name":"SharpStabbyThing","steam_id":76561199059465912,"connected_time":1805000000000,"state":"active","ping":88},{"user_id":260,"name":"eatmysteel","steam_id":76561198976437527,"connected_time":1269000000000,"state":"active","ping":101},{"user_id":268,"name":"SmileOneTwoThree","steam_id":76561198045624336,"connected_time":660000000000,"state":"active","ping":75},{"user_id":267,"name":"Farseer Ulwithy","steam_id":76561197965179245,"connected_time":977000000000,"state":"active","ping":112},{"user_id":264,"name":"TF. Industries Employee","steam_id":76561199176804090,"connected_time":1215000000000,"state":"active","ping":92}]},{"server_id":404,"name":"Uncletopia | Dallas | 3 | All Maps","name_short":"dal-3","host":"dal-1.us.uncletopia.com","port":27035,"enabled":true,"region":"us-central","cc":"us","latitude":32.779167,"longitude":-96.80889,"reserved":0,"last_update":"0001-01-01T00:00:00Z","name_a2s":"Uncletopia | Dallas | 3 | All Maps","protocol":17,"map":"cp_badlands","folder":"tf","game":"Team Fortress","app_id":440,"player_count":24,"max_players":24,"Bots":0,"server_type":"Dedicated","server_os":"Linux","password":true,"vac":true,"version":"7961495","steam_id":85568392924515219,"keywords":["cp","nocrits","nodmgspread","uncletopia"],"game_id":440,"stv_port":27036,"stv_name":"Uncletopia | Dallas | 3 | All Maps | STV","players":[{"user_id":184,"name":"Zen1th","steam_id":76561199105729447,"connected_time":2196000000000,"state":"active","ping":55},{"user_id":167,"name":"noellehound (she/her)","steam_id":76561198108844158,"connected_time":3252000000000,"state":"active","ping":66},{"user_id":157,"name":"A Gamer [F2P]","steam_id":76561198138712892,"connected_time":4140000000000,"state":"active","ping":59},{"user_id":185,"name":"get scrongled, idiot","steam_id":76561198115874625,"connected_time":2146000000000,"state":"active","ping":95},{"user_id":192,"name":"im learning ):","steam_id":76561198083286148,"connected_time":1322000000000,"state":"active","ping":52},{"user_id":194,"name":"Shrebbie","steam_id":76561198875230824,"connected_time":1162000000000,"state":"active","ping":80},{"user_id":195,"name":"Interrobang","steam_id":76561198385044529,"connected_time":1127000000000,"state":"active","ping":125},{"user_id":196,"name":"breathing meat donut","steam_id":76561198123566649,"connected_time":1120000000000,"state":"active","ping":58},{"user_id":198,"name":"Kirby","steam_id":76561199161858008,"connected_time":1050000000000,"state":"active","ping":82},{"user_id":186,"name":"Jonah Hill from 21 Jump Street","steam_id":76561198811130843,"connected_time":1992000000000,"state":"active","ping":105},{"user_id":207,"name":"M√£…æ û√≥≈¶ƒß","steam_id":76561198819418878,"connected_time":773000000000,"state":"active","ping":92},{"user_id":116,"name":"Jag","steam_id":76561198001220471,"connected_time":6136000000000,"state":"active","ping":65},{"user_id":199,"name":"Raz","steam_id":76561198002426150,"connected_time":934000000000,"state":"active","ping":52},{"user_id":179,"name":"Al Cabone","steam_id":76561198956823243,"connected_time":2762000000000,"state":"active","ping":61},{"user_id":200,"name":"Malex","steam_id":76561198012216805,"connected_time":926000000000,"state":"active","ping":83},{"user_id":201,"name":"omnislime","steam_id":76561199382475668,"connected_time":924000000000,"state":"active","ping":73},{"user_id":208,"name":"Major Woody","steam_id":76561198835541533,"connected_time":761000000000,"state":"active","ping":82},{"user_id":204,"name":"Moth Beam","steam_id":76561198005069202,"connected_time":897000000000,"state":"active","ping":47},{"user_id":205,"name":"Vv","steam_id":76561199052196750,"connected_time":888000000000,"state":"active","ping":58},{"user_id":68,"name":"Yayifications","steam_id":76561198066227208,"connected_time":7387000000000,"state":"active","ping":75},{"user_id":210,"name":"Engideer","steam_id":76561198145733164,"connected_time":614000000000,"state":"active","ping":47},{"user_id":209,"name":"sheep","steam_id":76561198172943006,"connected_time":711000000000,"state":"active","ping":71},{"user_id":206,"name":"Dynoscord","steam_id":76561199172777455,"connected_time":851000000000,"state":"active","ping":112},{"user_id":191,"name":"Chuyo3000","steam_id":76561198067168008,"connected_time":1447000000000,"state":"active","ping":50}]},{"server_id":405,"name":"Uncletopia | Dallas | 4 | Community","name_short":"dal-4","host":"dal-1.us.uncletopia.com","port":27045,"enabled":true,"region":"us-central","cc":"us","latitude":32.779167,"longitude":-96.80889,"reserved":0,"last_update":"0001-01-01T00:00:00Z","name_a2s":"Uncletopia | Dallas | 4 | Community","protocol":17,"map":"workshop/cp_glassworks_rc6a.ugc454118349","folder":"tf","game":"Team Fortress","app_id":440,"player_count":0,"max_players":24,"Bots":0,"server_type":"Dedicated","server_os":"Linux","password":true,"vac":true,"version":"7961495","steam_id":85568392924515220,"keywords":["cp","nocrits","nodmgspread","uncletopia"],"game_id":440,"stv_port":27046,"stv_name":"Uncletopia | Dallas | 4 | Community | STV","players":null},{"server_id":5,"name":"Uncletopia | Frankfurt | 1 | All Maps","name_short":"frk-1","host":"frk-1.de.uncletopia.com","port":27015,"enabled":true,"region":"eu","cc":"de","latitude":50.110924,"longitude":8.682127,"reserved":0,"last_update":"0001-01-01T00:00:00Z","name_a2s":"Uncletopia | Frankfurt | 1 | All Maps","protocol":17,"map":"cp_dustbowl","folder":"tf","game":"Team Fortress","app_id":440,"player_count":19,"max_players":24,"Bots":0,"server_type":"Dedicated","server_os":"Linux","password":true,"vac":true,"version":"7961495","steam_id":85568392924469989,"keywords":["cp","nocrits","nodmgspread","uncletopia"],"game_id":440,"stv_port":27016,"stv_name":"Uncletopia | Frankfurt | 1 | All Maps | STV","players":[{"user_id":553,"name":"sticks","steam_id":76561198127099299,"connected_time":157000000000,"state":"active","ping":64},{"user_id":549,"name":"TAFI03","steam_id":76561198213082089,"connected_time":294000000000,"state":"active","ping":57},{"user_id":559,"name":"Killbasa","steam_id":76561198064868400,"connected_time":75000000000,"state":"active","ping":130},{"user_id":554,"name":"sex havin'","steam_id":76561198169857427,"connected_time":154000000000,"state":"active","ping":80},{"user_id":544,"name":"lidl","steam_id":76561198895235231,"connected_time":700000000000,"state":"active","ping":68},{"user_id":521,"name":"Chicos estoy comiendo mortadela","steam_id":76561198858051263,"connected_time":1778000000000,"state":"active","ping":78},{"user_id":555,"name":"Qdarks","steam_id":76561198013391340,"connected_time":130000000000,"state":"active","ping":145},{"user_id":556,"name":"cold","steam_id":76561199017901552,"connected_time":112000000000,"state":"active","ping":169},{"user_id":550,"name":"Brother in Christ","steam_id":76561198303701158,"connected_time":255000000000,"state":"active","ping":57},{"user_id":560,"name":"Crazy Monkey","steam_id":76561197984691223,"connected_time":66000000000,"state":"active","ping":159},{"user_id":558,"name":"TheCosmicCanister","steam_id":76561199106730382,"connected_time":85000000000,"state":"active","ping":173},{"user_id":522,"name":"Fat Engi","steam_id":76561199243208497,"connected_time":1759000000000,"state":"active","ping":81},{"user_id":561,"name":"NeiroüëΩ·ó©YY ·í™·ó∞·ó©O","steam_id":76561198046743985,"connected_time":54000000000,"state":"active","ping":77},{"user_id":524,"name":"A Random Weeb","steam_id":76561199486543478,"connected_time":1641000000000,"state":"active","ping":77},{"user_id":503,"name":"kluri","steam_id":76561198084518962,"connected_time":3385000000000,"state":"active","ping":66},{"user_id":545,"name":"Dyld","steam_id":76561197979603871,"connected_time":688000000000,"state":"active","ping":57},{"user_id":540,"name":"Butts McGee","steam_id":76561198113191558,"connected_time":829000000000,"state":"active","ping":177},{"user_id":532,"name":"Refurbished Boy","steam_id":76561197995834697,"connected_time":1474000000000,"state":"active","ping":95},{"user_id":546,"name":"Summer ‚ô•","steam_id":76561198047723907,"connected_time":611000000000,"state":"active","ping":47}]},{"server_id":110,"name":"Uncletopia | Frankfurt | 2 | All Maps","name_short":"frk-2","host":"frk-1.de.uncletopia.com","port":27025,"enabled":true,"region":"eu","cc":"de","latitude":50.110924,"longitude":8.682127,"reserved":0,"last_update":"0001-01-01T00:00:00Z","name_a2s":"Uncletopia | Frankfurt | 2 | All Maps","protocol":17,"map":"cp_mountainlab","folder":"tf","game":"Team Fortress","app_id":440,"player_count":0,"max_players":24,"Bots":0,"server_type":"Dedicated","server_os":"Linux","password":true,"vac":true,"version":"7961495","steam_id":85568392924469990,"keywords":["cp","nocrits","nodmgspread","uncletopia"],"game_id":440,"stv_port":27026,"stv_name":"Uncletopia | Frankfurt | 2 | All Maps | STV","players":null},{"server_id":308,"name":"Uncletopia | Frankfurt | 3 | All Maps","name_short":"frk-3","host":"frk-1.de.uncletopia.com","port":27035,"enabled":true,"region":"eu","cc":"de","latitude":50.110924,"longitude":8.682127,"reserved":0,"last_update":"0001-01-01T00:00:00Z","name_a2s":"Uncletopia | Frankfurt | 3 | All Maps","protocol":17,"map":"pl_barnblitz","folder":"tf","game":"Team Fortress","app_id":440,"player_count":24,"max_players":24,"Bots":0,"server_type":"Dedicated","server_os":"Linux","password":true,"vac":true,"version":"7961495","steam_id":85568392924504274,"keywords":["nocrits","nodmgspread","payload","uncletopia"],"game_id":440,"stv_port":27036,"stv_name":"Uncletopia | Frankfurt | 3 | All Maps | STV","players":[{"user_id":594,"name":"mmm","steam_id":76561198307035830,"connected_time":969000000000,"state":"active","ping":98},{"user_id":600,"name":"flave","steam_id":76561198056372101,"connected_time":141000000000,"state":"active","ping":58},{"user_id":567,"name":"SpacePig","steam_id":76561198044662873,"connected_time":3160000000000,"state":"active","ping":95},{"user_id":595,"name":"pls watch puss in boots","steam_id":76561198046210501,"connected_time":963000000000,"state":"active","ping":85},{"user_id":576,"name":"Gruset","steam_id":76561198327512432,"connected_time":2876000000000,"state":"active","ping":85},{"user_id":579,"name":"Professor_Zenu","steam_id":76561199034025094,"connected_time":2648000000000,"state":"active","ping":74},{"user_id":546,"name":"MR BUBBLES","steam_id":76561198019005259,"connected_time":4906000000000,"state":"active","ping":96},{"user_id":596,"name":"Funny Cat Song","steam_id":76561199229682408,"connected_time":925000000000,"state":"active","ping":47},{"user_id":564,"name":"‚ôÇ Twink Hunter ‚ôÇ","steam_id":76561198397024973,"connected_time":3188000000000,"state":"active","ping":47},{"user_id":591,"name":"dispenser","steam_id":76561199008411791,"connected_time":1108000000000,"state":"active","ping":203},{"user_id":597,"name":"tired","steam_id":76561198046838168,"connected_time":884000000000,"state":"active","ping":45},{"user_id":580,"name":"dirty rascal","steam_id":76561198000871038,"connected_time":2587000000000,"state":"active","ping":60},{"user_id":529,"name":"Potshott","steam_id":76561198184014158,"connected_time":5728000000000,"state":"active","ping":63},{"user_id":589,"name":"Cosmic Gamer","steam_id":76561198027357981,"connected_time":1933000000000,"state":"active","ping":89},{"user_id":557,"name":"JustAGrump","steam_id":76561198219852925,"connected_time":4217000000000,"state":"active","ping":143},{"user_id":483,"name":"CaptainMac","steam_id":76561198273156139,"connected_time":9524000000000,"state":"active","ping":40},{"user_id":561,"name":"cuddle","steam_id":76561198805181599,"connected_time":4072000000000,"state":"active","ping":67},{"user_id":531,"name":"Batch Number 443714","steam_id":76561197977497969,"connected_time":5717000000000,"state":"active","ping":59},{"user_id":562,"name":"Jonno","steam_id":76561198023443744,"connected_time":4072000000000,"state":"active","ping":70},{"user_id":598,"name":"Piteras","steam_id":76561198858532207,"connected_time":873000000000,"state":"active","ping":73},{"user_id":581,"name":"Fox","steam_id":76561198052541711,"connected_time":2557000000000,"state":"active","ping":62},{"user_id":588,"name":"simon","steam_id":76561197960506122,"connected_time":2153000000000,"state":"active","ping":88},{"user_id":599,"name":"Gibby","steam_id":76561198048213112,"connected_time":813000000000,"state":"active","ping":49},{"user_id":554,"name":"aaaaaaaaaaaaaaaaa","steam_id":76561198802616102,"connected_time":4295000000000,"state":"active","ping":93}]},{"server_id":309,"name":"Uncletopia | Frankfurt | 4 | All Maps","name_short":"frk-4","host":"frk-1.de.uncletopia.com","port":27045,"enabled":true,"region":"eu","cc":"de","latitude":50.110924,"longitude":8.682127,"reserved":0,"last_update":"0001-01-01T00:00:00Z","name_a2s":"Uncletopia | Frankfurt | 4 | All Maps","protocol":17,"map":"pl_upward","folder":"tf","game":"Team Fortress","app_id":440,"player_count":24,"max_players":24,"Bots":0,"server_type":"Dedicated","server_os":"Linux","password":true,"vac":true,"version":"7961495","steam_id":85568392924504275,"keywords":["nocrits","nodmgspread","payload","uncletopia"],"game_id":440,"stv_port":27046,"stv_name":"Uncletopia | Frankfurt | 4 | All Maps | STV","players":[{"user_id":742,"name":"Lou Von Kra","steam_id":76561198348685213,"connected_time":617000000000,"state":"active","ping":88},{"user_id":712,"name":"pepper","steam_id":76561198852650589,"connected_time":1980000000000,"state":"active","ping":85},{"user_id":728,"name":"Aleksei","steam_id":76561198094954851,"connected_time":1242000000000,"state":"active","ping":82},{"user_id":713,"name":"Lorenzo Lovers","steam_id":76561198073973581,"connected_time":1958000000000,"state":"active","ping":75},{"user_id":748,"name":"full power heart attack","steam_id":76561199196568965,"connected_time":262000000000,"state":"active","ping":88},{"user_id":744,"name":"Wattseyy","steam_id":76561198248567360,"connected_time":574000000000,"state":"active","ping":54},{"user_id":750,"name":"Daxie626","steam_id":76561198394588278,"connected_time":245000000000,"state":"active","ping":112},{"user_id":749,"name":"Furno","steam_id":76561197999723047,"connected_time":256000000000,"state":"active","ping":63},{"user_id":745,"name":"axethelad","steam_id":76561198144234798,"connected_time":568000000000,"state":"active","ping":43},{"user_id":747,"name":"R8N - Obismal","steam_id":76561198007482714,"connected_time":423000000000,"state":"active","ping":73},{"user_id":725,"name":"kubanamaxa","steam_id":76561198154315656,"connected_time":1311000000000,"state":"active","ping":86},{"user_id":736,"name":"DaiDaiMu :3","steam_id":76561198052794823,"connected_time":1056000000000,"state":"active","ping":48},{"user_id":727,"name":"Egtu","steam_id":76561198013757235,"connected_time":1286000000000,"state":"active","ping":64},{"user_id":689,"name":"Eidolon","steam_id":76561198043919565,"connected_time":3916000000000,"state":"active","ping":80},{"user_id":707,"name":"Commander Pasta","steam_id":76561198045773077,"connected_time":2255000000000,"state":"active","ping":38},{"user_id":690,"name":"the goon","steam_id":76561199024865713,"connected_time":3893000000000,"state":"active","ping":55},{"user_id":753,"name":"Pierdu","steam_id":76561198028705770,"connected_time":200000000000,"state":"active","ping":53},{"user_id":677,"name":"Rockfrenzy","steam_id":76561198005428050,"connected_time":5367000000000,"state":"active","ping":57},{"user_id":737,"name":"Gryoss","steam_id":76561197999837111,"connected_time":996000000000,"state":"active","ping":94},{"user_id":703,"name":"Engineer TF2","steam_id":76561198380555082,"connected_time":2489000000000,"state":"active","ping":55},{"user_id":734,"name":"PaperPlay","steam_id":76561198046838964,"connected_time":1140000000000,"state":"active","ping":104},{"user_id":735,"name":"lyla","steam_id":76561197994492154,"connected_time":1091000000000,"state":"active","ping":60},{"user_id":741,"name":"BLACKBIRD CLOSE [she/her]","steam_id":76561198262910410,"connected_time":655000000000,"state":"active","ping":90},{"user_id":754,"name":"Aku+","steam_id":76561198813782795,"connected_time":177000000000,"state":"active","ping":85}]},{"server_id":310,"name":"Uncletopia | Frankfurt | 5 | All Maps","name_short":"frk-5","host":"frk-1.de.uncletopia.com","port":27055,"enabled":true,"region":"eu","cc":"de","latitude":50.110924,"longitude":8.682127,"reserved":0,"last_update":"0001-01-01T00:00:00Z","name_a2s":"Uncletopia | Frankfurt | 5 | All Maps","protocol":17,"map":"pl_snowycoast","folder":"tf","game":"Team Fortress","app_id":440,"player_count":24,"max_players":24,"Bots":0,"server_type":"Dedicated","server_os":"Linux","password":true,"vac":true,"version":"7961495","steam_id":85568392924504277,"keywords":["nocrits","nodmgspread","payload","uncletopia"],"game_id":440,"stv_port":27056,"stv_name":"Uncletopia | Frankfurt | 5 | All Maps | STV","players":[{"user_id":739,"name":"Meo","steam_id":76561198184899182,"connected_time":143000000000,"state":"active","ping":73},{"user_id":695,"name":"void","steam_id":76561198035831433,"connected_time":2574000000000,"state":"active","ping":64},{"user_id":717,"name":"Mata_FM","steam_id":76561198044824504,"connected_time":1303000000000,"state":"active","ping":60},{"user_id":740,"name":"Haha?","steam_id":76561198056882245,"connected_time":75000000000,"state":"active","ping":53},{"user_id":727,"name":"whatever","steam_id":76561198095943461,"connected_time":1114000000000,"state":"active","ping":60},{"user_id":677,"name":"Arsonist","steam_id":76561199087953833,"connected_time":4243000000000,"state":"active","ping":97},{"user_id":734,"name":"flr","steam_id":76561198249327786,"connected_time":623000000000,"state":"active","ping":75},{"user_id":697,"name":"maurice(maurice/maurice).","steam_id":76561198101624996,"connected_time":2564000000000,"state":"active","ping":98},{"user_id":693,"name":"big pizza","steam_id":76561198082377293,"connected_time":2979000000000,"state":"active","ping":55},{"user_id":737,"name":"Skarpy","steam_id":76561198034398376,"connected_time":412000000000,"state":"active","ping":46},{"user_id":714,"name":"Real (Real)","steam_id":76561198323425034,"connected_time":1529000000000,"state":"active","ping":74},{"user_id":716,"name":"Œ©mega","steam_id":76561198142672787,"connected_time":1360000000000,"state":"active","ping":61},{"user_id":731,"name":"BenteBent","steam_id":76561198297920637,"connected_time":951000000000,"state":"active","ping":46},{"user_id":705,"name":"Zulfiqar222","steam_id":76561199208454498,"connected_time":1973000000000,"state":"active","ping":165},{"user_id":729,"name":"beurgeur","steam_id":76561198872426314,"connected_time":1106000000000,"state":"active","ping":47},{"user_id":736,"name":"chrome heart","steam_id":76561198101978330,"connected_time":439000000000,"state":"active","ping":60},{"user_id":715,"name":"CiVillain","steam_id":76561198059617732,"connected_time":1477000000000,"state":"active","ping":57},{"user_id":684,"name":"LuddeKudde","steam_id":76561198394550832,"connected_time":4006000000000,"state":"active","ping":71},{"user_id":738,"name":"KarmaSlap‚Ñ¢","steam_id":76561198236340066,"connected_time":370000000000,"state":"active","ping":168},{"user_id":723,"name":"holy motors","steam_id":76561199233979726,"connected_time":1250000000000,"state":"active","ping":78},{"user_id":713,"name":"pef","steam_id":76561198398629859,"connected_time":1571000000000,"state":"active","ping":103},{"user_id":724,"name":"His Femboy","steam_id":76561198071111501,"connected_time":1249000000000,"state":"active","ping":61},{"user_id":725,"name":"Umbro","steam_id":76561198087930438,"connected_time":1244000000000,"state":"active","ping":75},{"user_id":732,"name":"Ch4bby","steam_id":76561198058792875,"connected_time":949000000000,"state":"active","ping":60}]},{"server_id":311,"name":"Uncletopia | Frankfurt | 6 | All Maps","name_short":"frk-6","host":"frk-1.de.uncletopia.com","port":27065,"enabled":true,"region":"eu","cc":"de","latitude":50.110924,"longitude":8.682127,"reserved":0,"last_update":"0001-01-01T00:00:00Z","name_a2s":"Uncletopia | Frankfurt | 6 | All Maps","protocol":17,"map":"cp_dustbowl","folder":"tf","game":"Team Fortress","app_id":440,"player_count":0,"max_players":24,"Bots":0,"server_type":"Dedicated","server_os":"Linux","password":true,"vac":true,"version":"7961495","steam_id":85568392924504278,"keywords":["cp","nocrits","nodmgspread","uncletopia"],"game_id":440,"stv_port":27066,"stv_name":"Uncletopia | Frankfurt | 6 | All Maps | STV","players":null},{"server_id":23,"name":"Uncletopia | Frankfurt | 7 | Stopwatch","name_short":"frk-7","host":"frk-1.de.uncletopia.com","port":27075,"enabled":true,"region":"eu","cc":"de","latitude":50.110924,"longitude":8.682127,"reserved":0,"last_update":"0001-01-01T00:00:00Z","name_a2s":"Uncletopia | Frankfurt | 7 | Stopwatch","protocol":17,"map":"koth_highpass","folder":"tf","game":"Team Fortress","app_id":440,"player_count":0,"max_players":24,"Bots":0,"server_type":"Dedicated","server_os":"Linux","password":true,"vac":true,"version":"7961495","steam_id":85568392924742827,"keywords":["cp","nocrits","nodmgspread","uncletopia"],"game_id":440,"stv_port":27076,"stv_name":"Uncletopia | Frankfurt | 7 | Stopwatch | STV","players":null},{"server_id":24,"name":"Uncletopia | Frankfurt | 8 | Community","name_short":"frk-8","host":"frk-1.de.uncletopia.com","port":27085,"enabled":true,"region":"eu","cc":"de","latitude":50.110924,"longitude":8.682127,"reserved":0,"last_update":"0001-01-01T00:00:00Z","name_a2s":"Uncletopia | Frankfurt | 8 | Community","protocol":17,"map":"workshop/koth_trenchfoot_b1a.ugc731436616","folder":"tf","game":"Team Fortress","app_id":440,"player_count":0,"max_players":24,"Bots":0,"server_type":"Dedicated","server_os":"Linux","password":true,"vac":true,"version":"7961495","steam_id":85568392924742828,"keywords":["cp","nocrits","nodmgspread","uncletopia"],"game_id":440,"stv_port":27086,"stv_name":"Uncletopia | Frankfurt | 8 | Community | STV","players":null},{"server_id":202,"name":"Uncletopia | Hong Kong | 1 | All Maps","name_short":"hgk-1","host":"hgk-1.hk.uncletopia.com","port":27015,"enabled":true,"region":"asia","cc":"hk","latitude":22.302711,"longitude":114.177216,"reserved":0,"last_update":"0001-01-01T00:00:00Z","name_a2s":"Uncletopia | Hong Kong | 1 | All Maps","protocol":17,"map":"pl_frontier_final","folder":"tf","game":"Team Fortress","app_id":440,"player_count":0,"max_players":24,"Bots":0,"server_type":"Dedicated","server_os":"Linux","password":true,"vac":true,"version":"7961495","steam_id":85568392924494504,"keywords":["nocrits","nodmgspread","payload","uncletopia"],"game_id":440,"stv_port":27016,"stv_name":"Uncletopia | Hong Kong | 1 | All Maps | STV","players":null},{"server_id":1,"name":"Uncletopia | Los Angeles | 1 | All Maps","name_short":"lax-1","host":"lax-1.us.uncletopia.com","port":27015,"enabled":true,"region":"us-west","cc":"us","latitude":33.94279,"longitude":-118.41004,"reserved":0,"last_update":"0001-01-01T00:00:00Z","name_a2s":"Uncletopia | Los Angeles | 1 | All Maps","protocol":17,"map":"pl_badwater","folder":"tf","game":"Team Fortress","app_id":440,"player_count":24,"max_players":24,"Bots":0,"server_type":"Dedicated","server_os":"Linux","password":true,"vac":true,"version":"7961495","steam_id":85568392924469991,"keywords":["nocrits","nodmgspread","payload","uncletopia"],"game_id":440,"stv_port":27016,"stv_name":"Uncletopia | Los Angeles | 1 | All Maps | STV","players":[{"user_id":203,"name":"Livin' Like Larry","steam_id":76561198313360974,"connected_time":1560000000000,"state":"active","ping":45},{"user_id":205,"name":"Schnitz","steam_id":76561198265484253,"connected_time":969000000000,"state":"active","ping":54},{"user_id":186,"name":"Rodrick Knee","steam_id":76561198283021062,"connected_time":2797000000000,"state":"active","ping":129},{"user_id":83,"name":"TheSpiritWolf12","steam_id":76561198186225203,"connected_time":9255000000000,"state":"active","ping":75},{"user_id":209,"name":"Master Cannoli","steam_id":76561198272327518,"connected_time":917000000000,"state":"active","ping":54},{"user_id":207,"name":"Mr. CoolGuy_(cool)","steam_id":76561199059733640,"connected_time":944000000000,"state":"active","ping":48},{"user_id":140,"name":"moe","steam_id":76561198929586245,"connected_time":5294000000000,"state":"active","ping":35},{"user_id":147,"name":"selling rice","steam_id":76561198063357023,"connected_time":5043000000000,"state":"active","ping":49},{"user_id":212,"name":"‚ù§ Ashley ‚ù§","steam_id":76561198056428303,"connected_time":877000000000,"state":"active","ping":45},{"user_id":189,"name":"summerlis","steam_id":76561198165324438,"connected_time":2721000000000,"state":"active","ping":37},{"user_id":94,"name":"Spyincorporated","steam_id":76561198080956951,"connected_time":8820000000000,"state":"active","ping":114},{"user_id":162,"name":"It's._.@l3x_h3r3.","steam_id":76561198416481282,"connected_time":4266000000000,"state":"active","ping":48},{"user_id":214,"name":"RED Orbama","steam_id":76561198047002366,"connected_time":686000000000,"state":"active","ping":68},{"user_id":211,"name":"Hephesus","steam_id":76561198071196438,"connected_time":894000000000,"state":"active","ping":131},{"user_id":202,"name":"Sup m8","steam_id":76561198081659121,"connected_time":1705000000000,"state":"active","ping":60},{"user_id":93,"name":"Da Boo Brothas","steam_id":76561198167545395,"connected_time":8978000000000,"state":"active","ping":72},{"user_id":213,"name":"sonicboom14","steam_id":76561198866558393,"connected_time":850000000000,"state":"active","ping":69},{"user_id":196,"name":"cool beans","steam_id":76561198045758072,"connected_time":2445000000000,"state":"active","ping":53},{"user_id":215,"name":"celestia ludenberg","steam_id":76561199196437823,"connected_time":514000000000,"state":"active","ping":96},{"user_id":218,"name":"Yoyos","steam_id":76561198061035695,"connected_time":430000000000,"state":"active","ping":45},{"user_id":217,"name":"engie","steam_id":76561199229629045,"connected_time":463000000000,"state":"active","ping":60},{"user_id":194,"name":"drank baby","steam_id":76561199483723843,"connected_time":2658000000000,"state":"active","ping":60},{"user_id":177,"name":"a chicken","steam_id":76561198313121580,"connected_time":3219000000000,"state":"active","ping":47},{"user_id":204,"name":"Sozuki","steam_id":76561198961150367,"connected_time":1560000000000,"state":"active","ping":189}]},{"server_id":112,"name":"Uncletopia | Los Angeles | 2 | All Maps","name_short":"lax-2","host":"lax-1.us.uncletopia.com","port":27025,"enabled":true,"region":"us-west","cc":"us","latitude":33.94279,"longitude":-118.41004,"reserved":0,"last_update":"0001-01-01T00:00:00Z","name_a2s":"Uncletopia | Los Angeles | 2 | All Maps","protocol":17,"map":"koth_viaduct","folder":"tf","game":"Team Fortress","app_id":440,"player_count":23,"max_players":24,"Bots":0,"server_type":"Dedicated","server_os":"Linux","password":true,"vac":true,"version":"7961495","steam_id":85568392924469992,"keywords":["cp","nocrits","nodmgspread","uncletopia"],"game_id":440,"stv_port":27026,"stv_name":"Uncletopia | Los Angeles | 2 | All Maps | STV","players":[{"user_id":556,"name":"jammies:)","steam_id":76561198143388600,"connected_time":38000000000,"state":"active","ping":107},{"user_id":553,"name":"MattJettskie","steam_id":76561199229493583,"connected_time":68000000000,"state":"active","ping":114},{"user_id":508,"name":"Drive-By-Fish-Guy","steam_id":76561198105513652,"connected_time":2248000000000,"state":"active","ping":61},{"user_id":552,"name":"RaTtYc","steam_id":76561198954419354,"connected_time":116000000000,"state":"active","ping":94},{"user_id":540,"name":"i cant aim","steam_id":76561198065873462,"connected_time":419000000000,"state":"active","ping":44},{"user_id":504,"name":"Grify","steam_id":76561198012292317,"connected_time":2654000000000,"state":"active","ping":120},{"user_id":542,"name":"Healing Weapons Guy","steam_id":76561198005608047,"connected_time":324000000000,"state":"active","ping":102},{"user_id":522,"name":"Freddi Fish owes me $5","steam_id":76561198112705880,"connected_time":1789000000000,"state":"active","ping":51},{"user_id":513,"name":"gay furry cumflation","steam_id":76561199495570478,"connected_time":2052000000000,"state":"active","ping":65},{"user_id":537,"name":"Rock Kickass","steam_id":76561198450510841,"connected_time":805000000000,"state":"active","ping":79},{"user_id":536,"name":"Maid 'n' China","steam_id":76561198423392976,"connected_time":806000000000,"state":"active","ping":54},{"user_id":543,"name":"Grognak","steam_id":76561198044710527,"connected_time":317000000000,"state":"active","ping":83},{"user_id":558,"name":"[50] domo","steam_id":76561198048026825,"connected_time":4000000000,"state":"spawning","ping":59},{"user_id":557,"name":"coolguy42","steam_id":76561198126795849,"connected_time":28000000000,"state":"active","ping":60},{"user_id":539,"name":"porksoda","steam_id":76561198021451377,"connected_time":559000000000,"state":"active","ping":78},{"user_id":502,"name":"S√°bado Gigante","steam_id":76561197994685971,"connected_time":2674000000000,"state":"active","ping":44},{"user_id":544,"name":"touka","steam_id":76561198171521806,"connected_time":312000000000,"state":"active","ping":96},{"user_id":545,"name":"imng","steam_id":76561198014988031,"connected_time":305000000000,"state":"active","ping":99},{"user_id":546,"name":"OneLess","steam_id":76561198150870338,"connected_time":298000000000,"state":"active","ping":101},{"user_id":554,"name":"dkDolphino","steam_id":76561198279215849,"connected_time":52000000000,"state":"active","ping":107},{"user_id":517,"name":"ForAPessimistImPrettyOptimistic","steam_id":76561198170128009,"connected_time":1965000000000,"state":"active","ping":51},{"user_id":555,"name":"d4ngerd4n","steam_id":76561198043758735,"connected_time":52000000000,"state":"spawning","ping":64},{"user_id":525,"name":"raph","steam_id":76561198074592493,"connected_time":1706000000000,"state":"active","ping":55}]},{"server_id":324,"name":"Uncletopia | Los Angeles | 3 | All Maps","name_short":"lax-3","host":"lax-1.us.uncletopia.com","port":27035,"enabled":true,"region":"us-west","cc":"us","latitude":33.94279,"longitude":-118.41004,"reserved":0,"last_update":"0001-01-01T00:00:00Z","name_a2s":"Uncletopia | Los Angeles | 3 | All Maps","protocol":17,"map":"pl_badwater","folder":"tf","game":"Team Fortress","app_id":440,"player_count":2,"max_players":24,"Bots":0,"server_type":"Dedicated","server_os":"Linux","password":true,"vac":true,"version":"7961495","steam_id":85568392924510198,"keywords":["nocrits","nodmgspread","payload","uncletopia"],"game_id":440,"stv_port":27036,"stv_name":"Uncletopia | Los Angeles | 3 | All Maps | STV","players":[{"user_id":17,"name":"Chungus","steam_id":76561199110279051,"connected_time":122000000000,"state":"active","ping":62},{"user_id":19,"name":"Geodefence","steam_id":76561199008541384,"connected_time":27000000000,"state":"active","ping":84}]},{"server_id":25,"name":"Uncletopia | Los Angeles | 4 | Stopwatch","name_short":"lax-4","host":"lax-1.us.uncletopia.com","port":27045,"enabled":true,"region":"us-west","cc":"us","latitude":33.94279,"longitude":-118.41004,"reserved":0,"last_update":"0001-01-01T00:00:00Z","name_a2s":"Uncletopia | Los Angeles | 4 | Stopwatch","protocol":17,"map":"workshop/pl_vigil_rc10.ugc1266210012","folder":"tf","game":"Team Fortress","app_id":440,"player_count":0,"max_players":24,"Bots":0,"server_type":"Dedicated","server_os":"Linux","password":true,"vac":true,"version":"7961495","steam_id":85568392924510199,"keywords":["nocrits","nodmgspread","payload","uncletopia"],"game_id":440,"stv_port":27046,"stv_name":"Uncletopia | Los Angeles | 4 | Stopwatch | STV","players":null},{"server_id":11,"name":"Uncletopia | London | 1 | All Maps","name_short":"lon-1","host":"lon-1.uk.uncletopia.com","port":27015,"enabled":true,"region":"eu","cc":"gb","latitude":51.509865,"longitude":-0.118092,"reserved":0,"last_update":"0001-01-01T00:00:00Z","name_a2s":"Uncletopia | London | 1 | All Maps","protocol":17,"map":"koth_nucleus","folder":"tf","game":"Team Fortress","app_id":440,"player_count":24,"max_players":24,"Bots":0,"server_type":"Dedicated","server_os":"Linux","password":true,"vac":true,"version":"7961495","steam_id":85568392924367362,"keywords":["cp","nocrits","nodmgspread","uncletopia"],"game_id":440,"stv_port":27016,"stv_name":"Uncletopia | London | 1 | All Maps | STV","players":[{"user_id":617,"name":"Xiqui","steam_id":76561198818386611,"connected_time":888000000000,"state":"active","ping":81},{"user_id":615,"name":"The Lady","steam_id":76561198029895809,"connected_time":1222000000000,"state":"active","ping":92},{"user_id":557,"name":"shooer!","steam_id":76561198110531281,"connected_time":7386000000000,"state":"active","ping":85},{"user_id":534,"name":"Kphi(i)","steam_id":76561198970587061,"connected_time":9963000000000,"state":"active","ping":56},{"user_id":573,"name":"sora","steam_id":76561198096547662,"connected_time":5199000000000,"state":"active","ping":49},{"user_id":607,"name":"Maveth","steam_id":76561198315021197,"connected_time":1787000000000,"state":"active","ping":142},{"user_id":612,"name":"baballe","steam_id":76561198302448192,"connected_time":1482000000000,"state":"active","ping":31},{"user_id":579,"name":"Purps","steam_id":76561198053886680,"connected_time":4458000000000,"state":"active","ping":44},{"user_id":618,"name":"Ricey","steam_id":76561198832961307,"connected_time":856000000000,"state":"active","ping":48},{"user_id":555,"name":"Kahvi","steam_id":76561198723244199,"connected_time":7413000000000,"state":"active","ping":74},{"user_id":619,"name":"dopamine overdose","steam_id":76561199032511302,"connected_time":826000000000,"state":"active","ping":104},{"user_id":623,"name":"owo","steam_id":76561198158209651,"connected_time":757000000000,"state":"active","ping":60},{"user_id":601,"name":"teddy","steam_id":76561198007436837,"connected_time":2838000000000,"state":"active","ping":44},{"user_id":622,"name":"armadillo","steam_id":76561198324656652,"connected_time":787000000000,"state":"active","ping":49},{"user_id":600,"name":"Aaron","steam_id":76561197990046953,"connected_time":3189000000000,"state":"active","ping":52},{"user_id":626,"name":"Skinny101","steam_id":76561197985599360,"connected_time":149000000000,"state":"active","ping":56},{"user_id":593,"name":"SuperBob103","steam_id":76561199175360012,"connected_time":3480000000000,"state":"active","ping":47},{"user_id":585,"name":"beebo","steam_id":76561199120277007,"connected_time":4084000000000,"state":"active","ping":40},{"user_id":590,"name":"BreadBubbles","steam_id":76561198174332826,"connected_time":3870000000000,"state":"active","ping":58},{"user_id":611,"name":"Kai","steam_id":76561198800004578,"connected_time":1597000000000,"state":"active","ping":53},{"user_id":552,"name":"Lubrsi","steam_id":76561198040208195,"connected_time":7443000000000,"state":"active","ping":47},{"user_id":576,"name":"gibb (official)","steam_id":76561198074097655,"connected_time":4971000000000,"state":"active","ping":45},{"user_id":625,"name":"Prome","steam_id":76561199050383942,"connected_time":743000000000,"state":"active","ping":58},{"user_id":595,"name":"Minimi","steam_id":76561198873850443,"connected_time":3445000000000,"state":"active","ping":42}]},{"server_id":114,"name":"Uncletopia | London | 2 | All Maps","name_short":"lon-2","host":"lon-1.uk.uncletopia.com","port":27025,"enabled":true,"region":"eu","cc":"gb","latitude":51.509865,"longitude":-0.118092,"reserved":0,"last_update":"0001-01-01T00:00:00Z","name_a2s":"Uncletopia | London | 2 | All Maps","protocol":17,"map":"pl_snowycoast","folder":"tf","game":"Team Fortress","app_id":440,"player_count":24,"max_players":24,"Bots":0,"server_type":"Dedicated","server_os":"Linux","password":true,"vac":true,"version":"7961495","steam_id":85568392924470941,"keywords":["nocrits","nodmgspread","payload","uncletopia"],"game_id":440,"stv_port":27026,"stv_name":"Uncletopia | London | 2 | All Maps | STV","players":[{"user_id":428,"name":"Baccoon","steam_id":76561198338323649,"connected_time":7780000000000,"state":"active","ping":43},{"user_id":484,"name":"Jeryx","steam_id":76561197995602803,"connected_time":2396000000000,"state":"active","ping":61},{"user_id":403,"name":"Can I get a Beep Beep","steam_id":76561198010730967,"connected_time":10300000000000,"state":"active","ping":67},{"user_id":414,"name":"Forklift Certified","steam_id":76561198001816577,"connected_time":9567000000000,"state":"active","ping":93},{"user_id":513,"name":"‚ù§Luna Bee‚ù§","steam_id":76561199230209215,"connected_time":470000000000,"state":"active","ping":61},{"user_id":511,"name":"Tomex999","steam_id":76561198049587675,"connected_time":488000000000,"state":"active","ping":90},{"user_id":509,"name":"MIKA","steam_id":76561198312451814,"connected_time":533000000000,"state":"active","ping":62},{"user_id":495,"name":"Ixsus\u003c3","steam_id":76561198094756869,"connected_time":1447000000000,"state":"active","ping":62},{"user_id":492,"name":"bob","steam_id":76561198448135228,"connected_time":1491000000000,"state":"active","ping":85},{"user_id":486,"name":"David \"Crash\" Murphy","steam_id":76561198292845505,"connected_time":2358000000000,"state":"active","ping":107},{"user_id":491,"name":"unlucky","steam_id":76561198071440081,"connected_time":1604000000000,"state":"active","ping":100},{"user_id":393,"name":"Shadowengell","steam_id":76561198019284410,"connected_time":11412000000000,"state":"active","ping":114},{"user_id":493,"name":"Equinox","steam_id":76561199496452973,"connected_time":1466000000000,"state":"active","ping":55},{"user_id":503,"name":"Adam Sandler (from grown ups)","steam_id":76561199251933053,"connected_time":1281000000000,"state":"active","ping":155},{"user_id":434,"name":"Unstable Goat","steam_id":76561197985788557,"connected_time":6968000000000,"state":"active","ping":87},{"user_id":515,"name":"Conibun","steam_id":76561198066389567,"connected_time":441000000000,"state":"active","ping":117},{"user_id":496,"name":"Vilmukas","steam_id":76561199106648396,"connected_time":1429000000000,"state":"active","ping":73},{"user_id":507,"name":"pellio","steam_id":76561199094535057,"connected_time":838000000000,"state":"active","ping":54},{"user_id":514,"name":"Trapezoid","steam_id":76561198059369295,"connected_time":452000000000,"state":"active","ping":71},{"user_id":510,"name":"hardway","steam_id":76561198272529254,"connected_time":492000000000,"state":"active","ping":60},{"user_id":478,"name":"Commander Onii-chan","steam_id":76561198422084584,"connected_time":3320000000000,"state":"active","ping":55},{"user_id":516,"name":"Vexu","steam_id":76561198113145846,"connected_time":412000000000,"state":"active","ping":92},{"user_id":499,"name":"coach","steam_id":76561198179330687,"connected_time":1346000000000,"state":"active","ping":104},{"user_id":501,"name":"Vital","steam_id":76561198062052388,"connected_time":1323000000000,"state":"active","ping":60}]},{"server_id":320,"name":"Uncletopia | London | 3 | All Maps","name_short":"lon-3","host":"lon-1.uk.uncletopia.com","port":27035,"enabled":true,"region":"eu","cc":"gb","latitude":51.509865,"longitude":-0.118092,"reserved":0,"last_update":"0001-01-01T00:00:00Z","name_a2s":"Uncletopia | London | 3 | All Maps","protocol":17,"map":"pl_borneo","folder":"tf","game":"Team Fortress","app_id":440,"player_count":0,"max_players":24,"Bots":0,"server_type":"Dedicated","server_os":"Linux","password":true,"vac":true,"version":"7961495","steam_id":85568392924510192,"keywords":["nocrits","nodmgspread","payload","uncletopia"],"game_id":440,"stv_port":27036,"stv_name":"Uncletopia | London | 3 | All Maps | STV","players":null},{"server_id":321,"name":"Uncletopia | London | 4 | All Maps","name_short":"lon-4","host":"lon-1.uk.uncletopia.com","port":27045,"enabled":true,"region":"eu","cc":"gb","latitude":51.509865,"longitude":-0.118092,"reserved":0,"last_update":"0001-01-01T00:00:00Z","name_a2s":"Uncletopia | London | 4 | All Maps","protocol":17,"map":"pl_swiftwater_final1","folder":"tf","game":"Team Fortress","app_id":440,"player_count":1,"max_players":24,"Bots":0,"server_type":"Dedicated","server_os":"Linux","password":true,"vac":true,"version":"7961495","steam_id":85568392924510193,"keywords":["nocrits","nodmgspread","payload","uncletopia"],"game_id":440,"stv_port":27046,"stv_name":"Uncletopia | London | 4 | All Maps | STV","players":[{"user_id":339,"name":"BL4Z3RU22ER","steam_id":76561199495737715,"connected_time":83000000000,"state":"active","ping":129}]},{"server_id":21,"name":"Uncletopia | London | 5 | All Maps","name_short":"lon-5","host":"lon-1.uk.uncletopia.com","port":27055,"enabled":true,"region":"eu","cc":"gb","latitude":51.509865,"longitude":-0.118092,"reserved":0,"last_update":"0001-01-01T00:00:00Z","name_a2s":"Uncletopia | London | 5 | All Maps","protocol":17,"map":"pl_borneo","folder":"tf","game":"Team Fortress","app_id":440,"player_count":24,"max_players":24,"Bots":0,"server_type":"Dedicated","server_os":"Linux","password":true,"vac":true,"version":"7961495","steam_id":85568392924742829,"keywords":["nocrits","nodmgspread","payload","uncletopia"],"game_id":440,"stv_port":27056,"stv_name":"Uncletopia | London | 5 | All Maps | STV","players":[{"user_id":884,"name":"travis","steam_id":76561198138119811,"connected_time":2389000000000,"state":"active","ping":45},{"user_id":899,"name":"T4S3","steam_id":76561199105565603,"connected_time":1304000000000,"state":"active","ping":92},{"user_id":898,"name":"DREW PEACOCK","steam_id":76561198065057392,"connected_time":1327000000000,"state":"active","ping":163},{"user_id":875,"name":"A cretin","steam_id":76561198848650365,"connected_time":3217000000000,"state":"active","ping":69},{"user_id":877,"name":"kill pyro main with rock","steam_id":76561198072320671,"connected_time":3001000000000,"state":"active","ping":31},{"user_id":900,"name":"mohemmedmokhter2005","steam_id":76561199197650506,"connected_time":1296000000000,"state":"active","ping":109},{"user_id":901,"name":"Watermelon","steam_id":76561198078349914,"connected_time":1295000000000,"state":"active","ping":49},{"user_id":902,"name":"Woman (Real)","steam_id":76561199151823932,"connected_time":1295000000000,"state":"active","ping":83},{"user_id":874,"name":"svantezch","steam_id":76561198373831657,"connected_time":3348000000000,"state":"active","ping":79},{"user_id":911,"name":"Mega","steam_id":76561197970389664,"connected_time":859000000000,"state":"active","ping":46},{"user_id":903,"name":"yava≈ü","steam_id":76561198170334258,"connected_time":1284000000000,"state":"active","ping":74},{"user_id":897,"name":"Xxcoolxx","steam_id":76561199064455737,"connected_time":1485000000000,"state":"active","ping":58},{"user_id":904,"name":"mingsh'allah","steam_id":76561198254011269,"connected_time":1283000000000,"state":"active","ping":76},{"user_id":865,"name":"Senator Palpaprotein","steam_id":76561198081980254,"connected_time":3768000000000,"state":"active","ping":44},{"user_id":912,"name":"Atrix","steam_id":76561198364012823,"connected_time":704000000000,"state":"active","ping":58},{"user_id":915,"name":"yuck","steam_id":76561197987249568,"connected_time":155000000000,"state":"active","ping":103},{"user_id":890,"name":"Genesis","steam_id":76561198999652040,"connected_time":2102000000000,"state":"active","ping":54},{"user_id":914,"name":"Clark","steam_id":76561197998520785,"connected_time":277000000000,"state":"active","ping":77},{"user_id":885,"name":"Maximilian1359","steam_id":76561198152439608,"connected_time":2386000000000,"state":"active","ping":63},{"user_id":913,"name":"laser","steam_id":76561198036030697,"connected_time":679000000000,"state":"active","ping":73},{"user_id":906,"name":"Baba Sraka","steam_id":76561198128292318,"connected_time":1271000000000,"state":"active","ping":137},{"user_id":889,"name":"tzlil","steam_id":76561198399916290,"connected_time":2338000000000,"state":"active","ping":102},{"user_id":907,"name":"ChPerette üéÆ","steam_id":76561198060004887,"connected_time":1268000000000,"state":"active","ping":45},{"user_id":873,"name":"Khrinde","steam_id":76561198036744526,"connected_time":3406000000000,"state":"active","ping":95}]},{"server_id":22,"name":"Uncletopia | London | 6 | All Maps","name_short":"lon-6","host":"lon-1.uk.uncletopia.com","port":27065,"enabled":true,"region":"eu","cc":"gb","latitude":51.509865,"longitude":-0.118092,"reserved":0,"last_update":"0001-01-01T00:00:00Z","name_a2s":"Uncletopia | London | 6 | All Maps","protocol":17,"map":"cp_altitude","folder":"tf","game":"Team Fortress","app_id":440,"player_count":7,"max_players":24,"Bots":0,"server_type":"Dedicated","server_os":"Linux","password":true,"vac":true,"version":"7961495","steam_id":85568392924742830,"keywords":["cp","nocrits","nodmgspread","uncletopia"],"game_id":440,"stv_port":27066,"stv_name":"Uncletopia | London | 6 | All Maps | STV","players":[{"user_id":604,"name":"Splatty","steam_id":76561198123926837,"connected_time":83000000000,"state":"active","ping":65},{"user_id":599,"name":"Mobster Tortoise","steam_id":76561199036837091,"connected_time":1069000000000,"state":"active","ping":77},{"user_id":605,"name":"Purple Cube","steam_id":76561198132134056,"connected_time":69000000000,"state":"active","ping":53},{"user_id":601,"name":"MGE SNIPER LORD","steam_id":76561198947517753,"connected_time":572000000000,"state":"active","ping":84},{"user_id":602,"name":"MGe SPERMO GLOT","steam_id":76561199152487036,"connected_time":561000000000,"state":"active","ping":129},{"user_id":603,"name":"–ù–∞–¥—è –®—É–ª—å—Ü","steam_id":76561198878486207,"connected_time":556000000000,"state":"active","ping":75},{"user_id":606,"name":"TheSoggiestBiscuit","steam_id":76561199059092333,"connected_time":4000000000,"state":"spawning","ping":44}]},{"server_id":40,"name":"Uncletopia | London | 7 | Stopwatch","name_short":"lon-7","host":"lon-1.uk.uncletopia.com","port":27075,"enabled":true,"region":"eu","cc":"gb","latitude":51.509865,"longitude":-0.118092,"reserved":0,"last_update":"0001-01-01T00:00:00Z","name_a2s":"Uncletopia | London | 7 | Stopwatch","protocol":17,"map":"cp_metalworks","folder":"tf","game":"Team Fortress","app_id":440,"player_count":1,"max_players":24,"Bots":0,"server_type":"Dedicated","server_os":"Linux","password":true,"vac":true,"version":"7961495","steam_id":85568392924964314,"keywords":["cp","nocrits","nodmgspread","uncletopia"],"game_id":440,"stv_port":27076,"stv_name":"Uncletopia | London | 7 | Stopwatch | STV","players":[{"user_id":272,"name":"Deemask√©","steam_id":76561199225833593,"connected_time":633000000000,"state":"active","ping":56}]},{"server_id":41,"name":"Uncletopia | London | 8 | Community","name_short":"lon-8","host":"lon-1.uk.uncletopia.com","port":27085,"enabled":true,"region":"eu","cc":"gb","latitude":51.509865,"longitude":-0.118092,"reserved":0,"last_update":"0001-01-01T00:00:00Z","name_a2s":"Uncletopia | London | 8 | Community","protocol":17,"map":"workshop/koth_synthetic_rc6a.ugc1549817316","folder":"tf","game":"Team Fortress","app_id":440,"player_count":0,"max_players":24,"Bots":0,"server_type":"Dedicated","server_os":"Linux","password":true,"vac":true,"version":"7961495","steam_id":85568392924964315,"keywords":["cp","nocrits","nodmgspread","uncletopia"],"game_id":440,"stv_port":27086,"stv_name":"Uncletopia | London | 8 | Community | STV","players":null},{"server_id":300,"name":"Uncletopia | Montr√©al | 1 | All Maps","name_short":"mtl-1","host":"mtl-1.ca.uncletopia.com","port":27015,"enabled":true,"region":"us-east","cc":"ca","latitude":45.50889,"longitude":-73.56167,"reserved":0,"last_update":"0001-01-01T00:00:00Z","name_a2s":"","protocol":0,"map":"","folder":"","game":"","app_id":0,"player_count":14,"max_players":0,"Bots":0,"server_type":"","server_os":"","password":false,"vac":false,"version":"","steam_id":0,"keywords":null,"game_id":0,"stv_port":0,"stv_name":"","players":[{"user_id":160,"name":"Neocherry","steam_id":76561198137036962,"connected_time":1821000000000,"state":"active","ping":89},{"user_id":136,"name":"XxChocola20xX","steam_id":76561199108579557,"connected_time":4908000000000,"state":"active","ping":130},{"user_id":167,"name":"Forklift Certified","steam_id":76561198129827726,"connected_time":657000000000,"state":"active","ping":330},{"user_id":163,"name":"Sushi McBeef","steam_id":76561198039227477,"connected_time":1000000000000,"state":"active","ping":61},{"user_id":162,"name":"BluCoffee","steam_id":76561198214995967,"connected_time":1541000000000,"state":"active","ping":43},{"user_id":154,"name":"custodian","steam_id":76561198058793778,"connected_time":2210000000000,"state":"active","ping":62},{"user_id":170,"name":"Coach Twig","steam_id":76561198058831591,"connected_time":421000000000,"state":"active","ping":60},{"user_id":169,"name":"Devon??","steam_id":76561198141395528,"connected_time":504000000000,"state":"active","ping":120},{"user_id":159,"name":"DarkWolf","steam_id":76561198392222947,"connected_time":1826000000000,"state":"active","ping":75},{"user_id":171,"name":"Vim the Protogen (They/Them)","steam_id":76561198071192138,"connected_time":360000000000,"state":"active","ping":78},{"user_id":172,"name":"EnDeRmAn","steam_id":76561199121993305,"connected_time":315000000000,"state":"active","ping":50},{"user_id":176,"name":"JACOB","steam_id":76561198211874895,"connected_time":180000000000,"state":"active","ping":55},{"user_id":174,"name":"Jack the Dripper","steam_id":76561198043911582,"connected_time":299000000000,"state":"active","ping":49},{"user_id":175,"name":"Judge Dread","steam_id":76561199246872571,"connected_time":267000000000,"state":"active","ping":139}]},{"server_id":301,"name":"Uncletopia | Montr√©al | 2 | ???","name_short":"mtl-2","host":"mtl-1.ca.uncletopia.com","port":27025,"enabled":true,"region":"us-east","cc":"ca","latitude":45.50889,"longitude":-73.56167,"reserved":0,"last_update":"0001-01-01T00:00:00Z","name_a2s":"","protocol":0,"map":"","folder":"","game":"","app_id":0,"player_count":0,"max_players":0,"Bots":0,"server_type":"","server_os":"","password":false,"vac":false,"version":"","steam_id":0,"keywords":null,"game_id":0,"stv_port":0,"stv_name":"","players":null},{"server_id":13,"name":"Uncletopia | New York City | 1 | All Maps","name_short":"nyc-1","host":"nyc-1.us.uncletopia.com","port":27015,"enabled":true,"region":"us-east","cc":"us","latitude":40.73061,"longitude":-73.93524,"reserved":0,"last_update":"0001-01-01T00:00:00Z","name_a2s":"Uncletopia | New York City | 1 | All Maps","protocol":17,"map":"pl_borneo","folder":"tf","game":"Team Fortress","app_id":440,"player_count":24,"max_players":24,"Bots":0,"server_type":"Dedicated","server_os":"Linux","password":true,"vac":true,"version":"7961495","steam_id":85568392924469993,"keywords":["nocrits","nodmgspread","payload","uncletopia"],"game_id":440,"stv_port":27016,"stv_name":"Uncletopia | New York City | 1 | All Maps | STV","players":[{"user_id":385,"name":"‚ù§Breadshot (She)‚ù§","steam_id":76561199005756738,"connected_time":651000000000,"state":"active","ping":83},{"user_id":378,"name":"joe","steam_id":76561199389283507,"connected_time":1273000000000,"state":"active","ping":61},{"user_id":368,"name":"Stormy","steam_id":76561198119467780,"connected_time":2333000000000,"state":"active","ping":87},{"user_id":396,"name":"playfasteatass","steam_id":76561198019284001,"connected_time":148000000000,"state":"active","ping":60},{"user_id":370,"name":"Jpxfred","steam_id":76561199414783749,"connected_time":2300000000000,"state":"active","ping":130},{"user_id":388,"name":"Buck","steam_id":76561198064244796,"connected_time":256000000000,"state":"active","ping":52},{"user_id":391,"name":"Sweater-Fan","steam_id":76561199389567214,"connected_time":218000000000,"state":"active","ping":68},{"user_id":390,"name":"Strangelove","steam_id":76561198353773611,"connected_time":235000000000,"state":"active","ping":87},{"user_id":386,"name":"dr peppah chug!","steam_id":76561198068835693,"connected_time":629000000000,"state":"active","ping":88},{"user_id":389,"name":"‚ù§Womp‚ù§","steam_id":76561198167488304,"connected_time":254000000000,"state":"active","ping":75},{"user_id":392,"name":"Smiles","steam_id":76561198107197973,"connected_time":215000000000,"state":"active","ping":85},{"user_id":384,"name":"kursed","steam_id":76561198992371495,"connected_time":680000000000,"state":"active","ping":44},{"user_id":393,"name":"meat glasses","steam_id":76561198046742645,"connected_time":212000000000,"state":"active","ping":60},{"user_id":394,"name":"mop","steam_id":76561198083853538,"connected_time":199000000000,"state":"active","ping":67},{"user_id":380,"name":"LocaKola","steam_id":76561198173435430,"connected_time":1251000000000,"state":"active","ping":64},{"user_id":382,"name":"triple_range_merge","steam_id":76561198991225026,"connected_time":834000000000,"state":"active","ping":61},{"user_id":191,"name":"Ziath","steam_id":76561198094009164,"connected_time":15347000000000,"state":"active","ping":47},{"user_id":381,"name":"KhorneBread Ô∏ª„Éá ‰∏Ä","steam_id":76561198097069958,"connected_time":1249000000000,"state":"active","ping":71},{"user_id":362,"name":"The Deer Consumer","steam_id":76561198812026312,"connected_time":3369000000000,"state":"active","ping":63},{"user_id":387,"name":"‚úûüòàprofesonale","steam_id":76561198049924024,"connected_time":547000000000,"state":"active","ping":146},{"user_id":290,"name":"dulg","steam_id":76561198127640309,"connected_time":8205000000000,"state":"active","ping":144},{"user_id":375,"name":"Hideo Kojima","steam_id":76561198082582335,"connected_time":1602000000000,"state":"active","ping":64},{"user_id":356,"name":"Dreysidel","steam_id":76561198056496183,"connected_time":3778000000000,"state":"active","ping":59},{"user_id":395,"name":"I love digging shit out my ass","steam_id":76561198159339442,"connected_time":198000000000,"state":"active","ping":76}]},{"server_id":14,"name":"Uncletopia | New York City | 2 | All Maps","name_short":"nyc-2","host":"nyc-1.us.uncletopia.com","port":27025,"enabled":true,"region":"us-east","cc":"us","latitude":40.73061,"longitude":-73.93524,"reserved":0,"last_update":"0001-01-01T00:00:00Z","name_a2s":"Uncletopia | New York City | 2 | All Maps","protocol":17,"map":"cp_freight_final1","folder":"tf","game":"Team Fortress","app_id":440,"player_count":24,"max_players":24,"Bots":0,"server_type":"Dedicated","server_os":"Linux","password":true,"vac":true,"version":"7961495","steam_id":85568392924469994,"keywords":["cp","nocrits","nodmgspread","uncletopia"],"game_id":440,"stv_port":27026,"stv_name":"Uncletopia | New York City | 2 | All Maps | STV","players":[{"user_id":252,"name":"Baron von Whoopsie","steam_id":76561197996691013,"connected_time":3509000000000,"state":"active","ping":65},{"user_id":274,"name":"De","steam_id":76561198206728044,"connected_time":1816000000000,"state":"active","ping":75},{"user_id":260,"name":"Decolour","steam_id":76561199045608372,"connected_time":2723000000000,"state":"active","ping":57},{"user_id":286,"name":"BeerPowder","steam_id":76561198058129400,"connected_time":1292000000000,"state":"active","ping":47},{"user_id":284,"name":"YummerBummer","steam_id":76561198094773987,"connected_time":1304000000000,"state":"active","ping":54},{"user_id":281,"name":"ma0re","steam_id":76561199231971506,"connected_time":1456000000000,"state":"active","ping":47},{"user_id":269,"name":"Vee (very cool)","steam_id":76561198330432889,"connected_time":2366000000000,"state":"active","ping":76},{"user_id":287,"name":"Marzz","steam_id":76561198059034982,"connected_time":1237000000000,"state":"active","ping":55},{"user_id":259,"name":"breesey","steam_id":76561198341658826,"connected_time":2734000000000,"state":"active","ping":43},{"user_id":169,"name":"Zhong Xina","steam_id":76561198048157121,"connected_time":9239000000000,"state":"active","ping":67},{"user_id":288,"name":"Sentry Food","steam_id":76561198042926224,"connected_time":1236000000000,"state":"active","ping":73},{"user_id":222,"name":"googa","steam_id":76561198133130452,"connected_time":5978000000000,"state":"active","ping":45},{"user_id":241,"name":"Wahooka","steam_id":76561197962240925,"connected_time":4286000000000,"state":"active","ping":50},{"user_id":263,"name":"bInky","steam_id":76561198968337022,"connected_time":2656000000000,"state":"active","ping":51},{"user_id":273,"name":"Preacher","steam_id":76561198022215764,"connected_time":1834000000000,"state":"active","ping":55},{"user_id":279,"name":"Hope","steam_id":76561199201900779,"connected_time":1583000000000,"state":"active","ping":73},{"user_id":280,"name":"p4ka","steam_id":76561198315291317,"connected_time":1489000000000,"state":"active","ping":59},{"user_id":285,"name":"Wishes for Fishes","steam_id":76561197997745325,"connected_time":1303000000000,"state":"active","ping":52},{"user_id":289,"name":"Albino Jellyfish","steam_id":76561198208561097,"connected_time":1089000000000,"state":"active","ping":56},{"user_id":255,"name":"Wooper","steam_id":76561198047491931,"connected_time":3463000000000,"state":"active","ping":39},{"user_id":261,"name":"Pango","steam_id":76561198069811545,"connected_time":2722000000000,"state":"active","ping":73},{"user_id":272,"name":"pea ttv/peabeanz","steam_id":76561198119551968,"connected_time":2079000000000,"state":"active","ping":62},{"user_id":247,"name":"Squadle","steam_id":76561198366535794,"connected_time":4149000000000,"state":"active","ping":87},{"user_id":292,"name":"Chris P. Bacon","steam_id":76561198000851038,"connected_time":957000000000,"state":"active","ping":57}]},{"server_id":15,"name":"Uncletopia | New York City | 3 | Stopwatch","name_short":"nyc-3","host":"nyc-1.us.uncletopia.com","port":27035,"enabled":true,"region":"us-east","cc":"us","latitude":40.73061,"longitude":-73.93524,"reserved":0,"last_update":"0001-01-01T00:00:00Z","name_a2s":"Uncletopia | New York City | 3 | Stopwatch","protocol":17,"map":"workshop/pl_barnblitz_pro7.ugc582280235","folder":"tf","game":"Team Fortress","app_id":440,"player_count":24,"max_players":24,"Bots":0,"server_type":"Dedicated","server_os":"Linux","password":true,"vac":true,"version":"7961495","steam_id":85568392924742820,"keywords":["nocrits","nodmgspread","payload","uncletopia"],"game_id":440,"stv_port":27036,"stv_name":"Uncletopia | New York City | 3 | Stopwatch | STV","players":[{"user_id":352,"name":"Outlier","steam_id":76561199093787770,"connected_time":1512000000000,"state":"active","ping":74},{"user_id":364,"name":"timestew 1","steam_id":76561198367583372,"connected_time":355000000000,"state":"active","ping":83},{"user_id":365,"name":"Salamander","steam_id":76561198161980010,"connected_time":348000000000,"state":"active","ping":143},{"user_id":339,"name":"Raine","steam_id":76561199081937889,"connected_time":2212000000000,"state":"active","ping":73},{"user_id":366,"name":"caca sniffer","steam_id":76561199099914725,"connected_time":340000000000,"state":"active","ping":119},{"user_id":351,"name":"Ask Nicely For Heals","steam_id":76561198138478907,"connected_time":1619000000000,"state":"active","ping":74},{"user_id":369,"name":"CocoNUTGun","steam_id":76561198073086100,"connected_time":299000000000,"state":"active","ping":96},{"user_id":340,"name":"He Who Dared Say \"SuS\"","steam_id":76561198123441203,"connected_time":2208000000000,"state":"active","ping":71},{"user_id":305,"name":"Lee?","steam_id":76561199060892634,"connected_time":4258000000000,"state":"active","ping":99},{"user_id":362,"name":"Qliphoth dweller","steam_id":76561198195517770,"connected_time":530000000000,"state":"active","ping":79},{"user_id":367,"name":"Creature","steam_id":76561198194585781,"connected_time":304000000000,"state":"active","ping":110},{"user_id":332,"name":"sandwich enjoyer","steam_id":76561199158546612,"connected_time":2907000000000,"state":"active","ping":134},{"user_id":291,"name":"Sky Tree","steam_id":76561198027103242,"connected_time":4633000000000,"state":"active","ping":30},{"user_id":378,"name":"king dedede","steam_id":76561198965562679,"connected_time":75000000000,"state":"active","ping":68},{"user_id":368,"name":"Weed Dealer","steam_id":76561198418604400,"connected_time":304000000000,"state":"active","ping":124},{"user_id":357,"name":"space creep","steam_id":76561198025668545,"connected_time":1036000000000,"state":"active","ping":42},{"user_id":370,"name":"AFellowGuardsman","steam_id":76561198202280964,"connected_time":291000000000,"state":"active","ping":135},{"user_id":371,"name":"Beater","steam_id":76561197990142005,"connected_time":278000000000,"state":"active","ping":134},{"user_id":343,"name":"nav","steam_id":76561198872608266,"connected_time":2028000000000,"state":"active","ping":62},{"user_id":376,"name":"woosh","steam_id":76561198328312758,"connected_time":134000000000,"state":"active","ping":67},{"user_id":344,"name":"sushi","steam_id":76561198397517200,"connected_time":2005000000000,"state":"active","ping":81},{"user_id":377,"name":"ReanuKeeves","steam_id":76561198798940895,"connected_time":82000000000,"state":"active","ping":86},{"user_id":363,"name":"Pyrgaxy","steam_id":76561199259867180,"connected_time":517000000000,"state":"active","ping":106},{"user_id":375,"name":"Triforce141","steam_id":76561198063896776,"connected_time":176000000000,"state":"active","ping":89}]},{"server_id":16,"name":"Uncletopia | New York City | 4 | Community","name_short":"nyc-4","host":"nyc-1.us.uncletopia.com","port":27045,"enabled":true,"region":"us-east","cc":"us","latitude":40.73061,"longitude":-73.93524,"reserved":0,"last_update":"0001-01-01T00:00:00Z","name_a2s":"Uncletopia | New York City | 4 | Community","protocol":17,"map":"cp_altitude","folder":"tf","game":"Team Fortress","app_id":440,"player_count":0,"max_players":24,"Bots":0,"server_type":"Dedicated","server_os":"Linux","password":true,"vac":true,"version":"7961495","steam_id":85568392924742821,"keywords":["cp","nocrits","nodmgspread","uncletopia"],"game_id":440,"stv_port":27046,"stv_name":"Uncletopia | New York City | 4 | Community | STV","players":null},{"server_id":142,"name":"Uncletopia | S√£o Paulo | 1 | All Maps","name_short":"sao-1","host":"sao-1.br.uncletopia.com","port":27015,"enabled":true,"region":"sa","cc":"br","latitude":-23.533773,"longitude":-46.62529,"reserved":0,"last_update":"0001-01-01T00:00:00Z","name_a2s":"Uncletopia | S√£o Paulo | 1 | All Maps","protocol":17,"map":"pl_frontier_final","folder":"tf","game":"Team Fortress","app_id":440,"player_count":0,"max_players":24,"Bots":0,"server_type":"Dedicated","server_os":"Linux","password":true,"vac":true,"version":"7961495","steam_id":85568392924469996,"keywords":["nocrits","nodmgspread","payload","uncletopia"],"game_id":440,"stv_port":27016,"stv_name":"Uncletopia | S√£o Paulo | 1 | All Maps | STV","players":null},{"server_id":143,"name":"Uncletopia | S√£o Paulo | 2 | Community","name_short":"sao-2","host":"sao-2.br.uncletopia.com","port":27015,"enabled":true,"region":"sa","cc":"br","latitude":-23.533773,"longitude":-46.62529,"reserved":0,"last_update":"0001-01-01T00:00:00Z","name_a2s":"Uncletopia | S√£o Paulo | 2 | Community","protocol":17,"map":"workshop/koth_kemptown_rc1.ugc767410655","folder":"tf","game":"Team Fortress","app_id":440,"player_count":0,"max_players":24,"Bots":0,"server_type":"Dedicated","server_os":"Linux","password":true,"vac":true,"version":"7961495","steam_id":85568392924485349,"keywords":["cp","nocrits","nodmgspread","uncletopia"],"game_id":440,"stv_port":27016,"stv_name":"Uncletopia | S√£o Paulo | 2 | Community | STV","players":null},{"server_id":7,"name":"Uncletopia | Seattle | 1 | All Maps","name_short":"sea-1","host":"sea-1.us.uncletopia.com","port":27015,"enabled":true,"region":"us-west","cc":"us","latitude":47.608013,"longitude":-122.33517,"reserved":0,"last_update":"0001-01-01T00:00:00Z","name_a2s":"Uncletopia | Seattle | 1 | All Maps","protocol":17,"map":"koth_harvest_final","folder":"tf","game":"Team Fortress","app_id":440,"player_count":23,"max_players":24,"Bots":0,"server_type":"Dedicated","server_os":"Linux","password":true,"vac":true,"version":"7961495","steam_id":85568392924469997,"keywords":["cp","nocrits","nodmgspread","uncletopia"],"game_id":440,"stv_port":27016,"stv_name":"Uncletopia | Seattle | 1 | All Maps | STV","players":[{"user_id":207,"name":"rat gets the cheese","steam_id":76561198031234032,"connected_time":2747000000000,"state":"active","ping":98},{"user_id":245,"name":"Danzuniverse","steam_id":76561198179817943,"connected_time":21000000000,"state":"active","ping":51},{"user_id":196,"name":"onionman0106","steam_id":76561199067766868,"connected_time":4512000000000,"state":"active","ping":45},{"user_id":179,"name":"Pyrotek‚Å¥","steam_id":76561198072747672,"connected_time":6128000000000,"state":"active","ping":74},{"user_id":197,"name":"Sniff","steam_id":76561198010270922,"connected_time":4430000000000,"state":"active","ping":53},{"user_id":174,"name":"Little Linguine","steam_id":76561198816986370,"connected_time":6724000000000,"state":"active","ping":45},{"user_id":246,"name":"Maniac Hat","steam_id":76561199082942851,"connected_time":17000000000,"state":"active","ping":122},{"user_id":231,"name":"[TrC] Dackstrus","steam_id":76561197973518509,"connected_time":997000000000,"state":"active","ping":59},{"user_id":230,"name":"Skabbety","steam_id":76561198168044257,"connected_time":1151000000000,"state":"active","ping":41},{"user_id":215,"name":"jailbreak","steam_id":76561198802085218,"connected_time":2068000000000,"state":"active","ping":95},{"user_id":156,"name":"Cheezbeargur","steam_id":76561198164702899,"connected_time":8313000000000,"state":"active","ping":68},{"user_id":243,"name":"McNamJam","steam_id":76561198028128686,"connected_time":224000000000,"state":"active","ping":73},{"user_id":191,"name":"rad killl raccoon","steam_id":76561198980975595,"connected_time":4776000000000,"state":"active","ping":52},{"user_id":194,"name":"I had pudding, and I didn't sha","steam_id":76561198141819053,"connected_time":4761000000000,"state":"active","ping":60},{"user_id":239,"name":"Veil","steam_id":76561198041286321,"connected_time":547000000000,"state":"active","ping":32},{"user_id":199,"name":"=Silver=","steam_id":76561198292307127,"connected_time":3915000000000,"state":"active","ping":70},{"user_id":241,"name":"Retesaurus","steam_id":76561198045189319,"connected_time":233000000000,"state":"active","ping":76},{"user_id":242,"name":"evilOlive","steam_id":76561198106222025,"connected_time":226000000000,"state":"active","ping":83},{"user_id":234,"name":"astel","steam_id":76561199164371592,"connected_time":745000000000,"state":"active","ping":127},{"user_id":238,"name":"nat","steam_id":76561198865090309,"connected_time":628000000000,"state":"active","ping":134},{"user_id":235,"name":"[TrC] Nosy","steam_id":76561197978859310,"connected_time":679000000000,"state":"active","ping":57},{"user_id":236,"name":"?","steam_id":76561198209880837,"connected_time":668000000000,"state":"active","ping":45},{"user_id":222,"name":"diddy bong","steam_id":76561198870649125,"connected_time":1866000000000,"state":"active","ping":85}]},{"server_id":119,"name":"Uncletopia | Seattle | 2 | All Maps","name_short":"sea-2","host":"sea-1.us.uncletopia.com","port":27025,"enabled":true,"region":"us-west","cc":"us","latitude":47.608013,"longitude":-122.33517,"reserved":0,"last_update":"0001-01-01T00:00:00Z","name_a2s":"Uncletopia | Seattle | 2 | All Maps","protocol":17,"map":"pl_frontier_final","folder":"tf","game":"Team Fortress","app_id":440,"player_count":24,"max_players":24,"Bots":0,"server_type":"Dedicated","server_os":"Linux","password":true,"vac":true,"version":"7961495","steam_id":85568392924469998,"keywords":["nocrits","nodmgspread","payload","uncletopia"],"game_id":440,"stv_port":27026,"stv_name":"Uncletopia | Seattle | 2 | All Maps | STV","players":[{"user_id":126,"name":"mn","steam_id":76561198042357436,"connected_time":1687000000000,"state":"active","ping":35},{"user_id":101,"name":"okiki_114","steam_id":76561199192983913,"connected_time":3398000000000,"state":"active","ping":87},{"user_id":132,"name":"Rude Dog","steam_id":76561197980385816,"connected_time":1533000000000,"state":"active","ping":41},{"user_id":150,"name":"FaZe hyazzZzzzZzzzZ","steam_id":76561199100342013,"connected_time":585000000000,"state":"active","ping":71},{"user_id":149,"name":"mlg_grandad","steam_id":76561198033962898,"connected_time":592000000000,"state":"active","ping":72},{"user_id":151,"name":"uufyfuu","steam_id":76561198142787212,"connected_time":585000000000,"state":"active","ping":61},{"user_id":147,"name":"smogun","steam_id":76561198361158518,"connected_time":701000000000,"state":"active","ping":83},{"user_id":134,"name":"Schleefinstein","steam_id":76561198131632870,"connected_time":1504000000000,"state":"active","ping":67},{"user_id":158,"name":"intek","steam_id":76561198052705291,"connected_time":234000000000,"state":"active","ping":104},{"user_id":140,"name":"Pepperoni Dave","steam_id":76561199278783760,"connected_time":1386000000000,"state":"active","ping":71},{"user_id":133,"name":"spacetoven","steam_id":76561198115821131,"connected_time":1516000000000,"state":"active","ping":60},{"user_id":113,"name":"Blake...","steam_id":76561198064090974,"connected_time":2784000000000,"state":"active","ping":126},{"user_id":131,"name":"Sudiak","steam_id":76561198119246214,"connected_time":1576000000000,"state":"active","ping":93},{"user_id":112,"name":"fishdine","steam_id":76561198065097426,"connected_time":2802000000000,"state":"active","ping":66},{"user_id":125,"name":"Cupid The Fox","steam_id":76561199170923169,"connected_time":1759000000000,"state":"active","ping":118},{"user_id":135,"name":"jodie.blend","steam_id":76561198140701807,"connected_time":1483000000000,"state":"active","ping":97},{"user_id":136,"name":"balls gaming","steam_id":76561199326170223,"connected_time":1480000000000,"state":"active","ping":77},{"user_id":154,"name":"PJROCK101","steam_id":76561198070616561,"connected_time":551000000000,"state":"active","ping":51},{"user_id":157,"name":"Greskrendtregk","steam_id":76561197969553142,"connected_time":524000000000,"state":"active","ping":67},{"user_id":124,"name":"MrRojan","steam_id":76561197993760849,"connected_time":1771000000000,"state":"active","ping":53},{"user_id":107,"name":"Underscorn","steam_id":76561198374209415,"connected_time":3201000000000,"state":"active","ping":117},{"user_id":159,"name":"Infentdegree211","steam_id":76561198385234127,"connected_time":159000000000,"state":"active","ping":86},{"user_id":152,"name":"Dreamzapp","steam_id":76561199084936632,"connected_time":582000000000,"state":"active","ping":83},{"user_id":98,"name":"[FaZe] MLGadult44","steam_id":76561198067232540,"connected_time":3674000000000,"state":"active","ping":123}]},{"server_id":406,"name":"Uncletopia | Seattle | 3 | Stopwatch","name_short":"sea-3","host":"sea-1.us.uncletopia.com","port":27035,"enabled":true,"region":"us-west","cc":"us","latitude":47.608013,"longitude":-122.33517,"reserved":0,"last_update":"0001-01-01T00:00:00Z","name_a2s":"Uncletopia | Seattle | 3 | Stopwatch","protocol":17,"map":"koth_lakeside_final","folder":"tf","game":"Team Fortress","app_id":440,"player_count":0,"max_players":24,"Bots":0,"server_type":"Dedicated","server_os":"Linux","password":true,"vac":true,"version":"7961495","steam_id":85568392924515217,"keywords":["cp","nocrits","nodmgspread","uncletopia"],"game_id":440,"stv_port":27036,"stv_name":"Uncletopia | Seattle | 3 | Stopwatch | STV","players":null},{"server_id":17,"name":"Uncletopia | San Francisco | 1 | All Maps","name_short":"sfo-1","host":"sfo-1.us.uncletopia.com","port":27015,"enabled":true,"region":"us-west","cc":"us","latitude":37.77397,"longitude":-122.4313,"reserved":0,"last_update":"0001-01-01T00:00:00Z","name_a2s":"Uncletopia | San Francisco | 1 | All Maps","protocol":17,"map":"koth_lakeside_final","folder":"tf","game":"Team Fortress","app_id":440,"player_count":0,"max_players":24,"Bots":0,"server_type":"Dedicated","server_os":"Linux","password":true,"vac":true,"version":"7961495","steam_id":85568392924469999,"keywords":["cp","nocrits","nodmgspread","uncletopia"],"game_id":440,"stv_port":27016,"stv_name":"Uncletopia | San Francisco | 1 | All Maps | STV","players":null},{"server_id":18,"name":"Uncletopia | San Francisco | 2 | All Maps","name_short":"sfo-2","host":"sfo-1.us.uncletopia.com","port":27025,"enabled":true,"region":"us-west","cc":"us","latitude":37.77397,"longitude":-122.4313,"reserved":0,"last_update":"0001-01-01T00:00:00Z","name_a2s":"Uncletopia | San Francisco | 2 | All Maps","protocol":17,"map":"koth_cascade","folder":"tf","game":"Team Fortress","app_id":440,"player_count":7,"max_players":24,"Bots":0,"server_type":"Dedicated","server_os":"Linux","password":true,"vac":true,"version":"7961495","steam_id":85568392924470000,"keywords":["cp","nocrits","nodmgspread","uncletopia"],"game_id":440,"stv_port":27026,"stv_name":"Uncletopia | San Francisco | 2 | All Maps | STV","players":[{"user_id":13,"name":"Blind_Deuce","steam_id":76561198155697762,"connected_time":1462000000000,"state":"active","ping":59},{"user_id":14,"name":"16 tons of wheat","steam_id":76561198294080628,"connected_time":1445000000000,"state":"active","ping":158},{"user_id":15,"name":"DIO Gaming","steam_id":76561198096858233,"connected_time":1440000000000,"state":"active","ping":225},{"user_id":20,"name":"Imabox","steam_id":76561199206177858,"connected_time":473000000000,"state":"active","ping":62},{"user_id":19,"name":"Cheddar","steam_id":76561199123994392,"connected_time":611000000000,"state":"active","ping":59},{"user_id":22,"name":"General Spicy","steam_id":76561198298499187,"connected_time":340000000000,"state":"active","ping":30},{"user_id":23,"name":"perc 10","steam_id":76561198116471653,"connected_time":282000000000,"state":"active","ping":312}]},{"server_id":19,"name":"Uncletopia | San Francisco | 3 | Stopwatch","name_short":"sfo-3","host":"sfo-1.us.uncletopia.com","port":27035,"enabled":true,"region":"us-west","cc":"us","latitude":37.77397,"longitude":-122.4313,"reserved":0,"last_update":"0001-01-01T00:00:00Z","name_a2s":"Uncletopia | San Francisco | 3 | Stopwatch","protocol":17,"map":"workshop/koth_product_final.ugc454272353","folder":"tf","game":"Team Fortress","app_id":440,"player_count":0,"max_players":24,"Bots":0,"server_type":"Dedicated","server_os":"Linux","password":true,"vac":true,"version":"7961495","steam_id":85568392924742824,"keywords":["cp","nocrits","nodmgspread","uncletopia"],"game_id":440,"stv_port":27036,"stv_name":"Uncletopia | San Francisco | 3 | Stopwatch | STV","players":null},{"server_id":20,"name":"Uncletopia | San Francisco | 4 | Community","name_short":"sfo-4","host":"sfo-1.us.uncletopia.com","port":27045,"enabled":true,"region":"us-west","cc":"us","latitude":37.77397,"longitude":-122.4313,"reserved":0,"last_update":"0001-01-01T00:00:00Z","name_a2s":"Uncletopia | San Francisco | 4 | Community","protocol":17,"map":"workshop/pl_divulgence_b4b.ugc2884808746","folder":"tf","game":"Team Fortress","app_id":440,"player_count":0,"max_players":24,"Bots":0,"server_type":"Dedicated","server_os":"Linux","password":true,"vac":true,"version":"7961495","steam_id":85568392924742826,"keywords":["nocrits","nodmgspread","payload","uncletopia"],"game_id":440,"stv_port":27046,"stv_name":"Uncletopia | San Francisco | 4 | Community | STV","players":null},{"server_id":141,"name":"Uncletopia | Sydney | 1 | All Maps","name_short":"syd-1","host":"syd-1.au.uncletopia.com","port":27015,"enabled":true,"region":"au","cc":"au","latitude":-33.865143,"longitude":151.2099,"reserved":0,"last_update":"0001-01-01T00:00:00Z","name_a2s":"Uncletopia | Sydney | 1 | All Maps","protocol":17,"map":"koth_viaduct","folder":"tf","game":"Team Fortress","app_id":440,"player_count":0,"max_players":24,"Bots":0,"server_type":"Dedicated","server_os":"Linux","password":true,"vac":true,"version":"7961495","steam_id":85568392924470001,"keywords":["cp","nocrits","nodmgspread","uncletopia"],"game_id":440,"stv_port":27016,"stv_name":"Uncletopia | Sydney | 1 | All Maps | STV","players":null},{"server_id":123,"name":"Uncletopia | Sydney | 2 | All Maps","name_short":"syd-2","host":"syd-1.au.uncletopia.com","port":27025,"enabled":true,"region":"au","cc":"au","latitude":-33.865143,"longitude":151.2099,"reserved":0,"last_update":"0001-01-01T00:00:00Z","name_a2s":"Uncletopia | Sydney | 2 | All Maps","protocol":17,"map":"koth_lakeside_final","folder":"tf","game":"Team Fortress","app_id":440,"player_count":0,"max_players":24,"Bots":0,"server_type":"Dedicated","server_os":"Linux","password":true,"vac":true,"version":"7961495","steam_id":85568392924470002,"keywords":["cp","nocrits","nodmgspread","uncletopia"],"game_id":440,"stv_port":27026,"stv_name":"Uncletopia | Sydney | 2 | All Maps | STV","players":null},{"server_id":395,"name":"Uncletopia | Sydney | 3 | All Maps","name_short":"syd-3","host":"syd-1.au.uncletopia.com","port":27035,"enabled":true,"region":"au","cc":"au","latitude":-33.865143,"longitude":151.2099,"reserved":0,"last_update":"0001-01-01T00:00:00Z","name_a2s":"Uncletopia | Sydney | 3 | All Maps","protocol":17,"map":"pl_frontier_final","folder":"tf","game":"Team Fortress","app_id":440,"player_count":0,"max_players":24,"Bots":0,"server_type":"Dedicated","server_os":"Linux","password":true,"vac":true,"version":"7961495","steam_id":85568392925194467,"keywords":["nocrits","nodmgspread","payload","uncletopia"],"game_id":440,"stv_port":27036,"stv_name":"Uncletopia | Sydney | 3 | All Maps | STV","players":null},{"server_id":396,"name":"Uncletopia | Sydney | 4 | All Maps","name_short":"syd-4","host":"syd-1.au.uncletopia.com","port":27045,"enabled":true,"region":"au","cc":"au","latitude":-33.865143,"longitude":151.2099,"reserved":0,"last_update":"0001-01-01T00:00:00Z","name_a2s":"Uncletopia | Sydney | 4 | All Maps","protocol":17,"map":"cp_process_final","folder":"tf","game":"Team Fortress","app_id":440,"player_count":0,"max_players":24,"Bots":0,"server_type":"Dedicated","server_os":"Linux","password":true,"vac":true,"version":"7961495","steam_id":85568392925397958,"keywords":["cp","nocrits","nodmgspread","uncletopia"],"game_id":440,"stv_port":27046,"stv_name":"Uncletopia | Sydney | 4 | All Maps | STV","players":null},{"server_id":58,"name":"Uncletopia | Sydney | 5 | Stopwatch","name_short":"syd-5","host":"syd-1.au.uncletopia.com","port":27055,"enabled":true,"region":"au","cc":"au","latitude":-33.865143,"longitude":151.2099,"reserved":0,"last_update":"0001-01-01T00:00:00Z","name_a2s":"Uncletopia | Sydney | 5 | Stopwatch","protocol":17,"map":"pl_frontier_final","folder":"tf","game":"Team Fortress","app_id":440,"player_count":0,"max_players":24,"Bots":0,"server_type":"Dedicated","server_os":"Linux","password":true,"vac":true,"version":"7961495","steam_id":85568392925397959,"keywords":["nocrits","nodmgspread","payload","uncletopia"],"game_id":440,"stv_port":27056,"stv_name":"Uncletopia | Sydney | 5 | Stopwatch | STV","players":null},{"server_id":59,"name":"Uncletopia | Sydney | 6 | Community","name_short":"syd-6","host":"syd-1.au.uncletopia.com","port":27065,"enabled":true,"region":"au","cc":"au","latitude":-33.865143,"longitude":151.2099,"reserved":0,"last_update":"0001-01-01T00:00:00Z","name_a2s":"Uncletopia | Sydney | 6 | Community","protocol":17,"map":"cp_sunshine","folder":"tf","game":"Team Fortress","app_id":440,"player_count":0,"max_players":24,"Bots":0,"server_type":"Dedicated","server_os":"Linux","password":true,"vac":true,"version":"7961495","steam_id":85568392925397960,"keywords":["cp","nocrits","nodmgspread","uncletopia"],"game_id":440,"stv_port":27066,"stv_name":"Uncletopia | Sydney | 6 | Community | STV","players":null},{"server_id":49,"name":"Uncletopia | Warsaw | 1 | All Maps","name_short":"waw-1","host":"waw-1.pl.uncletopia.com","port":27015,"enabled":true,"region":"eu","cc":"pl","latitude":52.2297,"longitude":21.017532,"reserved":0,"last_update":"0001-01-01T00:00:00Z","name_a2s":"Uncletopia | Warsaw | 1 | All Maps","protocol":17,"map":"koth_lakeside_final","folder":"tf","game":"Team Fortress","app_id":440,"player_count":0,"max_players":24,"Bots":0,"server_type":"Dedicated","server_os":"Linux","password":true,"vac":true,"version":"7961495","steam_id":85568392925397850,"keywords":["cp","nocrits","nodmgspread","uncletopia"],"game_id":440,"stv_port":27016,"stv_name":"Uncletopia | Warsaw | 1 | All Maps | STV","players":null},{"server_id":50,"name":"Uncletopia | Warsaw | 2 | All Maps","name_short":"waw-2","host":"waw-1.pl.uncletopia.com","port":27025,"enabled":true,"region":"eu","cc":"pl","latitude":52.2297,"longitude":21.017532,"reserved":0,"last_update":"0001-01-01T00:00:00Z","name_a2s":"Uncletopia | Warsaw | 2 | All Maps","protocol":17,"map":"pl_badwater","folder":"tf","game":"Team Fortress","app_id":440,"player_count":0,"max_players":24,"Bots":0,"server_type":"Dedicated","server_os":"Linux","password":true,"vac":true,"version":"7961495","steam_id":85568392925397851,"keywords":["nocrits","nodmgspread","payload","uncletopia"],"game_id":440,"stv_port":27026,"stv_name":"Uncletopia | Warsaw | 2 | All Maps | STV","players":null},{"server_id":51,"name":"Uncletopia | Warsaw | 3 | All Maps","name_short":"waw-3","host":"waw-1.pl.uncletopia.com","port":27035,"enabled":true,"region":"eu","cc":"pl","latitude":52.2297,"longitude":21.017532,"reserved":0,"last_update":"0001-01-01T00:00:00Z","name_a2s":"Uncletopia | Warsaw | 3 | All Maps","protocol":17,"map":"koth_lakeside_final","folder":"tf","game":"Team Fortress","app_id":440,"player_count":0,"max_players":24,"Bots":0,"server_type":"Dedicated","server_os":"Linux","password":true,"vac":true,"version":"7961495","steam_id":85568392925397852,"keywords":["cp","nocrits","nodmgspread","uncletopia"],"game_id":440,"stv_port":27036,"stv_name":"Uncletopia | Warsaw | 3 | All Maps | STV","players":null},{"server_id":52,"name":"Uncletopia | Warsaw | 4 | All Maps","name_short":"waw-4","host":"waw-1.pl.uncletopia.com","port":27045,"enabled":true,"region":"eu","cc":"pl","latitude":52.2297,"longitude":21.017532,"reserved":0,"last_update":"0001-01-01T00:00:00Z","name_a2s":"Uncletopia | Warsaw | 4 | All Maps","protocol":17,"map":"cp_steel","folder":"tf","game":"Team Fortress","app_id":440,"player_count":18,"max_players":24,"Bots":0,"server_type":"Dedicated","server_os":"Linux","password":true,"vac":true,"version":"7961495","steam_id":85568392925397853,"keywords":["cp","nocrits","nodmgspread","uncletopia"],"game_id":440,"stv_port":27046,"stv_name":"Uncletopia | Warsaw | 4 | All Maps | STV","players":[{"user_id":220,"name":"Lukero","steam_id":76561198301594341,"connected_time":744000000000,"state":"active","ping":87},{"user_id":230,"name":"Trolling Man","steam_id":76561198044084210,"connected_time":312000000000,"state":"active","ping":100},{"user_id":218,"name":"Masster","steam_id":76561198136111053,"connected_time":1154000000000,"state":"active","ping":57},{"user_id":237,"name":"silves","steam_id":76561198106407598,"connected_time":188000000000,"state":"active","ping":76},{"user_id":232,"name":"mr pingas","steam_id":76561198049312442,"connected_time":290000000000,"state":"active","ping":74},{"user_id":203,"name":"105","steam_id":76561198256619964,"connected_time":2441000000000,"state":"active","ping":75},{"user_id":224,"name":"fischman","steam_id":76561199064142670,"connected_time":638000000000,"state":"active","ping":69},{"user_id":229,"name":"quaker","steam_id":76561198326447138,"connected_time":442000000000,"state":"active","ping":43},{"user_id":201,"name":"noot","steam_id":76561198148074472,"connected_time":2451000000000,"state":"active","ping":59},{"user_id":227,"name":"anime","steam_id":76561198083238107,"connected_time":461000000000,"state":"active","ping":71},{"user_id":202,"name":"≈°ansas","steam_id":76561198147277460,"connected_time":2451000000000,"state":"active","ping":76},{"user_id":228,"name":"There's a pipe bomb in your gen","steam_id":76561198112456565,"connected_time":454000000000,"state":"active","ping":103},{"user_id":233,"name":"Sir Fernando Alonso MBE","steam_id":76561198103660553,"connected_time":281000000000,"state":"active","ping":106},{"user_id":239,"name":"bl0ke","steam_id":76561198012526576,"connected_time":84000000000,"state":"active","ping":62},{"user_id":235,"name":"BallinScout","steam_id":76561198152443697,"connected_time":275000000000,"state":"active","ping":72},{"user_id":236,"name":"hubert","steam_id":76561198057722639,"connected_time":274000000000,"state":"active","ping":74},{"user_id":240,"name":"Anon User","steam_id":76561199490573064,"connected_time":64000000000,"state":"active","ping":94},{"user_id":241,"name":"Truskawka","steam_id":76561198855163602,"connected_time":60000000000,"state":"active","ping":83}]},{"server_id":53,"name":"Uncletopia | Warsaw | 5 | Stopwatch","name_short":"waw-5","host":"waw-1.pl.uncletopia.com","port":27055,"enabled":true,"region":"eu","cc":"pl","latitude":52.2297,"longitude":21.017532,"reserved":0,"last_update":"0001-01-01T00:00:00Z","name_a2s":"Uncletopia | Warsaw | 5 | Stopwatch","protocol":17,"map":"workshop/koth_ramjam_rc1.ugc459778887","folder":"tf","game":"Team Fortress","app_id":440,"player_count":0,"max_players":24,"Bots":0,"server_type":"Dedicated","server_os":"Linux","password":true,"vac":true,"version":"7961495","steam_id":85568392925397854,"keywords":["cp","nocrits","nodmgspread","uncletopia"],"game_id":440,"stv_port":27056,"stv_name":"Uncletopia | Warsaw | 5 | Stopwatch | STV","players":null},{"server_id":54,"name":"Uncletopia | Warsaw | 6 | Community","name_short":"waw-6","host":"waw-1.pl.uncletopia.com","port":27065,"enabled":true,"region":"eu","cc":"pl","latitude":52.2297,"longitude":21.017532,"reserved":0,"last_update":"0001-01-01T00:00:00Z","name_a2s":"Uncletopia | Warsaw | 6 | Community","protocol":17,"map":"workshop/koth_kemptown_rc1.ugc767410655","folder":"tf","game":"Team Fortress","app_id":440,"player_count":0,"max_players":24,"Bots":0,"server_type":"Dedicated","server_os":"Linux","password":true,"vac":true,"version":"7961495","steam_id":85568392925397856,"keywords":["cp","nocrits","nodmgspread","uncletopia"],"game_id":440,"stv_port":27066,"stv_name":"Uncletopia | Warsaw | 6 | Community | STV","players":null}]}