{"status":true,"message":"","result":[{"server_id":9,"name":"Uncletopia | Atlanta | 1 | All Maps","name_short":"atl-1","host":"atl-1.us.uncletopia.com","port":27015,"enabled":true,"region":"us-east","cc":"us","latitude":33.753746,"longitude":-84.38633,"reserved":0,"last_update":"0001-01-01T00:00:00Z","name_a2s":"Uncletopia | Atlanta | 1 | All Maps","protocol":17,"map":"koth_cascade","folder":"tf","game":"Team Fortress","app_id":440,"player_count":0,"max_players":24,"Bots":0,"server_type":"Dedicated","server_os":"Linux","password":true,"vac":true,"version":"7757534","steam_id":85568392924469982,"keywords":["cp","nocrits","nodmgspread","uncletopia"],"game_id":440,"stv_port":27016,"stv_name":"Uncletopia | Atlanta | 1 | All Maps | STV","players":null},{"server_id":400,"name":"Uncletopia | Atlanta | 3 | Stopwatch Beta","name_short":"atl-3","host":"atl-1.us.uncletopia.com","port":27035,"enabled":true,"region":"us-east","cc":"us","latitude":33.753746,"longitude":-84.38633,"reserved":0,"last_update":"0001-01-01T00:00:00Z","name_a2s":"Uncletopia | Atlanta | 3 | Stopwatch Beta","protocol":17,"map":"pl_upward","folder":"tf","game":"Team Fortress","app_id":440,"player_count":0,"max_players":24,"Bots":0,"server_type":"Dedicated","server_os":"Linux","password":true,"vac":true,"version":"7757534","steam_id":85568392924515187,"keywords":["nocrits","nodmgspread","payload","uncletopia"],"game_id":440,"stv_port":27036,"stv_name":"Uncletopia | Atlanta | 3 | Stopwatch Beta | STV","players":null},{"server_id":401,"name":"Uncletopia | Atlanta | 4 | No Payload","name_short":"atl-4","host":"atl-1.us.uncletopia.com","port":27045,"enabled":true,"region":"us-east","cc":"us","latitude":33.753746,"longitude":-84.38633,"reserved":0,"last_update":"0001-01-01T00:00:00Z","name_a2s":"Uncletopia | Atlanta | 4 | No Payload","protocol":17,"map":"pl_pier","folder":"tf","game":"Team Fortress","app_id":440,"player_count":0,"max_players":24,"Bots":0,"server_type":"Dedicated","server_os":"Linux","password":true,"vac":true,"version":"7723704","steam_id":85568392924515188,"keywords":["nocrits","nodmgspread","payload","uncletopia"],"game_id":440,"stv_port":27046,"stv_name":"Uncletopia | Atlanta | 4 | No Payload | STV","players":null},{"server_id":2,"name":"Uncletopia | Chicago | 1 | All Maps","name_short":"chi-1","host":"chi-1.us.uncletopia.com","port":27015,"enabled":true,"region":"us-central","cc":"us","latitude":41.881832,"longitude":-87.62318,"reserved":0,"last_update":"0001-01-01T00:00:00Z","name_a2s":"Uncletopia | Chicago | 1 | All Maps","protocol":17,"map":"pl_frontier_final","folder":"tf","game":"Team Fortress","app_id":440,"player_count":24,"max_players":24,"Bots":0,"server_type":"Dedicated","server_os":"Linux","password":true,"vac":true,"version":"7757534","steam_id":85568392924469984,"keywords":["nocrits","nodmgspread","payload","uncletopia"],"game_id":440,"stv_port":27016,"stv_name":"Uncletopia | Chicago | 1 | All Maps | STV","players":[{"user_id":647,"name":"RED1 | eish","steam_id":76561198089463603,"connected_time":1138000000000,"state":"active","ping":130},{"user_id":637,"name":"CheeseCake488","steam_id":76561199407617942,"connected_time":2138000000000,"state":"active","ping":130},{"user_id":642,"name":"sniffren","steam_id":76561198275255164,"connected_time":1452000000000,"state":"active","ping":59},{"user_id":611,"name":"Morgster","steam_id":76561198131697761,"connected_time":4336000000000,"state":"active","ping":87},{"user_id":609,"name":"The Land Admiral","steam_id":76561198159356609,"connected_time":4856000000000,"state":"active","ping":76},{"user_id":648,"name":"RED1 | nomad","steam_id":76561197998740399,"connected_time":1113000000000,"state":"active","ping":61},{"user_id":644,"name":"Female Gamer","steam_id":76561199366482682,"connected_time":1330000000000,"state":"active","ping":107},{"user_id":645,"name":"None of that $9.99 bullshit","steam_id":76561198116169903,"connected_time":1250000000000,"state":"active","ping":45},{"user_id":614,"name":"turt","steam_id":76561198260892128,"connected_time":4308000000000,"state":"active","ping":44},{"user_id":627,"name":"TrainTheSizeOfTheChryslerBuildi","steam_id":76561198053730310,"connected_time":2775000000000,"state":"active","ping":75},{"user_id":653,"name":"larguu","steam_id":76561197994336210,"connected_time":563000000000,"state":"active","ping":47},{"user_id":557,"name":"Fuegan Ra","steam_id":76561198287923849,"connected_time":9096000000000,"state":"active","ping":51},{"user_id":617,"name":"Dispenser (Twan)","steam_id":76561197991064908,"connected_time":4246000000000,"state":"active","ping":63},{"user_id":636,"name":"PaintMyMeow","steam_id":76561198056860387,"connected_time":2274000000000,"state":"active","ping":71},{"user_id":629,"name":"Quandale Dingle","steam_id":76561198055068244,"connected_time":2767000000000,"state":"active","ping":63},{"user_id":646,"name":"ScoutBox","steam_id":76561198111539895,"connected_time":1222000000000,"state":"active","ping":93},{"user_id":649,"name":"LasagnaLary","steam_id":76561198051016438,"connected_time":1063000000000,"state":"active","ping":78},{"user_id":643,"name":"üéÑAndreaJinglingüéÑ","steam_id":76561198198658783,"connected_time":1409000000000,"state":"active","ping":103},{"user_id":606,"name":"Mothership","steam_id":76561198044029501,"connected_time":5102000000000,"state":"active","ping":150},{"user_id":633,"name":"Sir Galahad","steam_id":76561198195999859,"connected_time":2570000000000,"state":"active","ping":113},{"user_id":623,"name":"crow","steam_id":76561198046802071,"connected_time":2911000000000,"state":"active","ping":60},{"user_id":631,"name":"177013","steam_id":76561198072303290,"connected_time":2682000000000,"state":"active","ping":66},{"user_id":635,"name":"PintoVero","steam_id":76561198088369252,"connected_time":2427000000000,"state":"active","ping":63},{"user_id":652,"name":"mossy_woods","steam_id":76561198284350370,"connected_time":606000000000,"state":"active","ping":69}]},{"server_id":106,"name":"Uncletopia | Chicago | 2 | All Maps","name_short":"chi-2","host":"chi-1.us.uncletopia.com","port":27025,"enabled":true,"region":"us-central","cc":"us","latitude":41.881832,"longitude":-87.62318,"reserved":0,"last_update":"0001-01-01T00:00:00Z","name_a2s":"Uncletopia | Chicago | 2 | All Maps","protocol":17,"map":"cp_sunshine","folder":"tf","game":"Team Fortress","app_id":440,"player_count":24,"max_players":24,"Bots":0,"server_type":"Dedicated","server_os":"Linux","password":true,"vac":true,"version":"7757534","steam_id":85568392924469985,"keywords":["cp","nocrits","nodmgspread","uncletopia"],"game_id":440,"stv_port":27026,"stv_name":"Uncletopia | Chicago | 2 | All Maps | STV","players":[{"user_id":754,"name":"Kol","steam_id":76561199151398882,"connected_time":735000000000,"state":"active","ping":90},{"user_id":755,"name":"twitch.tv/Yoshi21 | TF2Pugs.com","steam_id":76561198002516729,"connected_time":672000000000,"state":"active","ping":71},{"user_id":758,"name":"Rascalpants08","steam_id":76561199095535317,"connected_time":435000000000,"state":"active","ping":175},{"user_id":690,"name":"SSBM Pelican","steam_id":76561198040697907,"connected_time":5592000000000,"state":"active","ping":72},{"user_id":699,"name":"number 4","steam_id":76561198066867150,"connected_time":5279000000000,"state":"active","ping":67},{"user_id":692,"name":"Soap Man","steam_id":76561198000490235,"connected_time":5583000000000,"state":"active","ping":118},{"user_id":735,"name":"OddSlaush","steam_id":76561198043898488,"connected_time":1808000000000,"state":"active","ping":104},{"user_id":762,"name":"About That Beer I Owed Ya","steam_id":76561198071506287,"connected_time":30000000000,"state":"active","ping":99},{"user_id":736,"name":"earl","steam_id":76561198089094470,"connected_time":1639000000000,"state":"active","ping":74},{"user_id":737,"name":"habib_g6ix_God","steam_id":76561198053621664,"connected_time":1625000000000,"state":"active","ping":46},{"user_id":750,"name":"moe5x","steam_id":76561198316877833,"connected_time":981000000000,"state":"active","ping":97},{"user_id":732,"name":"m o ss","steam_id":76561198061341744,"connected_time":1943000000000,"state":"active","ping":94},{"user_id":756,"name":"FAC","steam_id":76561198009818412,"connected_time":664000000000,"state":"active","ping":75},{"user_id":743,"name":"Moffein","steam_id":76561198016739296,"connected_time":1474000000000,"state":"active","ping":93},{"user_id":686,"name":"ghor","steam_id":76561197994547132,"connected_time":5755000000000,"state":"active","ping":77},{"user_id":751,"name":"Tenebane Gold","steam_id":76561198144971150,"connected_time":953000000000,"state":"active","ping":97},{"user_id":760,"name":"-BRH- Tangled up in Bluegrass","steam_id":76561197987181139,"connected_time":119000000000,"state":"active","ping":67},{"user_id":707,"name":"gettysburg","steam_id":76561198016157051,"connected_time":3542000000000,"state":"active","ping":74},{"user_id":742,"name":"The Sophons","steam_id":76561199386992993,"connected_time":1525000000000,"state":"active","ping":94},{"user_id":698,"name":"Inspecteur Spie","steam_id":76561198082825407,"connected_time":5549000000000,"state":"active","ping":87},{"user_id":700,"name":"years","steam_id":76561197994098627,"connected_time":4958000000000,"state":"active","ping":117},{"user_id":722,"name":"Thirty Thirty","steam_id":76561197987242808,"connected_time":2841000000000,"state":"active","ping":87},{"user_id":753,"name":"sAven","steam_id":76561198139343389,"connected_time":928000000000,"state":"active","ping":48},{"user_id":761,"name":"admiralmonk","steam_id":76561198845021470,"connected_time":114000000000,"state":"active","ping":55}]},{"server_id":402,"name":"Uncletopia | Chicago | 3 | All Maps","name_short":"chi-3","host":"chi-1.us.uncletopia.com","port":27035,"enabled":true,"region":"us-central","cc":"us","latitude":41.881832,"longitude":-87.62318,"reserved":0,"last_update":"0001-01-01T00:00:00Z","name_a2s":"Uncletopia | Chicago | 3 | All Maps","protocol":17,"map":"pl_frontier_final","folder":"tf","game":"Team Fortress","app_id":440,"player_count":4,"max_players":24,"Bots":0,"server_type":"Dedicated","server_os":"Linux","password":true,"vac":true,"version":"7757534","steam_id":85568392924515191,"keywords":["nocrits","nodmgspread","payload","uncletopia"],"game_id":440,"stv_port":27036,"stv_name":"Uncletopia | Chicago | 3 | All Maps | STV","players":[{"user_id":596,"name":"Kaydiegamer53","steam_id":76561199223474934,"connected_time":2038000000000,"state":"active","ping":345},{"user_id":601,"name":"∆µeitgeist","steam_id":76561198450625287,"connected_time":1450000000000,"state":"active","ping":89},{"user_id":603,"name":"reecenodrog","steam_id":76561199223970983,"connected_time":1179000000000,"state":"active","ping":347},{"user_id":605,"name":"pudl","steam_id":76561198043726592,"connected_time":718000000000,"state":"active","ping":63}]},{"server_id":403,"name":"Uncletopia | Chicago | 4 | All Maps","name_short":"chi-4","host":"chi-1.us.uncletopia.com","port":27045,"enabled":true,"region":"us-central","cc":"us","latitude":41.881832,"longitude":-87.62318,"reserved":0,"last_update":"0001-01-01T00:00:00Z","name_a2s":"Uncletopia | Chicago | 4 | All Maps","protocol":17,"map":"koth_highpass","folder":"tf","game":"Team Fortress","app_id":440,"player_count":0,"max_players":24,"Bots":0,"server_type":"Dedicated","server_os":"Linux","password":true,"vac":true,"version":"7757534","steam_id":85568392924515193,"keywords":["cp","nocrits","nodmgspread","uncletopia"],"game_id":440,"stv_port":27046,"stv_name":"Uncletopia | Chicago | 4 | All Maps | STV","players":null},{"server_id":36,"name":"Uncletopia | Chicago | 5 | All Maps","name_short":"chi-5","host":"chi-2.us.uncletopia.com","port":27015,"enabled":true,"region":"us-central","cc":"us","latitude":41.881832,"longitude":-87.62318,"reserved":0,"last_update":"0001-01-01T00:00:00Z","name_a2s":"Uncletopia | Chicago | 5 | All Maps","protocol":17,"map":"pl_snowycoast","folder":"tf","game":"Team Fortress","app_id":440,"player_count":0,"max_players":24,"Bots":0,"server_type":"Dedicated","server_os":"Linux","password":true,"vac":true,"version":"7757534","steam_id":85568392924866362,"keywords":["nocrits","nodmgspread","payload","uncletopia"],"game_id":440,"stv_port":27016,"stv_name":"Uncletopia | Chicago | 5 | All Maps | STV","players":null},{"server_id":37,"name":"Uncletopia | Chicago | 6 | All Maps","name_short":"chi-6","host":"chi-2.us.uncletopia.com","port":27025,"enabled":true,"region":"us-central","cc":"us","latitude":41.881832,"longitude":-87.62318,"reserved":0,"last_update":"0001-01-01T00:00:00Z","name_a2s":"Uncletopia | Chicago | 6 | All Maps","protocol":17,"map":"koth_harvest_final","folder":"tf","game":"Team Fortress","app_id":440,"player_count":0,"max_players":24,"Bots":0,"server_type":"Dedicated","server_os":"Linux","password":true,"vac":true,"version":"7757534","steam_id":85568392924866363,"keywords":["cp","nocrits","nodmgspread","uncletopia"],"game_id":440,"stv_port":27026,"stv_name":"Uncletopia | Chicago | 6 | All Maps | STV","players":null},{"server_id":38,"name":"Uncletopia | Chicago | 7 | Stopwatch Beta","name_short":"chi-7","host":"chi-2.us.uncletopia.com","port":27035,"enabled":true,"region":"us-central","cc":"us","latitude":41.881832,"longitude":-87.62318,"reserved":0,"last_update":"0001-01-01T00:00:00Z","name_a2s":"Uncletopia | Chicago | 7 | Stopwatch Beta","protocol":17,"map":"workshop/koth_clearcut_b15.ugc2107050255","folder":"tf","game":"Team Fortress","app_id":440,"player_count":0,"max_players":24,"Bots":0,"server_type":"Dedicated","server_os":"Linux","password":true,"vac":true,"version":"7757534","steam_id":85568392924866364,"keywords":["cp","nocrits","nodmgspread","uncletopia"],"game_id":440,"stv_port":27036,"stv_name":"Uncletopia | Chicago | 7 | Stopwatch Beta | STV","players":null},{"server_id":39,"name":"Uncletopia | Chicago | 8 | Community","name_short":"chi-8","host":"chi-2.us.uncletopia.com","port":27045,"enabled":true,"region":"us-central","cc":"us","latitude":41.881832,"longitude":-87.62318,"reserved":0,"last_update":"0001-01-01T00:00:00Z","name_a2s":"Uncletopia | Chicago | 8 | Community","protocol":17,"map":"workshop/koth_slaughter_rc1.ugc1712845210","folder":"tf","game":"Team Fortress","app_id":440,"player_count":0,"max_players":24,"Bots":0,"server_type":"Dedicated","server_os":"Linux","password":true,"vac":true,"version":"7757534","steam_id":85568392924866365,"keywords":["cp","nocrits","nodmgspread","uncletopia"],"game_id":440,"stv_port":27046,"stv_name":"Uncletopia | Chicago | 8 | Community | STV","players":null},{"server_id":8,"name":"Uncletopia | Dallas | 1 | All Maps","name_short":"dal-1","host":"dal-1.us.uncletopia.com","port":27015,"enabled":true,"region":"us-central","cc":"us","latitude":32.779167,"longitude":-96.80889,"reserved":0,"last_update":"0001-01-01T00:00:00Z","name_a2s":"Uncletopia | Dallas | 1 | All Maps","protocol":17,"map":"koth_viaduct","folder":"tf","game":"Team Fortress","app_id":440,"player_count":19,"max_players":24,"Bots":0,"server_type":"Dedicated","server_os":"Linux","password":true,"vac":true,"version":"7757534","steam_id":85568392924469986,"keywords":["cp","nocrits","nodmgspread","uncletopia"],"game_id":440,"stv_port":27016,"stv_name":"Uncletopia | Dallas | 1 | All Maps | STV","players":[{"user_id":787,"name":"Kizer","steam_id":76561198929268987,"connected_time":2400000000000,"state":"active","ping":53},{"user_id":823,"name":"Tomoscones","steam_id":76561198813586588,"connected_time":65000000000,"state":"active","ping":92},{"user_id":782,"name":"Koishi","steam_id":76561198054541054,"connected_time":2708000000000,"state":"active","ping":75},{"user_id":813,"name":"Femgineer Gaming","steam_id":76561199193786567,"connected_time":619000000000,"state":"active","ping":88},{"user_id":783,"name":"femmescout","steam_id":76561198250928638,"connected_time":2638000000000,"state":"active","ping":70},{"user_id":816,"name":"eryn üó∫","steam_id":76561198004433070,"connected_time":443000000000,"state":"active","ping":56},{"user_id":795,"name":"Insert_Name_Here","steam_id":76561198089428414,"connected_time":1887000000000,"state":"active","ping":74},{"user_id":819,"name":"bred","steam_id":76561198063116981,"connected_time":270000000000,"state":"active","ping":45},{"user_id":817,"name":"cilo","steam_id":76561198046163502,"connected_time":387000000000,"state":"active","ping":53},{"user_id":821,"name":"Inadequate","steam_id":76561198108263810,"connected_time":228000000000,"state":"active","ping":120},{"user_id":822,"name":"p1ckl","steam_id":76561198152818418,"connected_time":173000000000,"state":"active","ping":59},{"user_id":772,"name":"JaxiiRuff","steam_id":76561198093614882,"connected_time":4046000000000,"state":"active","ping":74},{"user_id":798,"name":"Wise","steam_id":76561198080173101,"connected_time":1694000000000,"state":"active","ping":73},{"user_id":811,"name":"teatimesukka","steam_id":76561198978749594,"connected_time":841000000000,"state":"active","ping":31},{"user_id":790,"name":"Carls Jr","steam_id":76561198047221624,"connected_time":2257000000000,"state":"active","ping":90},{"user_id":803,"name":"NoNoWire","steam_id":76561198106308056,"connected_time":1322000000000,"state":"active","ping":75},{"user_id":809,"name":"Shortbane","steam_id":76561198247166584,"connected_time":959000000000,"state":"active","ping":56},{"user_id":807,"name":"Farseer Ulwithy","steam_id":76561197965179245,"connected_time":1157000000000,"state":"active","ping":102},{"user_id":814,"name":"btd iaam sgaem","steam_id":76561199162343810,"connected_time":610000000000,"state":"active","ping":59}]},{"server_id":108,"name":"Uncletopia | Dallas | 2 | All Maps","name_short":"dal-2","host":"dal-1.us.uncletopia.com","port":27025,"enabled":true,"region":"us-central","cc":"us","latitude":32.779167,"longitude":-96.80889,"reserved":0,"last_update":"0001-01-01T00:00:00Z","name_a2s":"Uncletopia | Dallas | 2 | All Maps","protocol":17,"map":"cp_dustbowl","folder":"tf","game":"Team Fortress","app_id":440,"player_count":0,"max_players":24,"Bots":0,"server_type":"Dedicated","server_os":"Linux","password":true,"vac":true,"version":"7757534","steam_id":85568392924469988,"keywords":["cp","nocrits","nodmgspread","uncletopia"],"game_id":440,"stv_port":27026,"stv_name":"Uncletopia | Dallas | 2 | All Maps | STV","players":null},{"server_id":5,"name":"Uncletopia | Frankfurt | 1 | All Maps","name_short":"frk-1","host":"frk-1.de.uncletopia.com","port":27015,"enabled":true,"region":"eu","cc":"de","latitude":50.110924,"longitude":8.682127,"reserved":0,"last_update":"0001-01-01T00:00:00Z","name_a2s":"Uncletopia | Frankfurt | 1 | All Maps","protocol":17,"map":"koth_lakeside_final","folder":"tf","game":"Team Fortress","app_id":440,"player_count":0,"max_players":24,"Bots":0,"server_type":"Dedicated","server_os":"Linux","password":true,"vac":true,"version":"7757534","steam_id":85568392924469989,"keywords":["cp","nocrits","nodmgspread","uncletopia"],"game_id":440,"stv_port":27016,"stv_name":"Uncletopia | Frankfurt | 1 | All Maps | STV","players":null},{"server_id":110,"name":"Uncletopia | Frankfurt | 2 | All Maps","name_short":"frk-2","host":"frk-1.de.uncletopia.com","port":27025,"enabled":true,"region":"eu","cc":"de","latitude":50.110924,"longitude":8.682127,"reserved":0,"last_update":"0001-01-01T00:00:00Z","name_a2s":"Uncletopia | Frankfurt | 2 | All Maps","protocol":17,"map":"cp_altitude","folder":"tf","game":"Team Fortress","app_id":440,"player_count":0,"max_players":24,"Bots":0,"server_type":"Dedicated","server_os":"Linux","password":true,"vac":true,"version":"7757534","steam_id":85568392924469990,"keywords":["cp","nocrits","nodmgspread","uncletopia"],"game_id":440,"stv_port":27026,"stv_name":"Uncletopia | Frankfurt | 2 | All Maps | STV","players":null},{"server_id":308,"name":"Uncletopia | Frankfurt | 3 | All Maps","name_short":"frk-3","host":"frk-1.de.uncletopia.com","port":27035,"enabled":true,"region":"eu","cc":"de","latitude":50.110924,"longitude":8.682127,"reserved":0,"last_update":"0001-01-01T00:00:00Z","name_a2s":"Uncletopia | Frankfurt | 3 | All Maps","protocol":17,"map":"pl_barnblitz","folder":"tf","game":"Team Fortress","app_id":440,"player_count":0,"max_players":24,"Bots":0,"server_type":"Dedicated","server_os":"Linux","password":true,"vac":true,"version":"7757534","steam_id":85568392924504274,"keywords":["nocrits","nodmgspread","payload","uncletopia"],"game_id":440,"stv_port":27036,"stv_name":"Uncletopia | Frankfurt | 3 | All Maps | STV","players":null},{"server_id":309,"name":"Uncletopia | Frankfurt | 4 | All Maps","name_short":"frk-4","host":"frk-1.de.uncletopia.com","port":27045,"enabled":true,"region":"eu","cc":"de","latitude":50.110924,"longitude":8.682127,"reserved":0,"last_update":"0001-01-01T00:00:00Z","name_a2s":"Uncletopia | Frankfurt | 4 | All Maps","protocol":17,"map":"pl_snowycoast","folder":"tf","game":"Team Fortress","app_id":440,"player_count":0,"max_players":24,"Bots":0,"server_type":"Dedicated","server_os":"Linux","password":true,"vac":true,"version":"7757534","steam_id":85568392924504275,"keywords":["nocrits","nodmgspread","payload","uncletopia"],"game_id":440,"stv_port":27046,"stv_name":"Uncletopia | Frankfurt | 4 | All Maps | STV","players":null},{"server_id":310,"name":"Uncletopia | Frankfurt | 5 | All Maps","name_short":"frk-5","host":"frk-1.de.uncletopia.com","port":27055,"enabled":true,"region":"eu","cc":"de","latitude":50.110924,"longitude":8.682127,"reserved":0,"last_update":"0001-01-01T00:00:00Z","name_a2s":"Uncletopia | Frankfurt | 5 | All Maps","protocol":17,"map":"pl_snowycoast","folder":"tf","game":"Team Fortress","app_id":440,"player_count":0,"max_players":24,"Bots":0,"server_type":"Dedicated","server_os":"Linux","password":true,"vac":true,"version":"7757534","steam_id":85568392924504277,"keywords":["nocrits","nodmgspread","payload","uncletopia"],"game_id":440,"stv_port":27056,"stv_name":"Uncletopia | Frankfurt | 5 | All Maps | STV","players":null},{"server_id":311,"name":"Uncletopia | Frankfurt | 6 | All Maps","name_short":"frk-6","host":"frk-1.de.uncletopia.com","port":27065,"enabled":true,"region":"eu","cc":"de","latitude":50.110924,"longitude":8.682127,"reserved":0,"last_update":"0001-01-01T00:00:00Z","name_a2s":"Uncletopia | Frankfurt | 6 | All Maps","protocol":17,"map":"koth_highpass","folder":"tf","game":"Team Fortress","app_id":440,"player_count":0,"max_players":24,"Bots":0,"server_type":"Dedicated","server_os":"Linux","password":true,"vac":true,"version":"7757534","steam_id":85568392924504278,"keywords":["cp","nocrits","nodmgspread","uncletopia"],"game_id":440,"stv_port":27066,"stv_name":"Uncletopia | Frankfurt | 6 | All Maps | STV","players":null},{"server_id":23,"name":"Uncletopia | Frankfurt | 7 | Stopwatch Beta","name_short":"frk-7","host":"frk-1.de.uncletopia.com","port":27075,"enabled":true,"region":"eu","cc":"de","latitude":50.110924,"longitude":8.682127,"reserved":0,"last_update":"0001-01-01T00:00:00Z","name_a2s":"Uncletopia | Frankfurt | 7 | Stopwatch Beta","protocol":17,"map":"pl_borneo","folder":"tf","game":"Team Fortress","app_id":440,"player_count":0,"max_players":24,"Bots":0,"server_type":"Dedicated","server_os":"Linux","password":true,"vac":true,"version":"7757534","steam_id":85568392924742827,"keywords":["nocrits","nodmgspread","payload","uncletopia"],"game_id":440,"stv_port":27076,"stv_name":"Uncletopia | Frankfurt | 7 | Stopwatch Beta | STV","players":null},{"server_id":24,"name":"Uncletopia | Frankfurt | 8 | Community","name_short":"frk-8","host":"frk-1.de.uncletopia.com","port":27085,"enabled":true,"region":"eu","cc":"de","latitude":50.110924,"longitude":8.682127,"reserved":0,"last_update":"0001-01-01T00:00:00Z","name_a2s":"Uncletopia | Frankfurt | 8 | Community","protocol":17,"map":"koth_cascade","folder":"tf","game":"Team Fortress","app_id":440,"player_count":0,"max_players":24,"Bots":0,"server_type":"Dedicated","server_os":"Linux","password":true,"vac":true,"version":"7757534","steam_id":85568392924742828,"keywords":["cp","nocrits","nodmgspread","uncletopia"],"game_id":440,"stv_port":27086,"stv_name":"Uncletopia | Frankfurt | 8 | Community | STV","players":null},{"server_id":202,"name":"Uncletopia | Hong Kong | 1 | All Maps","name_short":"hgk-1","host":"hgk-1.hk.uncletopia.com","port":27015,"enabled":true,"region":"asia","cc":"hk","latitude":22.302711,"longitude":114.177216,"reserved":0,"last_update":"0001-01-01T00:00:00Z","name_a2s":"Uncletopia | Hong Kong | 1 | All Maps","protocol":17,"map":"pl_upward","folder":"tf","game":"Team Fortress","app_id":440,"player_count":24,"max_players":24,"Bots":0,"server_type":"Dedicated","server_os":"Linux","password":true,"vac":true,"version":"7757534","steam_id":85568392924494504,"keywords":["nocrits","nodmgspread","payload","uncletopia"],"game_id":440,"stv_port":27016,"stv_name":"Uncletopia | Hong Kong | 1 | All Maps | STV","players":[{"user_id":77,"name":"aisha","steam_id":76561198132172320,"connected_time":2289000000000,"state":"active","ping":76},{"user_id":106,"name":"ben dover","steam_id":76561199086337830,"connected_time":769000000000,"state":"active","ping":120},{"user_id":78,"name":"Tet","steam_id":76561198253488438,"connected_time":2215000000000,"state":"active","ping":74},{"user_id":114,"name":"r","steam_id":76561198811024417,"connected_time":381000000000,"state":"active","ping":101},{"user_id":54,"name":"timmy.1366","steam_id":76561199065433547,"connected_time":4238000000000,"state":"active","ping":76},{"user_id":110,"name":"Spy 1234","steam_id":76561199194355890,"connected_time":652000000000,"state":"active","ping":121},{"user_id":86,"name":"Little Booty Ham Sandwich","steam_id":76561198362063768,"connected_time":1640000000000,"state":"active","ping":54},{"user_id":49,"name":"Shades on Goggles","steam_id":76561198406067629,"connected_time":4959000000000,"state":"active","ping":59},{"user_id":97,"name":"CaptainBozo","steam_id":76561199151959977,"connected_time":1017000000000,"state":"active","ping":58},{"user_id":102,"name":"chaechae","steam_id":76561198240627872,"connected_time":888000000000,"state":"active","ping":53},{"user_id":95,"name":"Medi","steam_id":76561198447470800,"connected_time":1261000000000,"state":"active","ping":118},{"user_id":89,"name":"Shienn__","steam_id":76561199174019837,"connected_time":1556000000000,"state":"active","ping":99},{"user_id":115,"name":"Saggle","steam_id":76561198056075147,"connected_time":176000000000,"state":"active","ping":162},{"user_id":116,"name":"Puddin","steam_id":76561198140052918,"connected_time":165000000000,"state":"active","ping":88},{"user_id":84,"name":"Water Weed Dune Hair","steam_id":76561198090087072,"connected_time":1726000000000,"state":"active","ping":117},{"user_id":98,"name":"Iori","steam_id":76561199011690678,"connected_time":977000000000,"state":"active","ping":77},{"user_id":111,"name":"3wfFbdrjEze5d2G","steam_id":76561198435900451,"connected_time":630000000000,"state":"active","ping":120},{"user_id":96,"name":"im_0ff","steam_id":76561198339346695,"connected_time":1253000000000,"state":"active","ping":136},{"user_id":103,"name":"Rudy","steam_id":76561198089227368,"connected_time":869000000000,"state":"active","ping":173},{"user_id":104,"name":"Noyour","steam_id":76561198323259830,"connected_time":847000000000,"state":"active","ping":129},{"user_id":105,"name":"Loid forgor","steam_id":76561198811532659,"connected_time":839000000000,"state":"active","ping":98},{"user_id":107,"name":"Â∏ï","steam_id":76561198439343999,"connected_time":688000000000,"state":"active","ping":81},{"user_id":112,"name":"lime","steam_id":76561198367981056,"connected_time":533000000000,"state":"active","ping":44},{"user_id":113,"name":"Niko","steam_id":76561199012153683,"connected_time":500000000000,"state":"active","ping":63}]},{"server_id":1,"name":"Uncletopia | Los Angeles | 1 | All Maps","name_short":"lax-1","host":"lax-1.us.uncletopia.com","port":27015,"enabled":true,"region":"us-west","cc":"us","latitude":33.94279,"longitude":-118.41004,"reserved":0,"last_update":"0001-01-01T00:00:00Z","name_a2s":"Uncletopia | Los Angeles | 1 | All Maps","protocol":17,"map":"cp_dustbowl","folder":"tf","game":"Team Fortress","app_id":440,"player_count":23,"max_players":24,"Bots":0,"server_type":"Dedicated","server_os":"Linux","password":true,"vac":true,"version":"7757534","steam_id":85568392924469991,"keywords":["cp","nocrits","nodmgspread","uncletopia"],"game_id":440,"stv_port":27016,"stv_name":"Uncletopia | Los Angeles | 1 | All Maps | STV","players":[{"user_id":379,"name":"MinusSoup918","steam_id":76561198060902773,"connected_time":2690000000000,"state":"active","ping":66},{"user_id":416,"name":"Red Orbama","steam_id":76561198047002366,"connected_time":644000000000,"state":"active","ping":74},{"user_id":380,"name":"Squatter1","steam_id":76561198078987734,"connected_time":2688000000000,"state":"active","ping":69},{"user_id":357,"name":"bo scrungulus","steam_id":76561198038036122,"connected_time":3985000000000,"state":"active","ping":76},{"user_id":409,"name":"Fake21","steam_id":76561198282065071,"connected_time":1391000000000,"state":"active","ping":76},{"user_id":383,"name":"PonYOOOOOOO","steam_id":76561199067424111,"connected_time":2590000000000,"state":"active","ping":73},{"user_id":382,"name":"LX-24","steam_id":76561198016168993,"connected_time":2665000000000,"state":"active","ping":84},{"user_id":385,"name":"fulices","steam_id":76561198420163702,"connected_time":2531000000000,"state":"active","ping":33},{"user_id":386,"name":"soda heater","steam_id":76561198864545608,"connected_time":2503000000000,"state":"active","ping":70},{"user_id":397,"name":"Erikp0521","steam_id":76561198055648171,"connected_time":2156000000000,"state":"active","ping":65},{"user_id":404,"name":"Lamy","steam_id":76561198348354629,"connected_time":1615000000000,"state":"active","ping":41},{"user_id":368,"name":"NotAWeeb","steam_id":76561198165530739,"connected_time":3165000000000,"state":"active","ping":54},{"user_id":410,"name":"ice cream (ÂÜ∞Ê∑áÊ∑ã)","steam_id":76561198976530881,"connected_time":1199000000000,"state":"active","ping":37},{"user_id":373,"name":"matto1120","steam_id":76561198201321499,"connected_time":2993000000000,"state":"active","ping":59},{"user_id":419,"name":"Seklen","steam_id":76561198368882824,"connected_time":314000000000,"state":"active","ping":45},{"user_id":414,"name":"Matty the Baby Sloth","steam_id":76561198130993937,"connected_time":903000000000,"state":"active","ping":50},{"user_id":376,"name":"NainPorteQuoi","steam_id":76561198188023797,"connected_time":2921000000000,"state":"active","ping":117},{"user_id":375,"name":"glitchy","steam_id":76561199009135766,"connected_time":2942000000000,"state":"active","ping":90},{"user_id":320,"name":"Filthy Hobo","steam_id":76561198174373015,"connected_time":5853000000000,"state":"active","ping":144},{"user_id":412,"name":"sweaterfan","steam_id":76561199389567214,"connected_time":1020000000000,"state":"active","ping":99},{"user_id":407,"name":"ETERNAL DRAIN","steam_id":76561198388123421,"connected_time":1520000000000,"state":"active","ping":53},{"user_id":396,"name":"Dredgen_Doom","steam_id":76561198084015610,"connected_time":2174000000000,"state":"active","ping":65},{"user_id":413,"name":"unnamed","steam_id":76561198072200952,"connected_time":1007000000000,"state":"active","ping":58}]},{"server_id":112,"name":"Uncletopia | Los Angeles | 2 | All Maps","name_short":"lax-2","host":"lax-1.us.uncletopia.com","port":27025,"enabled":true,"region":"us-west","cc":"us","latitude":33.94279,"longitude":-118.41004,"reserved":0,"last_update":"0001-01-01T00:00:00Z","name_a2s":"Uncletopia | Los Angeles | 2 | All Maps","protocol":17,"map":"pl_frontier_final","folder":"tf","game":"Team Fortress","app_id":440,"player_count":0,"max_players":24,"Bots":0,"server_type":"Dedicated","server_os":"Linux","password":true,"vac":true,"version":"7757534","steam_id":85568392924469992,"keywords":["nocrits","nodmgspread","payload","uncletopia"],"game_id":440,"stv_port":27026,"stv_name":"Uncletopia | Los Angeles | 2 | All Maps | STV","players":null},{"server_id":324,"name":"Uncletopia | Los Angeles | 3 | All Maps","name_short":"lax-3","host":"lax-1.us.uncletopia.com","port":27035,"enabled":true,"region":"us-west","cc":"us","latitude":33.94279,"longitude":-118.41004,"reserved":0,"last_update":"0001-01-01T00:00:00Z","name_a2s":"Uncletopia | Los Angeles | 3 | All Maps","protocol":17,"map":"cp_sunshine","folder":"tf","game":"Team Fortress","app_id":440,"player_count":0,"max_players":24,"Bots":0,"server_type":"Dedicated","server_os":"Linux","password":true,"vac":true,"version":"7757534","steam_id":85568392924510198,"keywords":["cp","nocrits","nodmgspread","uncletopia"],"game_id":440,"stv_port":27036,"stv_name":"Uncletopia | Los Angeles | 3 | All Maps | STV","players":null},{"server_id":25,"name":"Uncletopia | Los Angeles | 4 | Stopwatch Beta","name_short":"lax-4","host":"lax-1.us.uncletopia.com","port":27045,"enabled":true,"region":"us-west","cc":"us","latitude":33.94279,"longitude":-118.41004,"reserved":0,"last_update":"0001-01-01T00:00:00Z","name_a2s":"Uncletopia | Los Angeles | 4 | Stopwatch Beta","protocol":17,"map":"koth_viaduct","folder":"tf","game":"Team Fortress","app_id":440,"player_count":0,"max_players":24,"Bots":0,"server_type":"Dedicated","server_os":"Linux","password":true,"vac":true,"version":"7757534","steam_id":85568392924510199,"keywords":["cp","nocrits","nodmgspread","uncletopia"],"game_id":440,"stv_port":27046,"stv_name":"Uncletopia | Los Angeles | 4 | Stopwatch Beta | STV","players":null},{"server_id":11,"name":"Uncletopia | London | 1 | All Maps","name_short":"lon-1","host":"lon-1.uk.uncletopia.com","port":27015,"enabled":true,"region":"eu","cc":"gb","latitude":51.509865,"longitude":-0.118092,"reserved":0,"last_update":"0001-01-01T00:00:00Z","name_a2s":"Uncletopia | London | 1 | All Maps","protocol":17,"map":"pl_upward","folder":"tf","game":"Team Fortress","app_id":440,"player_count":21,"max_players":24,"Bots":0,"server_type":"Dedicated","server_os":"Linux","password":true,"vac":true,"version":"7757534","steam_id":85568392924367362,"keywords":["nocrits","nodmgspread","payload","uncletopia"],"game_id":440,"stv_port":27016,"stv_name":"Uncletopia | London | 1 | All Maps | STV","players":[{"user_id":150,"name":"Slug Warrior","steam_id":76561197996052704,"connected_time":481000000000,"state":"active","ping":133},{"user_id":137,"name":"RIFT","steam_id":76561198991622379,"connected_time":1280000000000,"state":"active","ping":39},{"user_id":153,"name":"FULL_HD","steam_id":76561199220624798,"connected_time":119000000000,"state":"active","ping":109},{"user_id":148,"name":"Making Coffee","steam_id":76561198138281039,"connected_time":762000000000,"state":"active","ping":70},{"user_id":141,"name":"FilipeLuk","steam_id":76561198150675438,"connected_time":1165000000000,"state":"active","ping":60},{"user_id":129,"name":"spy","steam_id":76561199053898447,"connected_time":1355000000000,"state":"active","ping":97},{"user_id":36,"name":"Crab communist","steam_id":76561198368339225,"connected_time":4508000000000,"state":"active","ping":109},{"user_id":124,"name":"BL√ÖHAJ","steam_id":76561199353672293,"connected_time":2347000000000,"state":"active","ping":51},{"user_id":13,"name":"wby","steam_id":76561198053650453,"connected_time":5869000000000,"state":"active","ping":75},{"user_id":127,"name":"Aimer","steam_id":76561198005935655,"connected_time":2263000000000,"state":"active","ping":100},{"user_id":130,"name":"rat performance","steam_id":76561198065854668,"connected_time":1355000000000,"state":"active","ping":86},{"user_id":45,"name":"snek","steam_id":76561198127212659,"connected_time":3804000000000,"state":"active","ping":94},{"user_id":47,"name":"Daoloth, Render of the Veils","steam_id":76561198115106008,"connected_time":3550000000000,"state":"active","ping":38},{"user_id":38,"name":"dx_xb","steam_id":76561198064878900,"connected_time":4469000000000,"state":"active","ping":74},{"user_id":147,"name":"SocialistBacon","steam_id":76561198055872267,"connected_time":800000000000,"state":"active","ping":91},{"user_id":51,"name":"sriracha..","steam_id":76561198005560221,"connected_time":3315000000000,"state":"active","ping":73},{"user_id":24,"name":"Sgreff","steam_id":76561198036304365,"connected_time":5809000000000,"state":"active","ping":45},{"user_id":144,"name":"Corpus Christi","steam_id":76561198417999443,"connected_time":992000000000,"state":"active","ping":104},{"user_id":146,"name":"Bob Freeman","steam_id":76561197998361163,"connected_time":900000000000,"state":"active","ping":44},{"user_id":133,"name":"Vilka1909","steam_id":76561198799979938,"connected_time":1336000000000,"state":"active","ping":108},{"user_id":123,"name":"Squishie","steam_id":76561198321025400,"connected_time":2406000000000,"state":"active","ping":46}]},{"server_id":114,"name":"Uncletopia | London | 2 | All Maps","name_short":"lon-2","host":"lon-1.uk.uncletopia.com","port":27025,"enabled":true,"region":"eu","cc":"gb","latitude":51.509865,"longitude":-0.118092,"reserved":0,"last_update":"0001-01-01T00:00:00Z","name_a2s":"Uncletopia | London | 2 | All Maps","protocol":17,"map":"cp_process_final","folder":"tf","game":"Team Fortress","app_id":440,"player_count":22,"max_players":24,"Bots":0,"server_type":"Dedicated","server_os":"Linux","password":true,"vac":true,"version":"7757534","steam_id":85568392924470941,"keywords":["cp","nocrits","nodmgspread","uncletopia"],"game_id":440,"stv_port":27026,"stv_name":"Uncletopia | London | 2 | All Maps | STV","players":[{"user_id":4,"name":"femboy gaming","steam_id":76561198199789938,"connected_time":3111000000000,"state":"active","ping":43},{"user_id":34,"name":"a black bishop from chess","steam_id":76561199226943577,"connected_time":666000000000,"state":"active","ping":52},{"user_id":45,"name":"Jimbo Woyevodsk","steam_id":76561198068766153,"connected_time":234000000000,"state":"active","ping":110},{"user_id":30,"name":"cagi_longdick+381","steam_id":76561198059806422,"connected_time":918000000000,"state":"active","ping":60},{"user_id":8,"name":"LuckyStar","steam_id":76561198126840092,"connected_time":2168000000000,"state":"active","ping":109},{"user_id":46,"name":"Ian","steam_id":76561198159334435,"connected_time":11000000000,"state":"spawning","ping":171},{"user_id":12,"name":"Sen4248","steam_id":76561198088573978,"connected_time":1827000000000,"state":"active","ping":66},{"user_id":17,"name":"antlionguard","steam_id":76561198072747143,"connected_time":1638000000000,"state":"active","ping":100},{"user_id":35,"name":"Lengard","steam_id":76561198094189180,"connected_time":607000000000,"state":"active","ping":105},{"user_id":37,"name":"raime","steam_id":76561198024903775,"connected_time":520000000000,"state":"active","ping":100},{"user_id":36,"name":"bigfutacock56","steam_id":76561198835619904,"connected_time":581000000000,"state":"active","ping":110},{"user_id":16,"name":"Zerfesh","steam_id":76561198117534358,"connected_time":1654000000000,"state":"active","ping":99},{"user_id":31,"name":"The Doctor","steam_id":76561198105341037,"connected_time":849000000000,"state":"active","ping":88},{"user_id":19,"name":"delta man","steam_id":76561198204491245,"connected_time":1634000000000,"state":"active","ping":142},{"user_id":32,"name":"Mickey","steam_id":76561197976868960,"connected_time":787000000000,"state":"active","ping":60},{"user_id":33,"name":"MrMudkip","steam_id":76561198181843029,"connected_time":717000000000,"state":"active","ping":58},{"user_id":38,"name":"Indoor Time Waster","steam_id":76561198155004481,"connected_time":415000000000,"state":"active","ping":58},{"user_id":25,"name":"Kalivero","steam_id":76561198244148206,"connected_time":1402000000000,"state":"active","ping":110},{"user_id":26,"name":"EFFECT OF PARASHA","steam_id":76561198276594844,"connected_time":1398000000000,"state":"active","ping":149},{"user_id":42,"name":"Jonas Destark","steam_id":76561198030327441,"connected_time":299000000000,"state":"active","ping":55},{"user_id":43,"name":"strahphic","steam_id":76561199279295106,"connected_time":295000000000,"state":"active","ping":120},{"user_id":44,"name":"Mcdrxd","steam_id":76561198341430519,"connected_time":251000000000,"state":"active","ping":88}]},{"server_id":320,"name":"Uncletopia | London | 3 | All Maps","name_short":"lon-3","host":"lon-1.uk.uncletopia.com","port":27035,"enabled":true,"region":"eu","cc":"gb","latitude":51.509865,"longitude":-0.118092,"reserved":0,"last_update":"0001-01-01T00:00:00Z","name_a2s":"Uncletopia | London | 3 | All Maps","protocol":17,"map":"pl_badwater","folder":"tf","game":"Team Fortress","app_id":440,"player_count":0,"max_players":24,"Bots":0,"server_type":"Dedicated","server_os":"Linux","password":true,"vac":true,"version":"7757534","steam_id":85568392924510192,"keywords":["nocrits","nodmgspread","payload","uncletopia"],"game_id":440,"stv_port":27036,"stv_name":"Uncletopia | London | 3 | All Maps | STV","players":null},{"server_id":321,"name":"Uncletopia | London | 4 | All Maps","name_short":"lon-4","host":"lon-1.uk.uncletopia.com","port":27045,"enabled":true,"region":"eu","cc":"gb","latitude":51.509865,"longitude":-0.118092,"reserved":0,"last_update":"0001-01-01T00:00:00Z","name_a2s":"Uncletopia | London | 4 | All Maps","protocol":17,"map":"cp_snakewater_final1","folder":"tf","game":"Team Fortress","app_id":440,"player_count":0,"max_players":24,"Bots":0,"server_type":"Dedicated","server_os":"Linux","password":true,"vac":true,"version":"7757534","steam_id":85568392924510193,"keywords":["cp","nocrits","nodmgspread","uncletopia"],"game_id":440,"stv_port":27046,"stv_name":"Uncletopia | London | 4 | All Maps | STV","players":null},{"server_id":21,"name":"Uncletopia | London | 5 | All Maps","name_short":"lon-5","host":"lon-1.uk.uncletopia.com","port":27055,"enabled":true,"region":"eu","cc":"gb","latitude":51.509865,"longitude":-0.118092,"reserved":0,"last_update":"0001-01-01T00:00:00Z","name_a2s":"Uncletopia | London | 5 | All Maps","protocol":17,"map":"pl_snowycoast","folder":"tf","game":"Team Fortress","app_id":440,"player_count":0,"max_players":24,"Bots":0,"server_type":"Dedicated","server_os":"Linux","password":true,"vac":true,"version":"7757534","steam_id":85568392924742829,"keywords":["nocrits","nodmgspread","payload","uncletopia"],"game_id":440,"stv_port":27056,"stv_name":"Uncletopia | London | 5 | All Maps | STV","players":null},{"server_id":22,"name":"Uncletopia | London | 6 | All Maps","name_short":"lon-6","host":"lon-1.uk.uncletopia.com","port":27065,"enabled":true,"region":"eu","cc":"gb","latitude":51.509865,"longitude":-0.118092,"reserved":0,"last_update":"0001-01-01T00:00:00Z","name_a2s":"Uncletopia | London | 6 | All Maps","protocol":17,"map":"pl_snowycoast","folder":"tf","game":"Team Fortress","app_id":440,"player_count":0,"max_players":24,"Bots":0,"server_type":"Dedicated","server_os":"Linux","password":true,"vac":true,"version":"7757534","steam_id":85568392924742830,"keywords":["nocrits","nodmgspread","payload","uncletopia"],"game_id":440,"stv_port":27066,"stv_name":"Uncletopia | London | 6 | All Maps | STV","players":null},{"server_id":40,"name":"Uncletopia | London | 7 | No Payload","name_short":"lon-7","host":"lon-1.uk.uncletopia.com","port":27075,"enabled":true,"region":"eu","cc":"gb","latitude":51.509865,"longitude":-0.118092,"reserved":0,"last_update":"0001-01-01T00:00:00Z","name_a2s":"Uncletopia | London | 7 | No Payload","protocol":17,"map":"pl_upward","folder":"tf","game":"Team Fortress","app_id":440,"player_count":0,"max_players":24,"Bots":0,"server_type":"Dedicated","server_os":"Linux","password":true,"vac":true,"version":"7757534","steam_id":85568392924964314,"keywords":["nocrits","nodmgspread","payload","uncletopia"],"game_id":440,"stv_port":27076,"stv_name":"Uncletopia | London | 7 | No Payload | STV","players":null},{"server_id":41,"name":"Uncletopia | London | 8 | Community","name_short":"lon-8","host":"lon-1.uk.uncletopia.com","port":27085,"enabled":true,"region":"eu","cc":"gb","latitude":51.509865,"longitude":-0.118092,"reserved":0,"last_update":"0001-01-01T00:00:00Z","name_a2s":"Uncletopia | London | 8 | Community","protocol":17,"map":"cp_snakewater_final1","folder":"tf","game":"Team Fortress","app_id":440,"player_count":0,"max_players":24,"Bots":0,"server_type":"Dedicated","server_os":"Linux","password":true,"vac":true,"version":"7757534","steam_id":85568392924964315,"keywords":["cp","nocrits","nodmgspread","uncletopia"],"game_id":440,"stv_port":27086,"stv_name":"Uncletopia | London | 8 | Community | STV","players":null},{"server_id":300,"name":"Uncletopia | Montr√©al | 1 | All Maps","name_short":"mtl-1","host":"mtl-1.ca.uncletopia.com","port":27015,"enabled":true,"region":"us-east","cc":"ca","latitude":45.50889,"longitude":-73.56167,"reserved":0,"last_update":"0001-01-01T00:00:00Z","name_a2s":"Uncletopia | Montr√©al | 1 | All Maps","protocol":17,"map":"pl_borneo","folder":"tf","game":"Team Fortress","app_id":440,"player_count":0,"max_players":24,"Bots":0,"server_type":"Dedicated","server_os":"Linux","password":true,"vac":true,"version":"7757534","steam_id":85568392924500087,"keywords":["nocrits","nodmgspread","payload","uncletopia"],"game_id":440,"stv_port":27016,"stv_name":"Uncletopia | Montr√©al | 1 | All Maps | STV","players":null},{"server_id":301,"name":"Uncletopia | Montr√©al | 2 | All Maps","name_short":"mtl-2","host":"mtl-1.ca.uncletopia.com","port":27025,"enabled":true,"region":"us-east","cc":"ca","latitude":45.50889,"longitude":-73.56167,"reserved":0,"last_update":"0001-01-01T00:00:00Z","name_a2s":"Uncletopia | Montr√©al | 2 | All Maps","protocol":17,"map":"pl_frontier_final","folder":"tf","game":"Team Fortress","app_id":440,"player_count":0,"max_players":24,"Bots":0,"server_type":"Dedicated","server_os":"Linux","password":true,"vac":true,"version":"7757534","steam_id":85568392924500088,"keywords":["nocrits","nodmgspread","payload","uncletopia"],"game_id":440,"stv_port":27026,"stv_name":"Uncletopia | Montr√©al | 2 | All Maps | STV","players":null},{"server_id":302,"name":"Uncletopia | Montr√©al | 3 | All Maps","name_short":"mtl-3","host":"mtl-1.ca.uncletopia.com","port":27035,"enabled":true,"region":"us-east","cc":"ca","latitude":45.50889,"longitude":-73.56167,"reserved":0,"last_update":"0001-01-01T00:00:00Z","name_a2s":"Uncletopia | Montr√©al | 3 | All Maps","protocol":17,"map":"pl_barnblitz","folder":"tf","game":"Team Fortress","app_id":440,"player_count":0,"max_players":24,"Bots":0,"server_type":"Dedicated","server_os":"Linux","password":true,"vac":true,"version":"7757534","steam_id":85568392924500089,"keywords":["nocrits","nodmgspread","payload","uncletopia"],"game_id":440,"stv_port":27036,"stv_name":"Uncletopia | Montr√©al | 3 | All Maps | STV","players":null},{"server_id":303,"name":"Uncletopia | Montr√©al | 4 | No Payload","name_short":"mtl-4","host":"mtl-1.ca.uncletopia.com","port":27045,"enabled":true,"region":"us-east","cc":"ca","latitude":45.50889,"longitude":-73.56167,"reserved":0,"last_update":"0001-01-01T00:00:00Z","name_a2s":"Uncletopia | Montr√©al | 4 | No Payload","protocol":17,"map":"koth_lakeside_final","folder":"tf","game":"Team Fortress","app_id":440,"player_count":0,"max_players":24,"Bots":0,"server_type":"Dedicated","server_os":"Linux","password":true,"vac":true,"version":"7757534","steam_id":85568392924500090,"keywords":["cp","nocrits","nodmgspread","uncletopia"],"game_id":440,"stv_port":27046,"stv_name":"Uncletopia | Montr√©al | 4 | No Payload | STV","players":null},{"server_id":13,"name":"Uncletopia | New York City | 1 | All Maps","name_short":"nyc-1","host":"nyc-1.us.uncletopia.com","port":27015,"enabled":true,"region":"us-east","cc":"us","latitude":40.73061,"longitude":-73.93524,"reserved":0,"last_update":"0001-01-01T00:00:00Z","name_a2s":"Uncletopia | New York City | 1 | All Maps","protocol":17,"map":"pl_barnblitz","folder":"tf","game":"Team Fortress","app_id":440,"player_count":0,"max_players":24,"Bots":0,"server_type":"Dedicated","server_os":"Linux","password":true,"vac":true,"version":"7757534","steam_id":85568392924469993,"keywords":["nocrits","nodmgspread","payload","uncletopia"],"game_id":440,"stv_port":27016,"stv_name":"Uncletopia | New York City | 1 | All Maps | STV","players":null},{"server_id":14,"name":"Uncletopia | New York City | 2 | All Maps","name_short":"nyc-2","host":"nyc-1.us.uncletopia.com","port":27025,"enabled":true,"region":"us-east","cc":"us","latitude":40.73061,"longitude":-73.93524,"reserved":0,"last_update":"0001-01-01T00:00:00Z","name_a2s":"Uncletopia | New York City | 2 | All Maps","protocol":17,"map":"pl_frontier_final","folder":"tf","game":"Team Fortress","app_id":440,"player_count":0,"max_players":24,"Bots":0,"server_type":"Dedicated","server_os":"Linux","password":true,"vac":true,"version":"7757534","steam_id":85568392924469994,"keywords":["nocrits","nodmgspread","payload","uncletopia"],"game_id":440,"stv_port":27026,"stv_name":"Uncletopia | New York City | 2 | All Maps | STV","players":null},{"server_id":15,"name":"Uncletopia | New York City | 3 | Stopwatch Beta","name_short":"nyc-3","host":"nyc-1.us.uncletopia.com","port":27035,"enabled":true,"region":"us-east","cc":"us","latitude":40.73061,"longitude":-73.93524,"reserved":0,"last_update":"0001-01-01T00:00:00Z","name_a2s":"Uncletopia | New York City | 3 | Stopwatch Beta","protocol":17,"map":"workshop/koth_clearcut_b15.ugc2107050255","folder":"tf","game":"Team Fortress","app_id":440,"player_count":0,"max_players":24,"Bots":0,"server_type":"Dedicated","server_os":"Linux","password":true,"vac":true,"version":"7757534","steam_id":85568392924742820,"keywords":["cp","nocrits","nodmgspread","uncletopia"],"game_id":440,"stv_port":27036,"stv_name":"Uncletopia | New York City | 3 | Stopwatch Beta | STV","players":null},{"server_id":16,"name":"Uncletopia | New York City | 4 | Community","name_short":"nyc-4","host":"nyc-1.us.uncletopia.com","port":27045,"enabled":true,"region":"us-east","cc":"us","latitude":40.73061,"longitude":-73.93524,"reserved":0,"last_update":"0001-01-01T00:00:00Z","name_a2s":"Uncletopia | New York City | 4 | Community","protocol":17,"map":"workshop/koth_bagel_rc5.ugc2514036946","folder":"tf","game":"Team Fortress","app_id":440,"player_count":0,"max_players":24,"Bots":0,"server_type":"Dedicated","server_os":"Linux","password":true,"vac":true,"version":"7757534","steam_id":85568392924742821,"keywords":["cp","nocrits","nodmgspread","uncletopia"],"game_id":440,"stv_port":27046,"stv_name":"Uncletopia | New York City | 4 | Community | STV","players":null},{"server_id":142,"name":"Uncletopia | S√£o Paulo | 1 | All Maps","name_short":"sao-1","host":"sao-1.br.uncletopia.com","port":27015,"enabled":true,"region":"sa","cc":"br","latitude":-23.533773,"longitude":-46.62529,"reserved":0,"last_update":"0001-01-01T00:00:00Z","name_a2s":"Uncletopia | S√£o Paulo | 1 | All Maps","protocol":17,"map":"koth_highpass","folder":"tf","game":"Team Fortress","app_id":440,"player_count":0,"max_players":24,"Bots":0,"server_type":"Dedicated","server_os":"Linux","password":true,"vac":true,"version":"7757534","steam_id":85568392924469996,"keywords":["cp","nocrits","nodmgspread","uncletopia"],"game_id":440,"stv_port":27016,"stv_name":"Uncletopia | S√£o Paulo | 1 | All Maps | STV","players":null},{"server_id":143,"name":"Uncletopia | S√£o Paulo | 2 | All Maps","name_short":"sao-2","host":"sao-2.br.uncletopia.com","port":27015,"enabled":true,"region":"sa","cc":"br","latitude":-23.533773,"longitude":-46.62529,"reserved":0,"last_update":"0001-01-01T00:00:00Z","name_a2s":"Uncletopia | S√£o Paulo | 2 | All Maps","protocol":17,"map":"pl_upward","folder":"tf","game":"Team Fortress","app_id":440,"player_count":0,"max_players":24,"Bots":0,"server_type":"Dedicated","server_os":"Linux","password":true,"vac":true,"version":"7757534","steam_id":85568392924485349,"keywords":["nocrits","nodmgspread","payload","uncletopia"],"game_id":440,"stv_port":27016,"stv_name":"Uncletopia | S√£o Paulo | 2 | All Maps | STV","players":null},{"server_id":7,"name":"Uncletopia | Seattle | 1 | All Maps","name_short":"sea-1","host":"sea-1.us.uncletopia.com","port":27015,"enabled":true,"region":"us-west","cc":"us","latitude":47.608013,"longitude":-122.33517,"reserved":0,"last_update":"0001-01-01T00:00:00Z","name_a2s":"Uncletopia | Seattle | 1 | All Maps","protocol":17,"map":"pl_upward","folder":"tf","game":"Team Fortress","app_id":440,"player_count":24,"max_players":24,"Bots":0,"server_type":"Dedicated","server_os":"Linux","password":true,"vac":true,"version":"7757534","steam_id":85568392924469997,"keywords":["nocrits","nodmgspread","payload","uncletopia"],"game_id":440,"stv_port":27016,"stv_name":"Uncletopia | Seattle | 1 | All Maps | STV","players":[{"user_id":571,"name":"flishko","steam_id":76561198326489802,"connected_time":486000000000,"state":"active","ping":55},{"user_id":541,"name":"Arsonist Goose","steam_id":76561198147441830,"connected_time":1825000000000,"state":"active","ping":71},{"user_id":538,"name":"aaaaAAAAaaaaAAaAAAaaaa","steam_id":76561198048237954,"connected_time":2449000000000,"state":"active","ping":62},{"user_id":548,"name":"Fargo","steam_id":76561198044703931,"connected_time":1270000000000,"state":"active","ping":75},{"user_id":544,"name":"SadFapping","steam_id":76561198076651049,"connected_time":1319000000000,"state":"active","ping":58},{"user_id":543,"name":"Aux","steam_id":76561199091651065,"connected_time":1333000000000,"state":"active","ping":64},{"user_id":534,"name":"LegalizeCrack","steam_id":76561198034177447,"connected_time":2758000000000,"state":"active","ping":55},{"user_id":573,"name":"fragadelphia","steam_id":76561198066116363,"connected_time":231000000000,"state":"active","ping":46},{"user_id":496,"name":"TROY","steam_id":76561197983852176,"connected_time":4113000000000,"state":"active","ping":75},{"user_id":540,"name":"squid game","steam_id":76561199248960166,"connected_time":1939000000000,"state":"active","ping":34},{"user_id":535,"name":"Yack Skag","steam_id":76561198068251493,"connected_time":2583000000000,"state":"active","ping":66},{"user_id":546,"name":"gatorbelt","steam_id":76561198145784505,"connected_time":1308000000000,"state":"active","ping":79},{"user_id":531,"name":"chicken wit dah eggrow","steam_id":76561198115458307,"connected_time":2771000000000,"state":"active","ping":89},{"user_id":511,"name":"hekken :^1","steam_id":76561198109933577,"connected_time":3958000000000,"state":"active","ping":56},{"user_id":574,"name":"JZ","steam_id":76561198377029198,"connected_time":202000000000,"state":"active","ping":117},{"user_id":532,"name":"The Super Mario Bros. Movie","steam_id":76561198871692156,"connected_time":2766000000000,"state":"active","ping":50},{"user_id":577,"name":"Freddie Benson","steam_id":76561198012741266,"connected_time":33000000000,"state":"active","ping":48},{"user_id":507,"name":"Tom Skirrett","steam_id":76561198014600788,"connected_time":4044000000000,"state":"active","ping":71},{"user_id":550,"name":"weed lesbian","steam_id":76561198042263805,"connected_time":1093000000000,"state":"active","ping":39},{"user_id":572,"name":"Ayayahuasca","steam_id":76561199002906056,"connected_time":249000000000,"state":"active","ping":48},{"user_id":575,"name":"A Fruit","steam_id":76561198951830050,"connected_time":182000000000,"state":"active","ping":96},{"user_id":508,"name":"Professor Sex","steam_id":76561198396414319,"connected_time":4015000000000,"state":"active","ping":83},{"user_id":520,"name":"An Old Lady","steam_id":76561198047480318,"connected_time":3362000000000,"state":"active","ping":67},{"user_id":537,"name":"bruh","steam_id":76561199095370765,"connected_time":2548000000000,"state":"active","ping":65}]},{"server_id":119,"name":"Uncletopia | Seattle | 2 | All Maps","name_short":"sea-2","host":"sea-1.us.uncletopia.com","port":27025,"enabled":true,"region":"us-west","cc":"us","latitude":47.608013,"longitude":-122.33517,"reserved":0,"last_update":"0001-01-01T00:00:00Z","name_a2s":"Uncletopia | Seattle | 2 | All Maps","protocol":17,"map":"pl_pier","folder":"tf","game":"Team Fortress","app_id":440,"player_count":24,"max_players":24,"Bots":0,"server_type":"Dedicated","server_os":"Linux","password":true,"vac":true,"version":"7757534","steam_id":85568392924469998,"keywords":["nocrits","nodmgspread","payload","uncletopia"],"game_id":440,"stv_port":27026,"stv_name":"Uncletopia | Seattle | 2 | All Maps | STV","players":[{"user_id":534,"name":"SvicidalBug","steam_id":76561198221390504,"connected_time":503000000000,"state":"active","ping":71},{"user_id":535,"name":"Julien","steam_id":76561199389584938,"connected_time":442000000000,"state":"active","ping":40},{"user_id":508,"name":"Strength!!","steam_id":76561198001241984,"connected_time":2122000000000,"state":"active","ping":46},{"user_id":512,"name":"VIRGINIA!!","steam_id":76561198036066855,"connected_time":2002000000000,"state":"active","ping":57},{"user_id":503,"name":"served","steam_id":76561199438267625,"connected_time":3555000000000,"state":"active","ping":110},{"user_id":513,"name":"Caramel_Chalice","steam_id":76561198307609692,"connected_time":1900000000000,"state":"active","ping":56},{"user_id":536,"name":"aflyingmouse","steam_id":76561198058134934,"connected_time":427000000000,"state":"active","ping":101},{"user_id":541,"name":"Anxious Nerd Bird","steam_id":76561198112178602,"connected_time":308000000000,"state":"active","ping":75},{"user_id":538,"name":"Scrumfel Nutz","steam_id":76561198123286409,"connected_time":353000000000,"state":"active","ping":60},{"user_id":499,"name":"mohamy_19","steam_id":76561198075833698,"connected_time":4408000000000,"state":"active","ping":63},{"user_id":545,"name":"PopcornNinja101","steam_id":76561198330680181,"connected_time":179000000000,"state":"active","ping":46},{"user_id":515,"name":"Dunkle","steam_id":76561198041903573,"connected_time":1794000000000,"state":"active","ping":36},{"user_id":461,"name":"goldhed","steam_id":76561198051751133,"connected_time":7417000000000,"state":"active","ping":58},{"user_id":529,"name":"doozy","steam_id":76561198033106776,"connected_time":1019000000000,"state":"active","ping":88},{"user_id":516,"name":"Milano","steam_id":76561198051889174,"connected_time":1783000000000,"state":"active","ping":69},{"user_id":539,"name":"pat back","steam_id":76561198347225801,"connected_time":350000000000,"state":"active","ping":49},{"user_id":540,"name":"BunnyRoses","steam_id":76561198434008748,"connected_time":347000000000,"state":"active","ping":45},{"user_id":518,"name":"tama","steam_id":76561197996625031,"connected_time":1774000000000,"state":"active","ping":120},{"user_id":519,"name":"Hoooowl","steam_id":76561198078300261,"connected_time":1766000000000,"state":"active","ping":110},{"user_id":544,"name":"SkyLark","steam_id":76561198303618132,"connected_time":201000000000,"state":"active","ping":55},{"user_id":521,"name":"dosimeter","steam_id":76561198039608940,"connected_time":1722000000000,"state":"active","ping":59},{"user_id":531,"name":"President Shitfart","steam_id":76561198141819053,"connected_time":911000000000,"state":"active","ping":56},{"user_id":524,"name":"sagejay","steam_id":76561198118149530,"connected_time":1638000000000,"state":"active","ping":120},{"user_id":532,"name":"smeasly","steam_id":76561198028718812,"connected_time":822000000000,"state":"active","ping":36}]},{"server_id":406,"name":"Uncletopia | Seattle | 3 | Stopwatch Beta","name_short":"sea-3","host":"sea-1.us.uncletopia.com","port":27035,"enabled":true,"region":"us-west","cc":"us","latitude":47.608013,"longitude":-122.33517,"reserved":0,"last_update":"0001-01-01T00:00:00Z","name_a2s":"Uncletopia | Seattle | 3 | Stopwatch Beta","protocol":17,"map":"pl_upward","folder":"tf","game":"Team Fortress","app_id":440,"player_count":0,"max_players":24,"Bots":0,"server_type":"Dedicated","server_os":"Linux","password":true,"vac":true,"version":"7757534","steam_id":85568392924515217,"keywords":["nocrits","nodmgspread","payload","uncletopia"],"game_id":440,"stv_port":27036,"stv_name":"Uncletopia | Seattle | 3 | Stopwatch Beta | STV","players":null},{"server_id":17,"name":"Uncletopia | San Francisco | 1 | All Maps","name_short":"sfo-1","host":"sfo-1.us.uncletopia.com","port":27015,"enabled":true,"region":"us-west","cc":"us","latitude":37.77397,"longitude":-122.4313,"reserved":0,"last_update":"0001-01-01T00:00:00Z","name_a2s":"Uncletopia | San Francisco | 1 | All Maps","protocol":17,"map":"plr_bananabay","folder":"tf","game":"Team Fortress","app_id":440,"player_count":23,"max_players":24,"Bots":0,"server_type":"Dedicated","server_os":"Linux","password":true,"vac":true,"version":"7757534","steam_id":85568392924469999,"keywords":["nocrits","nodmgspread","payload","uncletopia"],"game_id":440,"stv_port":27016,"stv_name":"Uncletopia | San Francisco | 1 | All Maps | STV","players":[{"user_id":130,"name":"Reisen Udongein Inaba","steam_id":76561198051082314,"connected_time":3894000000000,"state":"active","ping":60},{"user_id":131,"name":"Junko","steam_id":76561198146089003,"connected_time":3873000000000,"state":"active","ping":60},{"user_id":176,"name":"Soggy","steam_id":76561198987208120,"connected_time":1990000000000,"state":"active","ping":47},{"user_id":135,"name":"troitsa","steam_id":76561198115461538,"connected_time":3782000000000,"state":"active","ping":61},{"user_id":132,"name":"UltShuip","steam_id":76561198074339262,"connected_time":3870000000000,"state":"active","ping":59},{"user_id":162,"name":"the pizza","steam_id":76561198221331476,"connected_time":2833000000000,"state":"active","ping":43},{"user_id":195,"name":"IntravenusDeMilo","steam_id":76561197970629020,"connected_time":603000000000,"state":"active","ping":60},{"user_id":172,"name":"Pikemen","steam_id":76561198141338432,"connected_time":2086000000000,"state":"active","ping":58},{"user_id":191,"name":"Protoshake","steam_id":76561198840276176,"connected_time":796000000000,"state":"active","ping":78},{"user_id":199,"name":"cop","steam_id":76561198077162313,"connected_time":96000000000,"state":"active","ping":64},{"user_id":139,"name":"pasta","steam_id":76561198069094862,"connected_time":3737000000000,"state":"active","ping":82},{"user_id":197,"name":"Stargazer A.","steam_id":76561198035479925,"connected_time":445000000000,"state":"active","ping":49},{"user_id":200,"name":"*BOOM*TSK*MORTAL KOMBAAAAAT!","steam_id":76561197961107982,"connected_time":87000000000,"state":"active","ping":102},{"user_id":201,"name":"Screwwie","steam_id":76561198006892781,"connected_time":76000000000,"state":"active","ping":72},{"user_id":185,"name":"SpockterWho","steam_id":76561198146653460,"connected_time":1214000000000,"state":"active","ping":50},{"user_id":188,"name":"Sterling Nano","steam_id":76561198048580088,"connected_time":995000000000,"state":"active","ping":88},{"user_id":202,"name":"‡πá‡πá‡πá‡πá‡πá","steam_id":76561198118859752,"connected_time":57000000000,"state":"active","ping":59},{"user_id":204,"name":"MORE BOUNCE TO THE OUNCE","steam_id":76561198243399336,"connected_time":33000000000,"state":"active","ping":68},{"user_id":173,"name":"Ace","steam_id":76561199202306398,"connected_time":2060000000000,"state":"active","ping":59},{"user_id":192,"name":"2 Point Tom","steam_id":76561198087617008,"connected_time":781000000000,"state":"active","ping":66},{"user_id":161,"name":"Lack of skelebone","steam_id":76561198102175328,"connected_time":2879000000000,"state":"active","ping":58},{"user_id":177,"name":"Dr.Bleach","steam_id":76561198043836873,"connected_time":1974000000000,"state":"active","ping":74},{"user_id":122,"name":"Battery_Included","steam_id":76561198067164431,"connected_time":4714000000000,"state":"active","ping":46}]},{"server_id":18,"name":"Uncletopia | San Francisco | 2 | All Maps","name_short":"sfo-2","host":"sfo-1.us.uncletopia.com","port":27025,"enabled":true,"region":"us-west","cc":"us","latitude":37.77397,"longitude":-122.4313,"reserved":0,"last_update":"0001-01-01T00:00:00Z","name_a2s":"Uncletopia | San Francisco | 2 | All Maps","protocol":17,"map":"pl_badwater","folder":"tf","game":"Team Fortress","app_id":440,"player_count":0,"max_players":24,"Bots":0,"server_type":"Dedicated","server_os":"Linux","password":true,"vac":true,"version":"7757534","steam_id":85568392924470000,"keywords":["nocrits","nodmgspread","payload","uncletopia"],"game_id":440,"stv_port":27026,"stv_name":"Uncletopia | San Francisco | 2 | All Maps | STV","players":null},{"server_id":19,"name":"Uncletopia | San Francisco | 3 | Stopwatch Beta","name_short":"sfo-3","host":"sfo-1.us.uncletopia.com","port":27035,"enabled":true,"region":"us-west","cc":"us","latitude":37.77397,"longitude":-122.4313,"reserved":0,"last_update":"0001-01-01T00:00:00Z","name_a2s":"Uncletopia | San Francisco | 3 | Stopwatch Beta","protocol":17,"map":"koth_viaduct","folder":"tf","game":"Team Fortress","app_id":440,"player_count":0,"max_players":24,"Bots":0,"server_type":"Dedicated","server_os":"Linux","password":true,"vac":true,"version":"7757534","steam_id":85568392924742824,"keywords":["cp","nocrits","nodmgspread","uncletopia"],"game_id":440,"stv_port":27036,"stv_name":"Uncletopia | San Francisco | 3 | Stopwatch Beta | STV","players":null},{"server_id":20,"name":"Uncletopia | San Francisco | 4 | Community","name_short":"sfo-4","host":"sfo-1.us.uncletopia.com","port":27045,"enabled":true,"region":"us-west","cc":"us","latitude":37.77397,"longitude":-122.4313,"reserved":0,"last_update":"0001-01-01T00:00:00Z","name_a2s":"Uncletopia | San Francisco | 4 | Community","protocol":17,"map":"workshop/pl_cactuscanyon_redux_rc4b.ugc2579644293","folder":"tf","game":"Team Fortress","app_id":440,"player_count":8,"max_players":24,"Bots":0,"server_type":"Dedicated","server_os":"Linux","password":true,"vac":true,"version":"7757534","steam_id":85568392924742826,"keywords":["nocrits","nodmgspread","payload","uncletopia"],"game_id":440,"stv_port":27046,"stv_name":"Uncletopia | San Francisco | 4 | Community | STV","players":[{"user_id":147,"name":"brk","steam_id":76561198079634017,"connected_time":421000000000,"state":"active","ping":61},{"user_id":138,"name":"Porytal","steam_id":76561198306101889,"connected_time":2471000000000,"state":"active","ping":68},{"user_id":149,"name":"roryhasanewmouse :3","steam_id":76561198065825165,"connected_time":249000000000,"state":"active","ping":88},{"user_id":139,"name":"girr","steam_id":76561198995114110,"connected_time":2466000000000,"state":"active","ping":65},{"user_id":143,"name":"Chucklemaster","steam_id":76561198023645303,"connected_time":1175000000000,"state":"active","ping":61},{"user_id":150,"name":"0","steam_id":76561198099843841,"connected_time":160000000000,"state":"active","ping":61},{"user_id":146,"name":"Scampy","steam_id":76561198001506924,"connected_time":985000000000,"state":"active","ping":65},{"user_id":81,"name":"p9 jorts","steam_id":76561199041179985,"connected_time":9030000000000,"state":"active","ping":82}]},{"server_id":141,"name":"Uncletopia | Sydney | 1 | All Maps","name_short":"syd-1","host":"syd-1.au.uncletopia.com","port":27015,"enabled":true,"region":"au","cc":"au","latitude":-33.865143,"longitude":151.2099,"reserved":0,"last_update":"0001-01-01T00:00:00Z","name_a2s":"Uncletopia | Sydney | 1 | All Maps","protocol":17,"map":"pl_badwater","folder":"tf","game":"Team Fortress","app_id":440,"player_count":15,"max_players":24,"Bots":0,"server_type":"Dedicated","server_os":"Linux","password":true,"vac":true,"version":"7757534","steam_id":85568392924470001,"keywords":["nocrits","nodmgspread","payload","uncletopia"],"game_id":440,"stv_port":27016,"stv_name":"Uncletopia | Sydney | 1 | All Maps | STV","players":[{"user_id":92,"name":"Explode","steam_id":76561198114594884,"connected_time":2108000000000,"state":"active","ping":85},{"user_id":140,"name":"Raven","steam_id":76561198428025966,"connected_time":605000000000,"state":"active","ping":69},{"user_id":104,"name":"ToxicFlame","steam_id":76561199439459721,"connected_time":1819000000000,"state":"active","ping":78},{"user_id":149,"name":"Greg","steam_id":76561198133966374,"connected_time":93000000000,"state":"active","ping":51},{"user_id":139,"name":"Bobby Bigman","steam_id":76561198044679656,"connected_time":621000000000,"state":"active","ping":55},{"user_id":121,"name":"Bubbles","steam_id":76561198121147751,"connected_time":1420000000000,"state":"active","ping":81},{"user_id":141,"name":"simpcyan","steam_id":76561199121837374,"connected_time":596000000000,"state":"active","ping":124},{"user_id":142,"name":"Justus","steam_id":76561198148675561,"connected_time":595000000000,"state":"active","ping":60},{"user_id":109,"name":"Traveller","steam_id":76561199161637215,"connected_time":1694000000000,"state":"active","ping":104},{"user_id":132,"name":"james16","steam_id":76561198362678073,"connected_time":927000000000,"state":"active","ping":34},{"user_id":150,"name":"wse.","steam_id":76561198272148020,"connected_time":38000000000,"state":"active","ping":51},{"user_id":128,"name":"Leonidas","steam_id":76561198054096076,"connected_time":1094000000000,"state":"active","ping":53},{"user_id":147,"name":"terrablade_master","steam_id":76561198997249192,"connected_time":332000000000,"state":"active","ping":66},{"user_id":134,"name":"A KNIFE!","steam_id":76561198160390701,"connected_time":897000000000,"state":"active","ping":63},{"user_id":127,"name":"sqwyd","steam_id":76561198040018349,"connected_time":1128000000000,"state":"active","ping":48}]},{"server_id":123,"name":"Uncletopia | Sydney | 2 | All Maps","name_short":"syd-2","host":"syd-1.au.uncletopia.com","port":27025,"enabled":true,"region":"au","cc":"au","latitude":-33.865143,"longitude":151.2099,"reserved":0,"last_update":"0001-01-01T00:00:00Z","name_a2s":"Uncletopia | Sydney | 2 | All Maps","protocol":17,"map":"pl_upward","folder":"tf","game":"Team Fortress","app_id":440,"player_count":22,"max_players":24,"Bots":0,"server_type":"Dedicated","server_os":"Linux","password":true,"vac":true,"version":"7757534","steam_id":85568392924470002,"keywords":["nocrits","nodmgspread","payload","uncletopia"],"game_id":440,"stv_port":27026,"stv_name":"Uncletopia | Sydney | 2 | All Maps | STV","players":[{"user_id":334,"name":"FyreFeat","steam_id":76561198068428930,"connected_time":2906000000000,"state":"active","ping":51},{"user_id":355,"name":"[SS] Fsh","steam_id":76561198057345275,"connected_time":1172000000000,"state":"active","ping":36},{"user_id":361,"name":"michael","steam_id":76561198052848358,"connected_time":908000000000,"state":"active","ping":62},{"user_id":376,"name":"Vicci","steam_id":76561198045723808,"connected_time":189000000000,"state":"active","ping":45},{"user_id":364,"name":"Piklz","steam_id":76561198043384139,"connected_time":727000000000,"state":"active","ping":47},{"user_id":350,"name":"hive","steam_id":76561199099744527,"connected_time":1752000000000,"state":"active","ping":45},{"user_id":354,"name":"Seasonal Demons","steam_id":76561198099279182,"connected_time":1242000000000,"state":"active","ping":63},{"user_id":365,"name":"Puddih'","steam_id":76561198303005110,"connected_time":712000000000,"state":"active","ping":65},{"user_id":370,"name":"Tyson919","steam_id":76561199154100346,"connected_time":495000000000,"state":"active","ping":62},{"user_id":371,"name":"SkoKiE","steam_id":76561198283542986,"connected_time":430000000000,"state":"active","ping":67},{"user_id":308,"name":"Consolidated Fart","steam_id":76561198924101909,"connected_time":5242000000000,"state":"active","ping":69},{"user_id":339,"name":"Dr Barry Mundy PhD","steam_id":76561198034512686,"connected_time":2684000000000,"state":"active","ping":47},{"user_id":374,"name":"Del Davis","steam_id":76561199365669004,"connected_time":223000000000,"state":"active","ping":59},{"user_id":368,"name":"EpicGuy4227","steam_id":76561198094132328,"connected_time":581000000000,"state":"active","ping":53},{"user_id":326,"name":"sf/k","steam_id":76561198047758776,"connected_time":3229000000000,"state":"active","ping":44},{"user_id":349,"name":"panda particle","steam_id":76561199235854489,"connected_time":1867000000000,"state":"active","ping":84},{"user_id":366,"name":"andthatsFALSE","steam_id":76561197996932788,"connected_time":684000000000,"state":"active","ping":74},{"user_id":346,"name":"jd","steam_id":76561198047063515,"connected_time":2151000000000,"state":"active","ping":57},{"user_id":369,"name":"Hally","steam_id":76561198045236233,"connected_time":578000000000,"state":"active","ping":60},{"user_id":353,"name":"Mr Doctor","steam_id":76561198081415999,"connected_time":1485000000000,"state":"active","ping":73},{"user_id":378,"name":"ziah","steam_id":76561198159375596,"connected_time":170000000000,"state":"active","ping":59},{"user_id":357,"name":"[T√êK] KeRpaL","steam_id":76561197974427061,"connected_time":1092000000000,"state":"active","ping":61}]},{"server_id":395,"name":"Uncletopia | Sydney | 3 | All Maps","name_short":"syd-3","host":"syd-1.au.uncletopia.com","port":27035,"enabled":true,"region":"au","cc":"au","latitude":-33.865143,"longitude":151.2099,"reserved":0,"last_update":"0001-01-01T00:00:00Z","name_a2s":"Uncletopia | Sydney | 3 | All Maps","protocol":17,"map":"koth_harvest_final","folder":"tf","game":"Team Fortress","app_id":440,"player_count":2,"max_players":24,"Bots":0,"server_type":"Dedicated","server_os":"Linux","password":true,"vac":true,"version":"7757534","steam_id":85568392925194467,"keywords":["cp","nocrits","nodmgspread","uncletopia"],"game_id":440,"stv_port":27036,"stv_name":"Uncletopia | Sydney | 3 | All Maps | STV","players":[{"user_id":27,"name":"jchthm12","steam_id":76561199376385352,"connected_time":1448000000000,"state":"active","ping":57},{"user_id":29,"name":"not a giant eyeball","steam_id":76561198879150611,"connected_time":415000000000,"state":"active","ping":68}]},{"server_id":396,"name":"Uncletopia | Sydney | 4 | All Maps","name_short":"syd-4","host":"syd-1.au.uncletopia.com","port":27045,"enabled":true,"region":"au","cc":"au","latitude":-33.865143,"longitude":151.2099,"reserved":0,"last_update":"0001-01-01T00:00:00Z","name_a2s":"Uncletopia | Sydney | 4 | All Maps","protocol":17,"map":"koth_cascade","folder":"tf","game":"Team Fortress","app_id":440,"player_count":0,"max_players":24,"Bots":0,"server_type":"Dedicated","server_os":"Linux","password":true,"vac":true,"version":"7757534","steam_id":85568392925397958,"keywords":["cp","nocrits","nodmgspread","uncletopia"],"game_id":440,"stv_port":27046,"stv_name":"Uncletopia | Sydney | 4 | All Maps | STV","players":null},{"server_id":58,"name":"Uncletopia | Sydney | 5 | Stopwatch Beta","name_short":"syd-5","host":"syd-1.au.uncletopia.com","port":27055,"enabled":true,"region":"au","cc":"au","latitude":-33.865143,"longitude":151.2099,"reserved":0,"last_update":"0001-01-01T00:00:00Z","name_a2s":"Uncletopia | Sydney | 5 | Stopwatch Beta","protocol":17,"map":"pl_barnblitz","folder":"tf","game":"Team Fortress","app_id":440,"player_count":0,"max_players":24,"Bots":0,"server_type":"Dedicated","server_os":"Linux","password":true,"vac":true,"version":"7757534","steam_id":85568392925397959,"keywords":["nocrits","nodmgspread","payload","uncletopia"],"game_id":440,"stv_port":27056,"stv_name":"Uncletopia | Sydney | 5 | Stopwatch Beta | STV","players":null},{"server_id":59,"name":"Uncletopia | Sydney | 6 | Community","name_short":"syd-6","host":"syd-1.au.uncletopia.com","port":27065,"enabled":true,"region":"au","cc":"au","latitude":-33.865143,"longitude":151.2099,"reserved":0,"last_update":"0001-01-01T00:00:00Z","name_a2s":"Uncletopia | Sydney | 6 | Community","protocol":17,"map":"cp_mountainlab","folder":"tf","game":"Team Fortress","app_id":440,"player_count":0,"max_players":24,"Bots":0,"server_type":"Dedicated","server_os":"Linux","password":true,"vac":true,"version":"7757534","steam_id":85568392925397960,"keywords":["cp","nocrits","nodmgspread","uncletopia"],"game_id":440,"stv_port":27066,"stv_name":"Uncletopia | Sydney | 6 | Community | STV","players":null},{"server_id":49,"name":"Uncletopia | Warsaw | 1 | All Maps","name_short":"waw-1","host":"waw-1.pl.uncletopia.com","port":27015,"enabled":true,"region":"eu","cc":"pl","latitude":52.2297,"longitude":21.017532,"reserved":0,"last_update":"0001-01-01T00:00:00Z","name_a2s":"","protocol":0,"map":"","folder":"","game":"","app_id":0,"player_count":0,"max_players":0,"Bots":0,"server_type":"","server_os":"","password":false,"vac":false,"version":"","steam_id":0,"keywords":null,"game_id":0,"stv_port":0,"stv_name":"","players":null},{"server_id":50,"name":"Uncletopia | Warsaw | 2 | All Maps","name_short":"waw-2","host":"waw-1.pl.uncletopia.com","port":27025,"enabled":true,"region":"eu","cc":"pl","latitude":52.2297,"longitude":21.017532,"reserved":0,"last_update":"0001-01-01T00:00:00Z","name_a2s":"Uncletopia | Warsaw | 2 | All Maps","protocol":17,"map":"pl_snowycoast","folder":"tf","game":"Team Fortress","app_id":440,"player_count":0,"max_players":24,"Bots":0,"server_type":"Dedicated","server_os":"Linux","password":true,"vac":true,"version":"7757534","steam_id":85568392925397851,"keywords":["nocrits","nodmgspread","payload","uncletopia"],"game_id":440,"stv_port":27026,"stv_name":"Uncletopia | Warsaw | 2 | All Maps | STV","players":null},{"server_id":51,"name":"Uncletopia | Warsaw | 3 | All Maps","name_short":"waw-3","host":"waw-1.pl.uncletopia.com","port":27035,"enabled":true,"region":"eu","cc":"pl","latitude":52.2297,"longitude":21.017532,"reserved":0,"last_update":"0001-01-01T00:00:00Z","name_a2s":"Uncletopia | Warsaw | 3 | All Maps","protocol":17,"map":"pl_barnblitz","folder":"tf","game":"Team Fortress","app_id":440,"player_count":0,"max_players":24,"Bots":0,"server_type":"Dedicated","server_os":"Linux","password":true,"vac":true,"version":"7757534","steam_id":85568392925397852,"keywords":["nocrits","nodmgspread","payload","uncletopia"],"game_id":440,"stv_port":27036,"stv_name":"Uncletopia | Warsaw | 3 | All Maps | STV","players":null},{"server_id":52,"name":"Uncletopia | Warsaw | 4 | All Maps","name_short":"waw-4","host":"waw-1.pl.uncletopia.com","port":27045,"enabled":true,"region":"eu","cc":"pl","latitude":52.2297,"longitude":21.017532,"reserved":0,"last_update":"0001-01-01T00:00:00Z","name_a2s":"Uncletopia | Warsaw | 4 | All Maps","protocol":17,"map":"pl_borneo","folder":"tf","game":"Team Fortress","app_id":440,"player_count":0,"max_players":24,"Bots":0,"server_type":"Dedicated","server_os":"Linux","password":true,"vac":true,"version":"7757534","steam_id":85568392925397853,"keywords":["nocrits","nodmgspread","payload","uncletopia"],"game_id":440,"stv_port":27046,"stv_name":"Uncletopia | Warsaw | 4 | All Maps | STV","players":null},{"server_id":53,"name":"Uncletopia | Warsaw | 5 | Stopwatch Beta","name_short":"waw-5","host":"waw-1.pl.uncletopia.com","port":27055,"enabled":true,"region":"eu","cc":"pl","latitude":52.2297,"longitude":21.017532,"reserved":0,"last_update":"0001-01-01T00:00:00Z","name_a2s":"Uncletopia | Warsaw | 5 | Stopwatch Beta","protocol":17,"map":"pl_upward","folder":"tf","game":"Team Fortress","app_id":440,"player_count":0,"max_players":24,"Bots":0,"server_type":"Dedicated","server_os":"Linux","password":true,"vac":true,"version":"7757534","steam_id":85568392925397854,"keywords":["nocrits","nodmgspread","payload","uncletopia"],"game_id":440,"stv_port":27056,"stv_name":"Uncletopia | Warsaw | 5 | Stopwatch Beta | STV","players":null},{"server_id":54,"name":"Uncletopia | Warsaw | 6 | Community","name_short":"waw-6","host":"waw-1.pl.uncletopia.com","port":27065,"enabled":true,"region":"eu","cc":"pl","latitude":52.2297,"longitude":21.017532,"reserved":0,"last_update":"0001-01-01T00:00:00Z","name_a2s":"Uncletopia | Warsaw | 6 | Community","protocol":17,"map":"pl_barnblitz","folder":"tf","game":"Team Fortress","app_id":440,"player_count":0,"max_players":24,"Bots":0,"server_type":"Dedicated","server_os":"Linux","password":true,"vac":true,"version":"7757534","steam_id":85568392925397856,"keywords":["nocrits","nodmgspread","payload","uncletopia"],"game_id":440,"stv_port":27066,"stv_name":"Uncletopia | Warsaw | 6 | Community | STV","players":null}]}