{"status":true,"message":"","result":[{"server_id":9,"name":"Uncletopia | Atlanta | 1 | All Maps","name_short":"atl-1","host":"atl-1.us.uncletopia.com","port":27015,"enabled":true,"region":"us-east","cc":"us","latitude":33.753746,"longitude":-84.38633,"reserved":0,"last_update":"0001-01-01T00:00:00Z","name_a2s":"Uncletopia | Atlanta | 1 | All Maps","protocol":17,"map":"koth_viaduct","folder":"tf","game":"Team Fortress","app_id":440,"player_count":24,"max_players":24,"Bots":0,"server_type":"Dedicated","server_os":"Linux","password":true,"vac":true,"version":"7757534","steam_id":85568392924469982,"keywords":["cp","nocrits","nodmgspread","uncletopia"],"game_id":440,"stv_port":27016,"stv_name":"Uncletopia | Atlanta | 1 | All Maps | STV","players":[{"user_id":232,"name":"HarryjusttHarry","steam_id":76561198982810452,"connected_time":456000000000,"state":"active","ping":86},{"user_id":178,"name":"Bottom feeder","steam_id":76561198181298169,"connected_time":4247000000000,"state":"active","ping":70},{"user_id":224,"name":"BoxTrox Requiem","steam_id":76561199084781818,"connected_time":996000000000,"state":"active","ping":57},{"user_id":210,"name":"ash","steam_id":76561198127890645,"connected_time":1664000000000,"state":"active","ping":69},{"user_id":74,"name":"Ashes!","steam_id":76561197998475441,"connected_time":10035000000000,"state":"active","ping":75},{"user_id":235,"name":"Toast","steam_id":76561198234616616,"connected_time":343000000000,"state":"active","ping":83},{"user_id":205,"name":"Nephs","steam_id":76561198136763403,"connected_time":2430000000000,"state":"active","ping":81},{"user_id":201,"name":"Walter White","steam_id":76561198875469297,"connected_time":2595000000000,"state":"active","ping":84},{"user_id":226,"name":"Bigge cheese the 3rd","steam_id":76561198860975325,"connected_time":974000000000,"state":"active","ping":71},{"user_id":221,"name":"-Wilef","steam_id":76561198066091247,"connected_time":1233000000000,"state":"active","ping":80},{"user_id":208,"name":"kentuckyfriedsocks","steam_id":76561198311122883,"connected_time":2224000000000,"state":"active","ping":67},{"user_id":237,"name":"ST.AR.GR","steam_id":76561198336128216,"connected_time":282000000000,"state":"active","ping":55},{"user_id":239,"name":"Im High","steam_id":76561198049954886,"connected_time":4000000000,"state":"spawning","ping":79},{"user_id":196,"name":"fortnite.jimmy.2014","steam_id":76561199177672325,"connected_time":2676000000000,"state":"active","ping":42},{"user_id":177,"name":"xiii","steam_id":76561198079416036,"connected_time":4461000000000,"state":"active","ping":74},{"user_id":214,"name":"andyiscolorless","steam_id":76561199239870921,"connected_time":1604000000000,"state":"active","ping":117},{"user_id":236,"name":"CreativeUsername","steam_id":76561198186045503,"connected_time":313000000000,"state":"active","ping":69},{"user_id":218,"name":"Darkdrake","steam_id":76561198107200600,"connected_time":1485000000000,"state":"active","ping":60},{"user_id":233,"name":"Bathing_Basin","steam_id":76561198088191503,"connected_time":374000000000,"state":"active","ping":66},{"user_id":227,"name":"The entire polish space agency","steam_id":76561198427502200,"connected_time":919000000000,"state":"active","ping":116},{"user_id":185,"name":"inky (Coolest)","steam_id":76561198968337022,"connected_time":4048000000000,"state":"active","ping":59},{"user_id":231,"name":"Schlebecke","steam_id":76561199044752122,"connected_time":700000000000,"state":"active","ping":76},{"user_id":238,"name":"chubbbo","steam_id":76561198943598378,"connected_time":266000000000,"state":"active","ping":41},{"user_id":229,"name":"ATL1 | ma0re","steam_id":76561199231971506,"connected_time":742000000000,"state":"active","ping":66}]},{"server_id":104,"name":"Uncletopia | Atlanta | 2 | All Maps","name_short":"atl-2","host":"atl-1.us.uncletopia.com","port":27025,"enabled":true,"region":"us-east","cc":"us","latitude":33.753746,"longitude":-84.38633,"reserved":0,"last_update":"0001-01-01T00:00:00Z","name_a2s":"Uncletopia | Atlanta | 2 | All Maps","protocol":17,"map":"pl_borneo","folder":"tf","game":"Team Fortress","app_id":440,"player_count":24,"max_players":24,"Bots":0,"server_type":"Dedicated","server_os":"Linux","password":true,"vac":true,"version":"7757534","steam_id":85568392924469983,"keywords":["nocrits","nodmgspread","payload","uncletopia"],"game_id":440,"stv_port":27026,"stv_name":"Uncletopia | Atlanta | 2 | All Maps | STV","players":[{"user_id":77,"name":"DerpFamous","steam_id":76561198046167888,"connected_time":209000000000,"state":"active","ping":42},{"user_id":30,"name":"Starving African Kid","steam_id":76561199018754605,"connected_time":3426000000000,"state":"active","ping":68},{"user_id":42,"name":"Fish","steam_id":76561199439676949,"connected_time":3042000000000,"state":"active","ping":91},{"user_id":31,"name":"balls_on_toast","steam_id":76561198307702552,"connected_time":3350000000000,"state":"active","ping":130},{"user_id":22,"name":"cheapdisplay","steam_id":76561199206448493,"connected_time":3993000000000,"state":"active","ping":70},{"user_id":53,"name":"Dask","steam_id":76561198043385839,"connected_time":2805000000000,"state":"active","ping":71},{"user_id":64,"name":"MadEye","steam_id":76561198972627948,"connected_time":2168000000000,"state":"active","ping":49},{"user_id":79,"name":"Luka Tim","steam_id":76561198277163301,"connected_time":15000000000,"state":"active","ping":132},{"user_id":78,"name":"The_Stomach_Stone_Surgeon","steam_id":76561198044643725,"connected_time":99000000000,"state":"active","ping":49},{"user_id":70,"name":"uniwu - BUFF THE SPEED","steam_id":76561198864421290,"connected_time":956000000000,"state":"active","ping":41},{"user_id":72,"name":"Leftywalle","steam_id":76561198148553340,"connected_time":526000000000,"state":"active","ping":54},{"user_id":48,"name":"Kit kyat","steam_id":76561198235786296,"connected_time":2928000000000,"state":"active","ping":76},{"user_id":71,"name":"Mega","steam_id":76561198015987010,"connected_time":548000000000,"state":"active","ping":87},{"user_id":38,"name":"Mr_Frosty","steam_id":76561199380389079,"connected_time":3152000000000,"state":"active","ping":99},{"user_id":41,"name":"Shuu","steam_id":76561199199180558,"connected_time":3094000000000,"state":"active","ping":73},{"user_id":66,"name":"the doo doo man","steam_id":76561198057076267,"connected_time":1703000000000,"state":"active","ping":74},{"user_id":61,"name":"Metal Head","steam_id":76561198039662571,"connected_time":2483000000000,"state":"active","ping":60},{"user_id":46,"name":"Knight","steam_id":76561198154529952,"connected_time":2949000000000,"state":"active","ping":111},{"user_id":50,"name":"The Ghost of Jay Leno","steam_id":76561198058938897,"connected_time":2865000000000,"state":"active","ping":75},{"user_id":69,"name":"Partark","steam_id":76561198010265825,"connected_time":1181000000000,"state":"active","ping":44},{"user_id":51,"name":"kermitcreeper(ZAZA)","steam_id":76561199222829972,"connected_time":2858000000000,"state":"active","ping":75},{"user_id":62,"name":"Satan-2","steam_id":76561199231742764,"connected_time":2324000000000,"state":"active","ping":88},{"user_id":58,"name":"peace dog","steam_id":76561198267988522,"connected_time":2716000000000,"state":"active","ping":78},{"user_id":76,"name":"XBOX 360","steam_id":76561198066590783,"connected_time":425000000000,"state":"active","ping":75}]},{"server_id":400,"name":"Uncletopia | Atlanta | 3 | Community","name_short":"atl-3","host":"atl-1.us.uncletopia.com","port":27035,"enabled":true,"region":"us-east","cc":"us","latitude":33.753746,"longitude":-84.38633,"reserved":0,"last_update":"0001-01-01T00:00:00Z","name_a2s":"Uncletopia | Atlanta | 3 | Community","protocol":17,"map":"workshop/rd_asteroid_redux_b1.ugc2154902912","folder":"tf","game":"Team Fortress","app_id":440,"player_count":0,"max_players":24,"Bots":0,"server_type":"Dedicated","server_os":"Linux","password":true,"vac":true,"version":"7757534","steam_id":85568392924515187,"keywords":["beta","nocrits","nodmgspread","rd","uncletopia"],"game_id":440,"stv_port":27036,"stv_name":"Uncletopia | Atlanta | 3 | Community | STV","players":null},{"server_id":401,"name":"Uncletopia | Atlanta | 4 | No Payload","name_short":"atl-4","host":"atl-1.us.uncletopia.com","port":27045,"enabled":true,"region":"us-east","cc":"us","latitude":33.753746,"longitude":-84.38633,"reserved":0,"last_update":"0001-01-01T00:00:00Z","name_a2s":"","protocol":0,"map":"","folder":"","game":"","app_id":0,"player_count":0,"max_players":0,"Bots":0,"server_type":"","server_os":"","password":false,"vac":false,"version":"","steam_id":0,"keywords":null,"game_id":0,"stv_port":0,"stv_name":"","players":null},{"server_id":2,"name":"Uncletopia | Chicago | 1 | All Maps","name_short":"chi-1","host":"chi-1.us.uncletopia.com","port":27015,"enabled":true,"region":"us-central","cc":"us","latitude":41.881832,"longitude":-87.62318,"reserved":0,"last_update":"0001-01-01T00:00:00Z","name_a2s":"Uncletopia | Chicago | 1 | All Maps","protocol":17,"map":"pl_upward","folder":"tf","game":"Team Fortress","app_id":440,"player_count":24,"max_players":24,"Bots":0,"server_type":"Dedicated","server_os":"Linux","password":true,"vac":true,"version":"7757534","steam_id":85568392924469984,"keywords":["nocrits","nodmgspread","payload","uncletopia"],"game_id":440,"stv_port":27016,"stv_name":"Uncletopia | Chicago | 1 | All Maps | STV","players":[{"user_id":448,"name":"poop shisting","steam_id":76561198301019618,"connected_time":609000000000,"state":"active","ping":108},{"user_id":449,"name":"Thy.Roid","steam_id":76561198122291992,"connected_time":600000000000,"state":"active","ping":53},{"user_id":453,"name":"Enchanter110","steam_id":76561199017490425,"connected_time":550000000000,"state":"active","ping":89},{"user_id":456,"name":"'LaxAttack","steam_id":76561198044129346,"connected_time":460000000000,"state":"active","ping":71},{"user_id":394,"name":"vv","steam_id":76561198134813102,"connected_time":3264000000000,"state":"active","ping":55},{"user_id":457,"name":"Zoawsome","steam_id":76561198018758753,"connected_time":400000000000,"state":"active","ping":45},{"user_id":440,"name":"The Power","steam_id":76561198060566884,"connected_time":1228000000000,"state":"active","ping":136},{"user_id":441,"name":"hart","steam_id":76561198046073848,"connected_time":1206000000000,"state":"active","ping":90},{"user_id":425,"name":"Pazz :)","steam_id":76561198122629890,"connected_time":1915000000000,"state":"active","ping":61},{"user_id":438,"name":"BatJet","steam_id":76561198147738441,"connected_time":1424000000000,"state":"active","ping":110},{"user_id":409,"name":"Cerabond","steam_id":76561199230915333,"connected_time":2834000000000,"state":"active","ping":85},{"user_id":437,"name":"Monster","steam_id":76561198189429665,"connected_time":1439000000000,"state":"active","ping":73},{"user_id":408,"name":"oxycodone overdose","steam_id":76561198805511159,"connected_time":2913000000000,"state":"active","ping":60},{"user_id":446,"name":"clack","steam_id":76561198966980576,"connected_time":634000000000,"state":"active","ping":66},{"user_id":439,"name":"ChebJeb","steam_id":76561198981377081,"connected_time":1384000000000,"state":"active","ping":83},{"user_id":450,"name":"Ace4573","steam_id":76561198063524630,"connected_time":591000000000,"state":"active","ping":74},{"user_id":452,"name":"drdoofus123","steam_id":76561198016826181,"connected_time":563000000000,"state":"active","ping":75},{"user_id":430,"name":"B·µ¢g B‚Çí‚Çõ‚Çõ","steam_id":76561198090271815,"connected_time":1894000000000,"state":"active","ping":118},{"user_id":442,"name":"Shark Sandwich","steam_id":76561198025007938,"connected_time":1184000000000,"state":"active","ping":130},{"user_id":458,"name":"Herr M√ºller","steam_id":76561198064876829,"connected_time":381000000000,"state":"active","ping":96},{"user_id":421,"name":"seats","steam_id":76561197998756039,"connected_time":2210000000000,"state":"active","ping":100},{"user_id":445,"name":"Meringue","steam_id":76561198067899943,"connected_time":706000000000,"state":"active","ping":80},{"user_id":405,"name":"Yarn","steam_id":76561199227148369,"connected_time":2988000000000,"state":"active","ping":86},{"user_id":427,"name":"HiFivr","steam_id":76561198285190162,"connected_time":1915000000000,"state":"active","ping":75}]},{"server_id":106,"name":"Uncletopia | Chicago | 2 | All Maps","name_short":"chi-2","host":"chi-1.us.uncletopia.com","port":27025,"enabled":true,"region":"us-central","cc":"us","latitude":41.881832,"longitude":-87.62318,"reserved":0,"last_update":"0001-01-01T00:00:00Z","name_a2s":"Uncletopia | Chicago | 2 | All Maps","protocol":17,"map":"pl_borneo","folder":"tf","game":"Team Fortress","app_id":440,"player_count":24,"max_players":24,"Bots":0,"server_type":"Dedicated","server_os":"Linux","password":true,"vac":true,"version":"7757534","steam_id":85568392924469985,"keywords":["nocrits","nodmgspread","payload","uncletopia"],"game_id":440,"stv_port":27026,"stv_name":"Uncletopia | Chicago | 2 | All Maps | STV","players":[{"user_id":417,"name":"Waaagh!","steam_id":76561197995317887,"connected_time":2872000000000,"state":"active","ping":69},{"user_id":462,"name":"Dilly Pickles","steam_id":76561198312068499,"connected_time":411000000000,"state":"active","ping":81},{"user_id":446,"name":"∆ê’å—¥∆≥","steam_id":76561198099470277,"connected_time":1036000000000,"state":"active","ping":85},{"user_id":432,"name":"Highphin","steam_id":76561198986584680,"connected_time":1839000000000,"state":"active","ping":70},{"user_id":444,"name":"ComputeCore167","steam_id":76561198301250353,"connected_time":1089000000000,"state":"active","ping":238},{"user_id":445,"name":"The Regional Manager","steam_id":76561198825154890,"connected_time":1067000000000,"state":"active","ping":115},{"user_id":460,"name":"CupcakeWarlock","steam_id":76561198179963697,"connected_time":446000000000,"state":"active","ping":77},{"user_id":447,"name":"‚òÖ‚òÖthastephen‚òÖ‚òÖ","steam_id":76561198080289775,"connected_time":1015000000000,"state":"active","ping":102},{"user_id":441,"name":"Devoid","steam_id":76561198254039012,"connected_time":1439000000000,"state":"active","ping":50},{"user_id":448,"name":"Deiler","steam_id":76561198988955474,"connected_time":986000000000,"state":"active","ping":66},{"user_id":380,"name":"imeancereal","steam_id":76561199477267466,"connected_time":5167000000000,"state":"active","ping":115},{"user_id":461,"name":"Agent Butt Pimple F.B.I","steam_id":76561199125982967,"connected_time":429000000000,"state":"active","ping":62},{"user_id":464,"name":"Jim Eagle","steam_id":76561197964961639,"connected_time":148000000000,"state":"active","ping":85},{"user_id":457,"name":"A Lost CAWs","steam_id":76561198127120212,"connected_time":548000000000,"state":"active","ping":99},{"user_id":436,"name":"Mr. Mime","steam_id":76561199197676776,"connected_time":1828000000000,"state":"active","ping":60},{"user_id":458,"name":"Green/Black Weezer CD#36","steam_id":76561198851520459,"connected_time":530000000000,"state":"active","ping":79},{"user_id":459,"name":"bro","steam_id":76561198312153623,"connected_time":529000000000,"state":"active","ping":77},{"user_id":399,"name":"Kick Down Door 6:00AM TUCK‚òÉRO","steam_id":76561197976146738,"connected_time":3981000000000,"state":"active","ping":81},{"user_id":415,"name":"Scoober","steam_id":76561198079736959,"connected_time":2995000000000,"state":"active","ping":82},{"user_id":437,"name":"faxxy","steam_id":76561198079621240,"connected_time":1824000000000,"state":"active","ping":81},{"user_id":451,"name":"Mr. Cheesey","steam_id":76561198153462183,"connected_time":716000000000,"state":"active","ping":71},{"user_id":465,"name":"Eden Hazard","steam_id":76561198089241053,"connected_time":60000000000,"state":"active","ping":72},{"user_id":463,"name":"Slashes","steam_id":76561197968573499,"connected_time":365000000000,"state":"active","ping":79},{"user_id":450,"name":"Dongus","steam_id":76561197979056451,"connected_time":957000000000,"state":"active","ping":91}]},{"server_id":402,"name":"Uncletopia | Chicago | 3 | All Maps","name_short":"chi-3","host":"chi-1.us.uncletopia.com","port":27035,"enabled":true,"region":"us-central","cc":"us","latitude":41.881832,"longitude":-87.62318,"reserved":0,"last_update":"0001-01-01T00:00:00Z","name_a2s":"Uncletopia | Chicago | 3 | All Maps","protocol":17,"map":"pl_frontier_final","folder":"tf","game":"Team Fortress","app_id":440,"player_count":0,"max_players":24,"Bots":0,"server_type":"Dedicated","server_os":"Linux","password":true,"vac":true,"version":"7757534","steam_id":85568392924515191,"keywords":["nocrits","nodmgspread","payload","uncletopia"],"game_id":440,"stv_port":27036,"stv_name":"Uncletopia | Chicago | 3 | All Maps | STV","players":null},{"server_id":403,"name":"Uncletopia | Chicago | 4 | All Maps","name_short":"chi-4","host":"chi-1.us.uncletopia.com","port":27045,"enabled":true,"region":"us-central","cc":"us","latitude":41.881832,"longitude":-87.62318,"reserved":0,"last_update":"0001-01-01T00:00:00Z","name_a2s":"Uncletopia | Chicago | 4 | All Maps","protocol":17,"map":"cp_process_final","folder":"tf","game":"Team Fortress","app_id":440,"player_count":24,"max_players":24,"Bots":0,"server_type":"Dedicated","server_os":"Linux","password":true,"vac":true,"version":"7757534","steam_id":85568392924515193,"keywords":["cp","nocrits","nodmgspread","uncletopia"],"game_id":440,"stv_port":27046,"stv_name":"Uncletopia | Chicago | 4 | All Maps | STV","players":[{"user_id":46,"name":"jimmyfnaf172198yay","steam_id":76561198311446636,"connected_time":200000000000,"state":"active","ping":56},{"user_id":12,"name":"Coach McFish","steam_id":76561198210456405,"connected_time":2072000000000,"state":"active","ping":77},{"user_id":47,"name":"Apricot","steam_id":76561198355699935,"connected_time":151000000000,"state":"active","ping":71},{"user_id":42,"name":"jeff","steam_id":76561198059450566,"connected_time":506000000000,"state":"active","ping":60},{"user_id":16,"name":"1TheExterminator","steam_id":76561198972879727,"connected_time":1328000000000,"state":"active","ping":75},{"user_id":17,"name":"Sudiak","steam_id":76561198119246214,"connected_time":1216000000000,"state":"active","ping":67},{"user_id":45,"name":"MAXIMUM OVERDRIVE","steam_id":76561198113992547,"connected_time":288000000000,"state":"active","ping":87},{"user_id":19,"name":"The good NPC","steam_id":76561198431446386,"connected_time":1164000000000,"state":"active","ping":68},{"user_id":20,"name":"Goober","steam_id":76561198988863807,"connected_time":1152000000000,"state":"active","ping":71},{"user_id":21,"name":"Walkiing","steam_id":76561198074473413,"connected_time":1130000000000,"state":"active","ping":38},{"user_id":22,"name":"Ash Ketchup","steam_id":76561199056842761,"connected_time":1109000000000,"state":"active","ping":101},{"user_id":24,"name":"ÔºîÔºê Ôº¶Ôº∞Ôº≥","steam_id":76561198272394965,"connected_time":1023000000000,"state":"active","ping":134},{"user_id":43,"name":"Pan Wizard","steam_id":76561198031939694,"connected_time":495000000000,"state":"active","ping":80},{"user_id":26,"name":"jorjor wells","steam_id":76561199073429082,"connected_time":949000000000,"state":"active","ping":62},{"user_id":27,"name":"„ÄéHazon„Äè","steam_id":76561198119852107,"connected_time":901000000000,"state":"active","ping":76},{"user_id":28,"name":"Blud walked 0 miles üò≠üò≠\ufffd\ufffd\ufffd","steam_id":76561199285074344,"connected_time":887000000000,"state":"active","ping":55},{"user_id":48,"name":"Unchained Zeity","steam_id":76561198414129606,"connected_time":147000000000,"state":"active","ping":164},{"user_id":49,"name":"Raydn","steam_id":76561198418414338,"connected_time":130000000000,"state":"active","ping":77},{"user_id":41,"name":"breezewax","steam_id":76561198121702006,"connected_time":588000000000,"state":"active","ping":68},{"user_id":44,"name":"Fraklin","steam_id":76561198136451087,"connected_time":420000000000,"state":"active","ping":40},{"user_id":40,"name":"Evolution","steam_id":76561198144767370,"connected_time":637000000000,"state":"active","ping":47},{"user_id":35,"name":"Some Octopus Wizard","steam_id":76561198005470354,"connected_time":835000000000,"state":"active","ping":72},{"user_id":36,"name":"the bron jame","steam_id":76561198371235518,"connected_time":822000000000,"state":"active","ping":130},{"user_id":50,"name":"Wild_Rumpus","steam_id":76561198066393719,"connected_time":128000000000,"state":"active","ping":46}]},{"server_id":36,"name":"Uncletopia | Chicago | 5 | All Maps","name_short":"chi-5","host":"chi-2.us.uncletopia.com","port":27015,"enabled":true,"region":"us-central","cc":"us","latitude":41.881832,"longitude":-87.62318,"reserved":0,"last_update":"0001-01-01T00:00:00Z","name_a2s":"Uncletopia | Chicago | 5 | All Maps","protocol":17,"map":"koth_cascade","folder":"tf","game":"Team Fortress","app_id":440,"player_count":1,"max_players":24,"Bots":0,"server_type":"Dedicated","server_os":"Linux","password":true,"vac":true,"version":"7757534","steam_id":85568392924866362,"keywords":["cp","nocrits","nodmgspread","uncletopia"],"game_id":440,"stv_port":27016,"stv_name":"Uncletopia | Chicago | 5 | All Maps | STV","players":[{"user_id":12,"name":"Hammerhead","steam_id":76561198897122890,"connected_time":23000000000,"state":"active","ping":51}]},{"server_id":37,"name":"Uncletopia | Chicago | 6 | All Maps","name_short":"chi-6","host":"chi-2.us.uncletopia.com","port":27025,"enabled":true,"region":"us-central","cc":"us","latitude":41.881832,"longitude":-87.62318,"reserved":0,"last_update":"0001-01-01T00:00:00Z","name_a2s":"Uncletopia | Chicago | 6 | All Maps","protocol":17,"map":"pl_snowycoast","folder":"tf","game":"Team Fortress","app_id":440,"player_count":24,"max_players":24,"Bots":0,"server_type":"Dedicated","server_os":"Linux","password":true,"vac":true,"version":"7757534","steam_id":85568392924866363,"keywords":["nocrits","nodmgspread","payload","uncletopia"],"game_id":440,"stv_port":27026,"stv_name":"Uncletopia | Chicago | 6 | All Maps | STV","players":[{"user_id":249,"name":"Gaskranx","steam_id":76561198020269547,"connected_time":1476000000000,"state":"active","ping":66},{"user_id":243,"name":"Acro Banwagon","steam_id":76561198092451804,"connected_time":2011000000000,"state":"active","ping":75},{"user_id":238,"name":"Nassu","steam_id":76561198147367577,"connected_time":2183000000000,"state":"active","ping":69},{"user_id":253,"name":"Bergmann MP18","steam_id":76561198218417512,"connected_time":1377000000000,"state":"active","ping":92},{"user_id":257,"name":"Just A Red Cultist","steam_id":76561198369543102,"connected_time":1344000000000,"state":"active","ping":79},{"user_id":250,"name":"CollDragon","steam_id":76561198067534450,"connected_time":1452000000000,"state":"active","ping":69},{"user_id":266,"name":"garbo","steam_id":76561198149280150,"connected_time":897000000000,"state":"active","ping":100},{"user_id":239,"name":"footoftheday","steam_id":76561198052712449,"connected_time":2173000000000,"state":"active","ping":65},{"user_id":269,"name":"Fierian","steam_id":76561198132771619,"connected_time":583000000000,"state":"active","ping":64},{"user_id":85,"name":"Suns","steam_id":76561198272323195,"connected_time":14118000000000,"state":"active","ping":104},{"user_id":270,"name":"UncleGingy","steam_id":76561198007149535,"connected_time":540000000000,"state":"active","ping":64},{"user_id":273,"name":"BasicPeaches","steam_id":76561198190890150,"connected_time":102000000000,"state":"active","ping":77},{"user_id":170,"name":"Pussy Slambasket","steam_id":76561198093694322,"connected_time":8309000000000,"state":"active","ping":52},{"user_id":258,"name":"Endzilla88","steam_id":76561198257926514,"connected_time":1229000000000,"state":"active","ping":71},{"user_id":259,"name":"barbara","steam_id":76561198072417792,"connected_time":1224000000000,"state":"active","ping":112},{"user_id":232,"name":"NBA2k22hoodmoments","steam_id":76561198383103506,"connected_time":2479000000000,"state":"active","ping":49},{"user_id":263,"name":"Ursus Ludius","steam_id":76561198025470722,"connected_time":1127000000000,"state":"active","ping":89},{"user_id":261,"name":"Stick","steam_id":76561198001509374,"connected_time":1203000000000,"state":"active","ping":68},{"user_id":264,"name":"Stryker Donger","steam_id":76561198073542859,"connected_time":1071000000000,"state":"active","ping":105},{"user_id":268,"name":"magical_mage0","steam_id":76561198213271916,"connected_time":756000000000,"state":"active","ping":62},{"user_id":235,"name":"General Jimbo","steam_id":76561198075426735,"connected_time":2433000000000,"state":"active","ping":91},{"user_id":262,"name":"Lovedaddy","steam_id":76561198006569710,"connected_time":1200000000000,"state":"active","ping":89},{"user_id":271,"name":"volta","steam_id":76561199214283884,"connected_time":312000000000,"state":"active","ping":101},{"user_id":241,"name":"caljay","steam_id":76561198059257854,"connected_time":2071000000000,"state":"active","ping":52}]},{"server_id":38,"name":"Uncletopia | Chicago | 7 | Stopwatch Beta","name_short":"chi-7","host":"chi-2.us.uncletopia.com","port":27035,"enabled":true,"region":"us-central","cc":"us","latitude":41.881832,"longitude":-87.62318,"reserved":0,"last_update":"0001-01-01T00:00:00Z","name_a2s":"Uncletopia | Chicago | 7 | Stopwatch Beta","protocol":17,"map":"pl_barnblitz","folder":"tf","game":"Team Fortress","app_id":440,"player_count":0,"max_players":24,"Bots":0,"server_type":"Dedicated","server_os":"Linux","password":true,"vac":true,"version":"7757534","steam_id":85568392924866364,"keywords":["nocrits","nodmgspread","payload","uncletopia"],"game_id":440,"stv_port":27036,"stv_name":"Uncletopia | Chicago | 7 | Stopwatch Beta | STV","players":null},{"server_id":39,"name":"Uncletopia | Chicago | 8 | Community","name_short":"chi-8","host":"chi-2.us.uncletopia.com","port":27045,"enabled":true,"region":"us-central","cc":"us","latitude":41.881832,"longitude":-87.62318,"reserved":0,"last_update":"0001-01-01T00:00:00Z","name_a2s":"Uncletopia | Chicago | 8 | Community","protocol":17,"map":"koth_cascade","folder":"tf","game":"Team Fortress","app_id":440,"player_count":0,"max_players":24,"Bots":0,"server_type":"Dedicated","server_os":"Linux","password":true,"vac":true,"version":"7757534","steam_id":85568392924866365,"keywords":["cp","nocrits","nodmgspread","uncletopia"],"game_id":440,"stv_port":27046,"stv_name":"Uncletopia | Chicago | 8 | Community | STV","players":null},{"server_id":8,"name":"Uncletopia | Dallas | 1 | All Maps","name_short":"dal-1","host":"dal-1.us.uncletopia.com","port":27015,"enabled":true,"region":"us-central","cc":"us","latitude":32.779167,"longitude":-96.80889,"reserved":0,"last_update":"0001-01-01T00:00:00Z","name_a2s":"Uncletopia | Dallas | 1 | All Maps","protocol":17,"map":"pl_upward","folder":"tf","game":"Team Fortress","app_id":440,"player_count":20,"max_players":24,"Bots":0,"server_type":"Dedicated","server_os":"Linux","password":true,"vac":true,"version":"7757534","steam_id":85568392924469986,"keywords":["nocrits","nodmgspread","payload","uncletopia"],"game_id":440,"stv_port":27016,"stv_name":"Uncletopia | Dallas | 1 | All Maps | STV","players":[{"user_id":442,"name":"Moonflower ‚ú¶","steam_id":76561198191782483,"connected_time":2611000000000,"state":"active","ping":51},{"user_id":458,"name":"Jared In Target","steam_id":76561198372449718,"connected_time":650000000000,"state":"active","ping":39},{"user_id":465,"name":"spy","steam_id":76561198937717599,"connected_time":127000000000,"state":"active","ping":41},{"user_id":447,"name":"Wingman","steam_id":76561198066270405,"connected_time":2059000000000,"state":"active","ping":75},{"user_id":460,"name":"sly1","steam_id":76561198049014977,"connected_time":385000000000,"state":"active","ping":91},{"user_id":440,"name":"Mint Silver","steam_id":76561198341221698,"connected_time":2832000000000,"state":"active","ping":30},{"user_id":451,"name":"Xraverz","steam_id":76561198008891628,"connected_time":1536000000000,"state":"active","ping":92},{"user_id":459,"name":"Captain Falcon real","steam_id":76561198171082595,"connected_time":545000000000,"state":"active","ping":77},{"user_id":466,"name":"kid named weezer","steam_id":76561198813566335,"connected_time":90000000000,"state":"active","ping":77},{"user_id":467,"name":"White-_-Rose","steam_id":76561198084088891,"connected_time":89000000000,"state":"active","ping":79},{"user_id":462,"name":"pasta","steam_id":76561198084719895,"connected_time":378000000000,"state":"active","ping":75},{"user_id":364,"name":"üê∫-Iwky-ü¶ä","steam_id":76561198185616311,"connected_time":10034000000000,"state":"active","ping":68},{"user_id":470,"name":"Engineer Gaming","steam_id":76561198840761529,"connected_time":60000000000,"state":"active","ping":60},{"user_id":469,"name":"HighJingo","steam_id":76561198846814390,"connected_time":64000000000,"state":"active","ping":261},{"user_id":464,"name":"The Narrator","steam_id":76561198155694887,"connected_time":138000000000,"state":"active","ping":85},{"user_id":471,"name":"Aurro","steam_id":76561198315692300,"connected_time":39000000000,"state":"active","ping":68},{"user_id":450,"name":"trinqette","steam_id":76561198119543621,"connected_time":1658000000000,"state":"active","ping":61},{"user_id":454,"name":"‚ô• thedittoguy ‚ô•","steam_id":76561199013129784,"connected_time":972000000000,"state":"active","ping":46},{"user_id":428,"name":"Mynameisbeep","steam_id":76561198041988517,"connected_time":3932000000000,"state":"active","ping":96},{"user_id":446,"name":"Spoods","steam_id":76561198245568710,"connected_time":2600000000000,"state":"active","ping":95}]},{"server_id":108,"name":"Uncletopia | Dallas | 2 | All Maps","name_short":"dal-2","host":"dal-1.us.uncletopia.com","port":27025,"enabled":true,"region":"us-central","cc":"us","latitude":32.779167,"longitude":-96.80889,"reserved":0,"last_update":"0001-01-01T00:00:00Z","name_a2s":"Uncletopia | Dallas | 2 | All Maps","protocol":17,"map":"pl_borneo","folder":"tf","game":"Team Fortress","app_id":440,"player_count":23,"max_players":24,"Bots":0,"server_type":"Dedicated","server_os":"Linux","password":true,"vac":true,"version":"7757534","steam_id":85568392924469988,"keywords":["nocrits","nodmgspread","payload","uncletopia"],"game_id":440,"stv_port":27026,"stv_name":"Uncletopia | Dallas | 2 | All Maps | STV","players":[{"user_id":389,"name":"cherry29","steam_id":76561198110449171,"connected_time":31000000000,"state":"active","ping":88},{"user_id":388,"name":"mari_","steam_id":76561198137855741,"connected_time":50000000000,"state":"active","ping":78},{"user_id":335,"name":"Mellou","steam_id":76561198212048740,"connected_time":3907000000000,"state":"active","ping":46},{"user_id":385,"name":"ShapedSilver","steam_id":76561199073305310,"connected_time":521000000000,"state":"active","ping":60},{"user_id":348,"name":"Aimainiac","steam_id":76561199099640358,"connected_time":3080000000000,"state":"active","ping":79},{"user_id":372,"name":"Detrimental","steam_id":76561199152388008,"connected_time":1709000000000,"state":"active","ping":74},{"user_id":371,"name":"Discourse","steam_id":76561198984286678,"connected_time":1717000000000,"state":"active","ping":76},{"user_id":337,"name":"Daehypeels","steam_id":76561198268981599,"connected_time":3848000000000,"state":"active","ping":83},{"user_id":373,"name":"Voids","steam_id":76561198128386726,"connected_time":1701000000000,"state":"active","ping":75},{"user_id":370,"name":"(2)Tcmango","steam_id":76561198056618642,"connected_time":1776000000000,"state":"active","ping":42},{"user_id":386,"name":"Pathara44","steam_id":76561198048238620,"connected_time":507000000000,"state":"active","ping":78},{"user_id":380,"name":"clenZORZ","steam_id":76561198835570628,"connected_time":1275000000000,"state":"active","ping":57},{"user_id":387,"name":"Adawnby","steam_id":76561198103057295,"connected_time":481000000000,"state":"active","ping":55},{"user_id":367,"name":"Rafl","steam_id":76561198055222756,"connected_time":1893000000000,"state":"active","ping":44},{"user_id":328,"name":"(1)Tcmango","steam_id":76561198057233847,"connected_time":4581000000000,"state":"active","ping":76},{"user_id":314,"name":"Tcmango","steam_id":76561198150447896,"connected_time":5576000000000,"state":"active","ping":83},{"user_id":354,"name":"CFG Ponder","steam_id":76561198127039453,"connected_time":2829000000000,"state":"active","ping":74},{"user_id":375,"name":"Heisenberg","steam_id":76561199060575719,"connected_time":1674000000000,"state":"active","ping":92},{"user_id":359,"name":"Campasrt","steam_id":76561198165410359,"connected_time":2309000000000,"state":"active","ping":76},{"user_id":383,"name":"Outlander","steam_id":76561197998995746,"connected_time":614000000000,"state":"active","ping":71},{"user_id":311,"name":"Temujin","steam_id":76561198030936583,"connected_time":6216000000000,"state":"active","ping":67},{"user_id":356,"name":"boosted honda","steam_id":76561198872639737,"connected_time":2757000000000,"state":"active","ping":78},{"user_id":382,"name":"Big Cat, CEO of Pain Train Inc.","steam_id":76561198115695203,"connected_time":742000000000,"state":"active","ping":50}]},{"server_id":5,"name":"Uncletopia | Frankfurt | 1 | All Maps","name_short":"frk-1","host":"frk-1.de.uncletopia.com","port":27015,"enabled":true,"region":"eu","cc":"de","latitude":50.110924,"longitude":8.682127,"reserved":0,"last_update":"0001-01-01T00:00:00Z","name_a2s":"Uncletopia | Frankfurt | 1 | All Maps","protocol":17,"map":"pl_snowycoast","folder":"tf","game":"Team Fortress","app_id":440,"player_count":24,"max_players":24,"Bots":0,"server_type":"Dedicated","server_os":"Linux","password":true,"vac":true,"version":"7757534","steam_id":85568392924469989,"keywords":["nocrits","nodmgspread","payload","uncletopia"],"game_id":440,"stv_port":27016,"stv_name":"Uncletopia | Frankfurt | 1 | All Maps | STV","players":[{"user_id":182,"name":"It's a me Malario","steam_id":76561198176546013,"connected_time":3151000000000,"state":"active","ping":61},{"user_id":204,"name":"HRCR118","steam_id":76561199146388596,"connected_time":1418000000000,"state":"active","ping":83},{"user_id":208,"name":"Doctor Marijuana","steam_id":76561198288289879,"connected_time":1390000000000,"state":"active","ping":65},{"user_id":133,"name":"Serton‚ôù","steam_id":76561198011061126,"connected_time":6125000000000,"state":"active","ping":79},{"user_id":185,"name":"Lord","steam_id":76561198241305816,"connected_time":2606000000000,"state":"active","ping":111},{"user_id":209,"name":"Kingsley","steam_id":76561198210210543,"connected_time":1388000000000,"state":"active","ping":58},{"user_id":138,"name":"‚ô• ‚ô• Sp3ll soo SeXy ÊÆ∫Êâã#1","steam_id":76561197970593737,"connected_time":5711000000000,"state":"active","ping":64},{"user_id":216,"name":"nynon","steam_id":76561197998432126,"connected_time":167000000000,"state":"active","ping":91},{"user_id":155,"name":"edsuedi","steam_id":76561198074722832,"connected_time":5190000000000,"state":"active","ping":57},{"user_id":158,"name":"Ember (she/her) Nya","steam_id":76561199403820517,"connected_time":4811000000000,"state":"active","ping":66},{"user_id":193,"name":"Edla","steam_id":76561198062815315,"connected_time":2144000000000,"state":"active","ping":109},{"user_id":184,"name":"zoinks!","steam_id":76561198068645362,"connected_time":2716000000000,"state":"active","ping":56},{"user_id":214,"name":"Insain Bolt!","steam_id":76561198025687726,"connected_time":540000000000,"state":"active","ping":69},{"user_id":180,"name":"homeinvasion$","steam_id":76561199111905021,"connected_time":3302000000000,"state":"active","ping":117},{"user_id":154,"name":"LarsInABox","steam_id":76561198028329262,"connected_time":5378000000000,"state":"active","ping":75},{"user_id":200,"name":"khan bram","steam_id":76561198034596820,"connected_time":1893000000000,"state":"active","ping":48},{"user_id":201,"name":"ghost","steam_id":76561198189940229,"connected_time":1595000000000,"state":"active","ping":52},{"user_id":210,"name":"Mach (need Frens close)","steam_id":76561198952487564,"connected_time":1292000000000,"state":"active","ping":153},{"user_id":217,"name":"Leah","steam_id":76561198064681443,"connected_time":120000000000,"state":"active","ping":75},{"user_id":179,"name":"john stick","steam_id":76561198165998678,"connected_time":3361000000000,"state":"active","ping":71},{"user_id":171,"name":"cursedbygod‚ô°","steam_id":76561198318291047,"connected_time":3896000000000,"state":"active","ping":110},{"user_id":211,"name":"etc","steam_id":76561197998394797,"connected_time":739000000000,"state":"active","ping":63},{"user_id":212,"name":"dn4k","steam_id":76561199221755690,"connected_time":707000000000,"state":"active","ping":78},{"user_id":206,"name":"[Walmart] HatsuneMiku","steam_id":76561198843075093,"connected_time":1407000000000,"state":"active","ping":77}]},{"server_id":110,"name":"Uncletopia | Frankfurt | 2 | All Maps","name_short":"frk-2","host":"frk-1.de.uncletopia.com","port":27025,"enabled":true,"region":"eu","cc":"de","latitude":50.110924,"longitude":8.682127,"reserved":0,"last_update":"0001-01-01T00:00:00Z","name_a2s":"Uncletopia | Frankfurt | 2 | All Maps","protocol":17,"map":"plr_bananabay","folder":"tf","game":"Team Fortress","app_id":440,"player_count":24,"max_players":24,"Bots":0,"server_type":"Dedicated","server_os":"Linux","password":true,"vac":true,"version":"7757534","steam_id":85568392924469990,"keywords":["nocrits","nodmgspread","payload","uncletopia"],"game_id":440,"stv_port":27026,"stv_name":"Uncletopia | Frankfurt | 2 | All Maps | STV","players":[{"user_id":282,"name":"Z3nith","steam_id":76561198368565336,"connected_time":403000000000,"state":"active","ping":72},{"user_id":283,"name":"lvl. 50 honkler","steam_id":76561198061688660,"connected_time":388000000000,"state":"active","ping":99},{"user_id":284,"name":"Garoiop","steam_id":76561198082326459,"connected_time":376000000000,"state":"active","ping":46},{"user_id":285,"name":"BetterLugi","steam_id":76561198326415562,"connected_time":364000000000,"state":"active","ping":67},{"user_id":244,"name":"hud_saytext_time 0","steam_id":76561198010327228,"connected_time":3311000000000,"state":"active","ping":58},{"user_id":286,"name":"Olvustin","steam_id":76561198272011453,"connected_time":246000000000,"state":"active","ping":132},{"user_id":240,"name":"Dark ^^","steam_id":76561198036241064,"connected_time":3586000000000,"state":"active","ping":57},{"user_id":287,"name":"8 Ball","steam_id":76561197960988736,"connected_time":228000000000,"state":"active","ping":61},{"user_id":288,"name":"Noodle","steam_id":76561198306486695,"connected_time":212000000000,"state":"active","ping":58},{"user_id":290,"name":"Kardia","steam_id":76561198886714986,"connected_time":79000000000,"state":"active","ping":168},{"user_id":291,"name":"Uncle Moomin","steam_id":76561198011628656,"connected_time":30000000000,"state":"active","ping":77},{"user_id":292,"name":"nicco","steam_id":76561198046217866,"connected_time":15000000000,"state":"active","ping":88},{"user_id":280,"name":".::[SerafeTTiN]::.","steam_id":76561198009471724,"connected_time":511000000000,"state":"active","ping":86},{"user_id":259,"name":"Qwerty","steam_id":76561198023525894,"connected_time":2187000000000,"state":"active","ping":86},{"user_id":252,"name":"Angelatine(slut)","steam_id":76561198101624996,"connected_time":2853000000000,"state":"active","ping":92},{"user_id":293,"name":"Wubba","steam_id":76561198421341789,"connected_time":8000000000,"state":"active","ping":111},{"user_id":220,"name":"Zelmor","steam_id":76561197997708311,"connected_time":5099000000000,"state":"active","ping":46},{"user_id":249,"name":"ZanzibarPalm","steam_id":76561198059508828,"connected_time":3242000000000,"state":"active","ping":76},{"user_id":262,"name":"jD_x2r2","steam_id":76561198061001376,"connected_time":2072000000000,"state":"active","ping":62},{"user_id":274,"name":"Vanilla","steam_id":76561198073933435,"connected_time":1727000000000,"state":"active","ping":70},{"user_id":265,"name":"‚òÖpoyo‚òÖ","steam_id":76561198150078959,"connected_time":2027000000000,"state":"active","ping":73},{"user_id":277,"name":"Deacon Dracul","steam_id":76561198046880663,"connected_time":1181000000000,"state":"active","ping":91},{"user_id":281,"name":"Umbro","steam_id":76561198087930438,"connected_time":414000000000,"state":"active","ping":74},{"user_id":251,"name":"Tofu'","steam_id":76561197984621343,"connected_time":2974000000000,"state":"active","ping":51}]},{"server_id":308,"name":"Uncletopia | Frankfurt | 3 | All Maps","name_short":"frk-3","host":"frk-1.de.uncletopia.com","port":27035,"enabled":true,"region":"eu","cc":"de","latitude":50.110924,"longitude":8.682127,"reserved":0,"last_update":"0001-01-01T00:00:00Z","name_a2s":"Uncletopia | Frankfurt | 3 | All Maps","protocol":17,"map":"koth_highpass","folder":"tf","game":"Team Fortress","app_id":440,"player_count":0,"max_players":24,"Bots":0,"server_type":"Dedicated","server_os":"Linux","password":true,"vac":true,"version":"7757534","steam_id":85568392924504274,"keywords":["cp","nocrits","nodmgspread","uncletopia"],"game_id":440,"stv_port":27036,"stv_name":"Uncletopia | Frankfurt | 3 | All Maps | STV","players":null},{"server_id":309,"name":"Uncletopia | Frankfurt | 4 | All Maps","name_short":"frk-4","host":"frk-1.de.uncletopia.com","port":27045,"enabled":true,"region":"eu","cc":"de","latitude":50.110924,"longitude":8.682127,"reserved":0,"last_update":"0001-01-01T00:00:00Z","name_a2s":"Uncletopia | Frankfurt | 4 | All Maps","protocol":17,"map":"koth_viaduct","folder":"tf","game":"Team Fortress","app_id":440,"player_count":0,"max_players":24,"Bots":0,"server_type":"Dedicated","server_os":"Linux","password":true,"vac":true,"version":"7757534","steam_id":85568392924504275,"keywords":["cp","nocrits","nodmgspread","uncletopia"],"game_id":440,"stv_port":27046,"stv_name":"Uncletopia | Frankfurt | 4 | All Maps | STV","players":null},{"server_id":310,"name":"Uncletopia | Frankfurt | 5 | All Maps","name_short":"frk-5","host":"frk-1.de.uncletopia.com","port":27055,"enabled":true,"region":"eu","cc":"de","latitude":50.110924,"longitude":8.682127,"reserved":0,"last_update":"0001-01-01T00:00:00Z","name_a2s":"Uncletopia | Frankfurt | 5 | All Maps","protocol":17,"map":"pl_badwater","folder":"tf","game":"Team Fortress","app_id":440,"player_count":24,"max_players":24,"Bots":0,"server_type":"Dedicated","server_os":"Linux","password":true,"vac":true,"version":"7757534","steam_id":85568392924504277,"keywords":["nocrits","nodmgspread","payload","uncletopia"],"game_id":440,"stv_port":27056,"stv_name":"Uncletopia | Frankfurt | 5 | All Maps | STV","players":[{"user_id":566,"name":"Kris","steam_id":76561198240638652,"connected_time":306000000000,"state":"active","ping":45},{"user_id":559,"name":"Eivind","steam_id":76561198159927980,"connected_time":505000000000,"state":"active","ping":71},{"user_id":540,"name":"FB1_Destro","steam_id":76561199061003259,"connected_time":1377000000000,"state":"active","ping":175},{"user_id":545,"name":"Fat Pigeon","steam_id":76561198817940142,"connected_time":1202000000000,"state":"active","ping":46},{"user_id":491,"name":"Bad Medic","steam_id":76561198117539276,"connected_time":4861000000000,"state":"active","ping":83},{"user_id":561,"name":"alphareroooo","steam_id":76561198380799823,"connected_time":397000000000,"state":"active","ping":72},{"user_id":562,"name":"MatesThePlayer","steam_id":76561198066156449,"connected_time":393000000000,"state":"active","ping":47},{"user_id":551,"name":"Johan","steam_id":76561199380849468,"connected_time":1048000000000,"state":"active","ping":60},{"user_id":563,"name":"bobek","steam_id":76561198092312720,"connected_time":387000000000,"state":"active","ping":60},{"user_id":552,"name":"www.twitch.tv/kirkan","steam_id":76561198029873185,"connected_time":1040000000000,"state":"active","ping":58},{"user_id":564,"name":"Russenluster","steam_id":76561198118016220,"connected_time":364000000000,"state":"active","ping":59},{"user_id":555,"name":"Ziltoid","steam_id":76561198020753675,"connected_time":830000000000,"state":"active","ping":74},{"user_id":541,"name":"Mr_Pulse_","steam_id":76561198095001602,"connected_time":1374000000000,"state":"active","ping":87},{"user_id":558,"name":"Lessoz","steam_id":76561199211572036,"connected_time":631000000000,"state":"active","ping":95},{"user_id":565,"name":"Udinese Dion","steam_id":76561198067931573,"connected_time":335000000000,"state":"active","ping":49},{"user_id":529,"name":"TOG II*","steam_id":76561197993906091,"connected_time":2329000000000,"state":"active","ping":58},{"user_id":533,"name":"lugi","steam_id":76561198121971994,"connected_time":1974000000000,"state":"active","ping":78},{"user_id":520,"name":"honey","steam_id":76561198345972230,"connected_time":2698000000000,"state":"active","ping":78},{"user_id":530,"name":"Een schaap zonder slaap","steam_id":76561198084808410,"connected_time":2314000000000,"state":"active","ping":61},{"user_id":568,"name":"STiNGHAN","steam_id":76561198023989090,"connected_time":285000000000,"state":"active","ping":80},{"user_id":546,"name":"not a nihilist","steam_id":76561198004340466,"connected_time":1186000000000,"state":"active","ping":54},{"user_id":535,"name":"truebosnianking","steam_id":76561199440060597,"connected_time":1889000000000,"state":"active","ping":89},{"user_id":569,"name":"lol.com","steam_id":76561198231764164,"connected_time":274000000000,"state":"active","ping":44},{"user_id":571,"name":"another penguin","steam_id":76561198004044899,"connected_time":41000000000,"state":"spawning","ping":108}]},{"server_id":311,"name":"Uncletopia | Frankfurt | 6 | All Maps","name_short":"frk-6","host":"frk-1.de.uncletopia.com","port":27065,"enabled":true,"region":"eu","cc":"de","latitude":50.110924,"longitude":8.682127,"reserved":0,"last_update":"0001-01-01T00:00:00Z","name_a2s":"Uncletopia | Frankfurt | 6 | All Maps","protocol":17,"map":"cp_sunshine","folder":"tf","game":"Team Fortress","app_id":440,"player_count":18,"max_players":24,"Bots":0,"server_type":"Dedicated","server_os":"Linux","password":true,"vac":true,"version":"7757534","steam_id":85568392924504278,"keywords":["cp","nocrits","nodmgspread","uncletopia"],"game_id":440,"stv_port":27066,"stv_name":"Uncletopia | Frankfurt | 6 | All Maps | STV","players":[{"user_id":733,"name":"Brezak","steam_id":76561198967550414,"connected_time":664000000000,"state":"spawning","ping":60},{"user_id":742,"name":"swallowed 10 pennies please hel","steam_id":76561198055816412,"connected_time":30000000000,"state":"connecting","ping":60},{"user_id":729,"name":"SoupER","steam_id":76561198063056668,"connected_time":741000000000,"state":"spawning","ping":66},{"user_id":741,"name":"biohazard.pt","steam_id":76561198088367808,"connected_time":193000000000,"state":"spawning","ping":110},{"user_id":739,"name":"Anti_Dragon","steam_id":76561198969060607,"connected_time":539000000000,"state":"spawning","ping":104},{"user_id":641,"name":"Fruit","steam_id":76561198346687933,"connected_time":5868000000000,"state":"active","ping":73},{"user_id":709,"name":"Kn√∂sta","steam_id":76561198143422139,"connected_time":1659000000000,"state":"spawning","ping":227},{"user_id":696,"name":"asdqwer","steam_id":76561198058312220,"connected_time":2241000000000,"state":"active","ping":62},{"user_id":721,"name":"breedable","steam_id":76561198010300032,"connected_time":1401000000000,"state":"active","ping":78},{"user_id":730,"name":"midlpsyzl47","steam_id":76561199475972637,"connected_time":737000000000,"state":"spawning","ping":165},{"user_id":697,"name":"nyanezt","steam_id":76561198253734265,"connected_time":2169000000000,"state":"spawning","ping":162},{"user_id":703,"name":"Bgm_","steam_id":76561198056452044,"connected_time":1979000000000,"state":"active","ping":101},{"user_id":714,"name":"mespe","steam_id":76561198121530649,"connected_time":1589000000000,"state":"active","ping":102},{"user_id":740,"name":"[BGS] One-Punch Retard","steam_id":76561198029932939,"connected_time":450000000000,"state":"spawning","ping":74},{"user_id":716,"name":"Thunderstab","steam_id":76561198061779520,"connected_time":1542000000000,"state":"active","ping":166},{"user_id":681,"name":"BUREK od Sira","steam_id":76561198092589818,"connected_time":2816000000000,"state":"spawning","ping":249},{"user_id":717,"name":"TidB","steam_id":76561198055342304,"connected_time":1536000000000,"state":"active","ping":60},{"user_id":719,"name":"cool evan","steam_id":76561198119515966,"connected_time":1519000000000,"state":"spawning","ping":62}]},{"server_id":23,"name":"Uncletopia | Frankfurt | 7 | Stopwatch Beta","name_short":"frk-7","host":"frk-1.de.uncletopia.com","port":27075,"enabled":true,"region":"eu","cc":"de","latitude":50.110924,"longitude":8.682127,"reserved":0,"last_update":"0001-01-01T00:00:00Z","name_a2s":"Uncletopia | Frankfurt | 7 | Stopwatch Beta","protocol":17,"map":"pl_upward","folder":"tf","game":"Team Fortress","app_id":440,"player_count":0,"max_players":24,"Bots":0,"server_type":"Dedicated","server_os":"Linux","password":true,"vac":true,"version":"7757534","steam_id":85568392924742827,"keywords":["nocrits","nodmgspread","payload","uncletopia"],"game_id":440,"stv_port":27076,"stv_name":"Uncletopia | Frankfurt | 7 | Stopwatch Beta | STV","players":null},{"server_id":24,"name":"Uncletopia | Frankfurt | 8 | Community","name_short":"frk-8","host":"frk-1.de.uncletopia.com","port":27085,"enabled":true,"region":"eu","cc":"de","latitude":50.110924,"longitude":8.682127,"reserved":0,"last_update":"0001-01-01T00:00:00Z","name_a2s":"Uncletopia | Frankfurt | 8 | Community","protocol":17,"map":"workshop/koth_synthetic_rc6a.ugc1549817316","folder":"tf","game":"Team Fortress","app_id":440,"player_count":0,"max_players":24,"Bots":0,"server_type":"Dedicated","server_os":"Linux","password":true,"vac":true,"version":"7757534","steam_id":85568392924742828,"keywords":["cp","nocrits","nodmgspread","uncletopia"],"game_id":440,"stv_port":27086,"stv_name":"Uncletopia | Frankfurt | 8 | Community | STV","players":null},{"server_id":202,"name":"Uncletopia | Hong Kong | 1 | All Maps","name_short":"hgk-1","host":"hgk-1.hk.uncletopia.com","port":27015,"enabled":true,"region":"asia","cc":"hk","latitude":22.302711,"longitude":114.177216,"reserved":0,"last_update":"0001-01-01T00:00:00Z","name_a2s":"Uncletopia | Hong Kong | 1 | All Maps","protocol":17,"map":"koth_viaduct","folder":"tf","game":"Team Fortress","app_id":440,"player_count":0,"max_players":24,"Bots":0,"server_type":"Dedicated","server_os":"Linux","password":true,"vac":true,"version":"7757534","steam_id":85568392924494504,"keywords":["cp","nocrits","nodmgspread","uncletopia"],"game_id":440,"stv_port":27016,"stv_name":"Uncletopia | Hong Kong | 1 | All Maps | STV","players":null},{"server_id":1,"name":"Uncletopia | Los Angeles | 1 | All Maps","name_short":"lax-1","host":"lax-1.us.uncletopia.com","port":27015,"enabled":true,"region":"us-west","cc":"us","latitude":33.94279,"longitude":-118.41004,"reserved":0,"last_update":"0001-01-01T00:00:00Z","name_a2s":"Uncletopia | Los Angeles | 1 | All Maps","protocol":17,"map":"koth_lakeside_final","folder":"tf","game":"Team Fortress","app_id":440,"player_count":0,"max_players":24,"Bots":0,"server_type":"Dedicated","server_os":"Linux","password":true,"vac":true,"version":"7757534","steam_id":85568392924469991,"keywords":["cp","nocrits","nodmgspread","uncletopia"],"game_id":440,"stv_port":27016,"stv_name":"Uncletopia | Los Angeles | 1 | All Maps | STV","players":null},{"server_id":112,"name":"Uncletopia | Los Angeles | 2 | All Maps","name_short":"lax-2","host":"lax-1.us.uncletopia.com","port":27025,"enabled":true,"region":"us-west","cc":"us","latitude":33.94279,"longitude":-118.41004,"reserved":0,"last_update":"0001-01-01T00:00:00Z","name_a2s":"Uncletopia | Los Angeles | 2 | All Maps","protocol":17,"map":"cp_snakewater_final1","folder":"tf","game":"Team Fortress","app_id":440,"player_count":16,"max_players":24,"Bots":0,"server_type":"Dedicated","server_os":"Linux","password":true,"vac":true,"version":"7757534","steam_id":85568392924469992,"keywords":["cp","nocrits","nodmgspread","uncletopia"],"game_id":440,"stv_port":27026,"stv_name":"Uncletopia | Los Angeles | 2 | All Maps | STV","players":[{"user_id":6,"name":"HWAY","steam_id":76561199230776464,"connected_time":1316000000000,"state":"active","ping":214},{"user_id":5,"name":"stboncho","steam_id":76561198172275301,"connected_time":1734000000000,"state":"active","ping":66},{"user_id":9,"name":"dagoth ur","steam_id":76561199338313228,"connected_time":735000000000,"state":"active","ping":105},{"user_id":8,"name":"Orbs","steam_id":76561198075938744,"connected_time":1092000000000,"state":"active","ping":46},{"user_id":10,"name":"Goldensliv","steam_id":76561198161673891,"connected_time":727000000000,"state":"active","ping":44},{"user_id":11,"name":"Sprit ‚ô•","steam_id":76561198268780781,"connected_time":724000000000,"state":"active","ping":104},{"user_id":12,"name":"schnedwob","steam_id":76561197999146588,"connected_time":701000000000,"state":"active","ping":73},{"user_id":13,"name":"Bicep Boi","steam_id":76561198169128060,"connected_time":663000000000,"state":"active","ping":88},{"user_id":14,"name":"Lo-Pan","steam_id":76561198085670133,"connected_time":641000000000,"state":"active","ping":85},{"user_id":19,"name":"caskett","steam_id":76561198141873995,"connected_time":349000000000,"state":"active","ping":68},{"user_id":16,"name":"ThatChapFromCanada","steam_id":76561198082772227,"connected_time":575000000000,"state":"active","ping":98},{"user_id":17,"name":"Maid 'n' China","steam_id":76561198423392976,"connected_time":503000000000,"state":"active","ping":51},{"user_id":22,"name":"Yoyo-Wo","steam_id":76561198880520205,"connected_time":117000000000,"state":"active","ping":89},{"user_id":21,"name":"Matt","steam_id":76561199122703238,"connected_time":232000000000,"state":"active","ping":65},{"user_id":23,"name":"Chillin Turt","steam_id":76561198025796849,"connected_time":114000000000,"state":"active","ping":94},{"user_id":24,"name":"Shy'dynasty","steam_id":76561197982458516,"connected_time":32000000000,"state":"active","ping":81}]},{"server_id":324,"name":"Uncletopia | Los Angeles | 3 | All Maps","name_short":"lax-3","host":"lax-1.us.uncletopia.com","port":27035,"enabled":true,"region":"us-west","cc":"us","latitude":33.94279,"longitude":-118.41004,"reserved":0,"last_update":"0001-01-01T00:00:00Z","name_a2s":"Uncletopia | Los Angeles | 3 | All Maps","protocol":17,"map":"pl_barnblitz","folder":"tf","game":"Team Fortress","app_id":440,"player_count":0,"max_players":24,"Bots":0,"server_type":"Dedicated","server_os":"Linux","password":true,"vac":true,"version":"7757534","steam_id":85568392924510198,"keywords":["nocrits","nodmgspread","payload","uncletopia"],"game_id":440,"stv_port":27036,"stv_name":"Uncletopia | Los Angeles | 3 | All Maps | STV","players":null},{"server_id":25,"name":"Uncletopia | Los Angeles | 4 | Stopwatch Beta","name_short":"lax-4","host":"lax-1.us.uncletopia.com","port":27045,"enabled":true,"region":"us-west","cc":"us","latitude":33.94279,"longitude":-118.41004,"reserved":0,"last_update":"0001-01-01T00:00:00Z","name_a2s":"Uncletopia | Los Angeles | 4 | Stopwatch Beta","protocol":17,"map":"pl_swiftwater_final1","folder":"tf","game":"Team Fortress","app_id":440,"player_count":0,"max_players":24,"Bots":0,"server_type":"Dedicated","server_os":"Linux","password":true,"vac":true,"version":"7757534","steam_id":85568392924510199,"keywords":["nocrits","nodmgspread","payload","uncletopia"],"game_id":440,"stv_port":27046,"stv_name":"Uncletopia | Los Angeles | 4 | Stopwatch Beta | STV","players":null},{"server_id":11,"name":"Uncletopia | London | 1 | All Maps","name_short":"lon-1","host":"lon-1.uk.uncletopia.com","port":27015,"enabled":true,"region":"eu","cc":"gb","latitude":51.509865,"longitude":-0.118092,"reserved":0,"last_update":"0001-01-01T00:00:00Z","name_a2s":"Uncletopia | London | 1 | All Maps","protocol":17,"map":"pl_borneo","folder":"tf","game":"Team Fortress","app_id":440,"player_count":24,"max_players":24,"Bots":0,"server_type":"Dedicated","server_os":"Linux","password":true,"vac":true,"version":"7757534","steam_id":85568392924367362,"keywords":["nocrits","nodmgspread","payload","uncletopia"],"game_id":440,"stv_port":27016,"stv_name":"Uncletopia | London | 1 | All Maps | STV","players":[{"user_id":593,"name":"Jofiah/TTV","steam_id":76561197977233962,"connected_time":10231000000000,"state":"active","ping":51},{"user_id":727,"name":"Charlotte","steam_id":76561198370561647,"connected_time":855000000000,"state":"active","ping":73},{"user_id":703,"name":"arcSolver","steam_id":76561198212013944,"connected_time":2626000000000,"state":"active","ping":60},{"user_id":704,"name":"MrXtr","steam_id":76561198966247397,"connected_time":2605000000000,"state":"active","ping":67},{"user_id":719,"name":"Femboy Micro„ÇΩ„Éï„Éà","steam_id":76561198289540452,"connected_time":1239000000000,"state":"active","ping":32},{"user_id":730,"name":"Kohbold","steam_id":76561198996480140,"connected_time":592000000000,"state":"active","ping":166},{"user_id":699,"name":"Knugen the Conqueror","steam_id":76561198127091993,"connected_time":3357000000000,"state":"active","ping":59},{"user_id":717,"name":"Dewotter","steam_id":76561198007653168,"connected_time":1536000000000,"state":"active","ping":61},{"user_id":721,"name":"BreadBubbles","steam_id":76561198174332826,"connected_time":1104000000000,"state":"active","ping":68},{"user_id":711,"name":"‚ô• aura ‚ô•","steam_id":76561198066258544,"connected_time":1766000000000,"state":"active","ping":60},{"user_id":723,"name":"meow (they/them)","steam_id":76561198416657815,"connected_time":1023000000000,"state":"active","ping":87},{"user_id":706,"name":"0","steam_id":76561198267909207,"connected_time":2582000000000,"state":"active","ping":86},{"user_id":726,"name":"Testicular torsion","steam_id":76561198119547399,"connected_time":939000000000,"state":"active","ping":67},{"user_id":716,"name":"Not Dwevy","steam_id":76561198090379437,"connected_time":1564000000000,"state":"active","ping":50},{"user_id":709,"name":"Yuzu","steam_id":76561198121694613,"connected_time":2282000000000,"state":"active","ping":47},{"user_id":715,"name":"Sus Fring","steam_id":76561198821542489,"connected_time":1663000000000,"state":"active","ping":112},{"user_id":701,"name":"Prome","steam_id":76561199050383942,"connected_time":2722000000000,"state":"active","ping":56},{"user_id":694,"name":"SOPHIIEE","steam_id":76561198443798981,"connected_time":3672000000000,"state":"active","ping":64},{"user_id":718,"name":"Aaron","steam_id":76561197990046953,"connected_time":1287000000000,"state":"active","ping":60},{"user_id":700,"name":"dec","steam_id":76561198009660168,"connected_time":3287000000000,"state":"active","ping":57},{"user_id":660,"name":"trigger_hurt","steam_id":76561198256755222,"connected_time":6257000000000,"state":"active","ping":53},{"user_id":664,"name":"quickfast","steam_id":76561199438900919,"connected_time":6123000000000,"state":"active","ping":44},{"user_id":710,"name":"Fwebbie","steam_id":76561199006875621,"connected_time":2167000000000,"state":"active","ping":64},{"user_id":729,"name":"Goobie","steam_id":76561198047375383,"connected_time":834000000000,"state":"active","ping":42}]},{"server_id":114,"name":"Uncletopia | London | 2 | All Maps","name_short":"lon-2","host":"lon-1.uk.uncletopia.com","port":27025,"enabled":true,"region":"eu","cc":"gb","latitude":51.509865,"longitude":-0.118092,"reserved":0,"last_update":"0001-01-01T00:00:00Z","name_a2s":"Uncletopia | London | 2 | All Maps","protocol":17,"map":"cp_powerhouse","folder":"tf","game":"Team Fortress","app_id":440,"player_count":22,"max_players":24,"Bots":0,"server_type":"Dedicated","server_os":"Linux","password":true,"vac":true,"version":"7757534","steam_id":85568392924470941,"keywords":["cp","nocrits","nodmgspread","uncletopia"],"game_id":440,"stv_port":27026,"stv_name":"Uncletopia | London | 2 | All Maps | STV","players":[{"user_id":344,"name":"texory","steam_id":76561198060339391,"connected_time":6083000000000,"state":"active","ping":55},{"user_id":369,"name":"Dispenser","steam_id":76561198130195469,"connected_time":2984000000000,"state":"active","ping":83},{"user_id":397,"name":"Bebop","steam_id":76561199032279809,"connected_time":33000000000,"state":"active","ping":84},{"user_id":367,"name":"Brallerin","steam_id":76561198060026189,"connected_time":3026000000000,"state":"active","ping":47},{"user_id":375,"name":"shooer","steam_id":76561198110531281,"connected_time":1953000000000,"state":"active","ping":78},{"user_id":388,"name":"Satanael","steam_id":76561198165252930,"connected_time":1007000000000,"state":"active","ping":102},{"user_id":368,"name":"twitch.tv/morvill_","steam_id":76561198809859945,"connected_time":3023000000000,"state":"active","ping":130},{"user_id":384,"name":"Night Fury","steam_id":76561197995207032,"connected_time":1388000000000,"state":"active","ping":97},{"user_id":398,"name":"bayzoes","steam_id":76561198117472639,"connected_time":30000000000,"state":"active","ping":34},{"user_id":364,"name":"s a i","steam_id":76561197970379754,"connected_time":3068000000000,"state":"active","ping":63},{"user_id":357,"name":"Anonymous47007","steam_id":76561199005211417,"connected_time":4906000000000,"state":"active","ping":131},{"user_id":390,"name":"Regan","steam_id":76561198100631086,"connected_time":986000000000,"state":"active","ping":51},{"user_id":377,"name":"Roe Jogan","steam_id":76561198871991529,"connected_time":1855000000000,"state":"active","ping":86},{"user_id":396,"name":"Jim The Jackal","steam_id":76561198062998417,"connected_time":51000000000,"state":"connecting","ping":45},{"user_id":387,"name":"Jeg","steam_id":76561197994059603,"connected_time":1013000000000,"state":"active","ping":73},{"user_id":169,"name":"Sn1perK1ng","steam_id":76561198128065329,"connected_time":15216000000000,"state":"spawning","ping":44},{"user_id":395,"name":"Robbie","steam_id":76561198017504503,"connected_time":60000000000,"state":"active","ping":44},{"user_id":247,"name":"men69","steam_id":76561198047359132,"connected_time":11092000000000,"state":"active","ping":88},{"user_id":399,"name":"SARCASMISH","steam_id":76561198370404546,"connected_time":21000000000,"state":"active","ping":131},{"user_id":305,"name":"tapeworms!","steam_id":76561198069649097,"connected_time":9462000000000,"state":"spawning","ping":56},{"user_id":354,"name":"Balls","steam_id":76561198086400484,"connected_time":4991000000000,"state":"active","ping":75},{"user_id":393,"name":"subway vergil","steam_id":76561199110064166,"connected_time":414000000000,"state":"active","ping":64}]},{"server_id":320,"name":"Uncletopia | London | 3 | All Maps","name_short":"lon-3","host":"lon-1.uk.uncletopia.com","port":27035,"enabled":true,"region":"eu","cc":"gb","latitude":51.509865,"longitude":-0.118092,"reserved":0,"last_update":"0001-01-01T00:00:00Z","name_a2s":"Uncletopia | London | 3 | All Maps","protocol":17,"map":"pl_pier","folder":"tf","game":"Team Fortress","app_id":440,"player_count":24,"max_players":24,"Bots":0,"server_type":"Dedicated","server_os":"Linux","password":true,"vac":true,"version":"7757534","steam_id":85568392924510192,"keywords":["nocrits","nodmgspread","payload","uncletopia"],"game_id":440,"stv_port":27036,"stv_name":"Uncletopia | London | 3 | All Maps | STV","players":[{"user_id":586,"name":"SKFBoge","steam_id":76561198269038278,"connected_time":3028000000000,"state":"active","ping":69},{"user_id":624,"name":"Illegally Legal","steam_id":76561198982674420,"connected_time":451000000000,"state":"active","ping":38},{"user_id":617,"name":"Matznmilian","steam_id":76561198024358403,"connected_time":1061000000000,"state":"active","ping":79},{"user_id":575,"name":"Dag!","steam_id":76561198030147941,"connected_time":3625000000000,"state":"active","ping":69},{"user_id":613,"name":"froufrou","steam_id":76561198129110010,"connected_time":1102000000000,"state":"active","ping":86},{"user_id":623,"name":"Toodlesnoot","steam_id":76561198036543689,"connected_time":479000000000,"state":"active","ping":56},{"user_id":604,"name":"Jackleg Joel","steam_id":76561198271636476,"connected_time":1951000000000,"state":"active","ping":61},{"user_id":622,"name":"Holy f stewie, I am sh√≠tting.","steam_id":76561198147173457,"connected_time":605000000000,"state":"active","ping":78},{"user_id":625,"name":"Slav-matros","steam_id":76561198251977912,"connected_time":451000000000,"state":"active","ping":64},{"user_id":593,"name":"The Fellow Feller","steam_id":76561198188864306,"connected_time":2590000000000,"state":"active","ping":70},{"user_id":631,"name":"xeno_Y","steam_id":76561199009157261,"connected_time":120000000000,"state":"active","ping":52},{"user_id":630,"name":"Spootnak","steam_id":76561198049052518,"connected_time":254000000000,"state":"active","ping":55},{"user_id":634,"name":"a Regurar Barroon","steam_id":76561198834913692,"connected_time":77000000000,"state":"active","ping":75},{"user_id":637,"name":"Endi","steam_id":76561198914938199,"connected_time":25000000000,"state":"spawning","ping":88},{"user_id":616,"name":"schlagg","steam_id":76561199081305365,"connected_time":1063000000000,"state":"active","ping":82},{"user_id":635,"name":"Goat","steam_id":76561198109415404,"connected_time":76000000000,"state":"active","ping":60},{"user_id":627,"name":"Cosmetic brain","steam_id":76561198055936410,"connected_time":403000000000,"state":"active","ping":75},{"user_id":629,"name":"Jampine","steam_id":76561198040419080,"connected_time":320000000000,"state":"active","ping":76},{"user_id":620,"name":"PrimeTarget","steam_id":76561198046409289,"connected_time":1005000000000,"state":"active","ping":75},{"user_id":621,"name":"Chopkins","steam_id":76561199242605141,"connected_time":995000000000,"state":"active","ping":43},{"user_id":633,"name":"kittycat959","steam_id":76561198182054933,"connected_time":93000000000,"state":"active","ping":93},{"user_id":581,"name":"Davey","steam_id":76561198256879107,"connected_time":3571000000000,"state":"active","ping":75},{"user_id":610,"name":"HilldogGaming","steam_id":76561198082209322,"connected_time":1813000000000,"state":"active","ping":89},{"user_id":636,"name":"cherry coal","steam_id":76561198822725169,"connected_time":43000000000,"state":"active","ping":46}]},{"server_id":321,"name":"Uncletopia | London | 4 | All Maps","name_short":"lon-4","host":"lon-1.uk.uncletopia.com","port":27045,"enabled":true,"region":"eu","cc":"gb","latitude":51.509865,"longitude":-0.118092,"reserved":0,"last_update":"0001-01-01T00:00:00Z","name_a2s":"Uncletopia | London | 4 | All Maps","protocol":17,"map":"pl_goldrush","folder":"tf","game":"Team Fortress","app_id":440,"player_count":24,"max_players":24,"Bots":0,"server_type":"Dedicated","server_os":"Linux","password":true,"vac":true,"version":"7757534","steam_id":85568392924510193,"keywords":["nocrits","nodmgspread","payload","uncletopia"],"game_id":440,"stv_port":27046,"stv_name":"Uncletopia | London | 4 | All Maps | STV","players":[{"user_id":252,"name":"tomar","steam_id":76561198451471161,"connected_time":1563000000000,"state":"active","ping":53},{"user_id":265,"name":"PixelHyde","steam_id":76561198040878617,"connected_time":369000000000,"state":"active","ping":65},{"user_id":237,"name":"‚ô• Cirno ‚ô•","steam_id":76561198834982738,"connected_time":1953000000000,"state":"active","ping":86},{"user_id":231,"name":"Labial","steam_id":76561198385163046,"connected_time":2199000000000,"state":"active","ping":42},{"user_id":245,"name":"DonD","steam_id":76561198061496731,"connected_time":1769000000000,"state":"active","ping":83},{"user_id":257,"name":"Juiceydough","steam_id":76561197997323419,"connected_time":1286000000000,"state":"active","ping":82},{"user_id":255,"name":"Rosguard","steam_id":76561198030984263,"connected_time":1330000000000,"state":"active","ping":45},{"user_id":233,"name":"godmodule","steam_id":76561198165995444,"connected_time":2155000000000,"state":"active","ping":73},{"user_id":262,"name":"Kiz","steam_id":76561198811732820,"connected_time":631000000000,"state":"active","ping":79},{"user_id":225,"name":"Baron","steam_id":76561198021901783,"connected_time":2462000000000,"state":"active","ping":62},{"user_id":202,"name":"Crossy","steam_id":76561198091702315,"connected_time":5405000000000,"state":"active","ping":75},{"user_id":259,"name":"Eternal_FAM","steam_id":76561198043013744,"connected_time":643000000000,"state":"active","ping":45},{"user_id":260,"name":"Monday","steam_id":76561198348366085,"connected_time":643000000000,"state":"active","ping":78},{"user_id":114,"name":"Welder","steam_id":76561198355300561,"connected_time":9235000000000,"state":"active","ping":67},{"user_id":264,"name":"B@yka","steam_id":76561198986736592,"connected_time":485000000000,"state":"active","ping":62},{"user_id":220,"name":"Joseph Stalin","steam_id":76561198033199746,"connected_time":3003000000000,"state":"active","ping":52},{"user_id":227,"name":"Teecho","steam_id":76561197995269610,"connected_time":2454000000000,"state":"active","ping":64},{"user_id":266,"name":"sork","steam_id":76561198082446459,"connected_time":191000000000,"state":"active","ping":79},{"user_id":217,"name":"rx","steam_id":76561198111834139,"connected_time":3421000000000,"state":"active","ping":67},{"user_id":240,"name":"Arti","steam_id":76561197983352845,"connected_time":1900000000000,"state":"active","ping":50},{"user_id":254,"name":"Sneikijs","steam_id":76561198052549308,"connected_time":1452000000000,"state":"active","ping":54},{"user_id":244,"name":"Kleiner Engel","steam_id":76561198009922500,"connected_time":1792000000000,"state":"active","ping":72},{"user_id":253,"name":"‚ú™ Danny","steam_id":76561198104483241,"connected_time":1555000000000,"state":"active","ping":62},{"user_id":263,"name":"Roger Slippers","steam_id":76561198188642265,"connected_time":611000000000,"state":"active","ping":56}]},{"server_id":21,"name":"Uncletopia | London | 5 | All Maps","name_short":"lon-5","host":"lon-1.uk.uncletopia.com","port":27055,"enabled":true,"region":"eu","cc":"gb","latitude":51.509865,"longitude":-0.118092,"reserved":0,"last_update":"0001-01-01T00:00:00Z","name_a2s":"Uncletopia | London | 5 | All Maps","protocol":17,"map":"pl_snowycoast","folder":"tf","game":"Team Fortress","app_id":440,"player_count":4,"max_players":24,"Bots":0,"server_type":"Dedicated","server_os":"Linux","password":true,"vac":true,"version":"7757534","steam_id":85568392924742829,"keywords":["nocrits","nodmgspread","payload","uncletopia"],"game_id":440,"stv_port":27056,"stv_name":"Uncletopia | London | 5 | All Maps | STV","players":[{"user_id":654,"name":"Lord Ghastly","steam_id":76561198303812120,"connected_time":1592000000000,"state":"active","ping":58},{"user_id":664,"name":"‚ù§ Sparx ‚ù§","steam_id":76561198095009261,"connected_time":629000000000,"state":"active","ping":58},{"user_id":666,"name":"robot wizard","steam_id":76561199129076917,"connected_time":222000000000,"state":"active","ping":59},{"user_id":648,"name":"Rowan Atkinson","steam_id":76561199378865926,"connected_time":2652000000000,"state":"active","ping":122}]},{"server_id":22,"name":"Uncletopia | London | 6 | All Maps","name_short":"lon-6","host":"lon-1.uk.uncletopia.com","port":27065,"enabled":true,"region":"eu","cc":"gb","latitude":51.509865,"longitude":-0.118092,"reserved":0,"last_update":"0001-01-01T00:00:00Z","name_a2s":"Uncletopia | London | 6 | All Maps","protocol":17,"map":"koth_highpass","folder":"tf","game":"Team Fortress","app_id":440,"player_count":0,"max_players":24,"Bots":0,"server_type":"Dedicated","server_os":"Linux","password":true,"vac":true,"version":"7757534","steam_id":85568392924742830,"keywords":["cp","nocrits","nodmgspread","uncletopia"],"game_id":440,"stv_port":27066,"stv_name":"Uncletopia | London | 6 | All Maps | STV","players":null},{"server_id":40,"name":"Uncletopia | London | 7 | No Payload","name_short":"lon-7","host":"lon-1.uk.uncletopia.com","port":27075,"enabled":true,"region":"eu","cc":"gb","latitude":51.509865,"longitude":-0.118092,"reserved":0,"last_update":"0001-01-01T00:00:00Z","name_a2s":"Uncletopia | London | 7 | No Payload","protocol":17,"map":"plr_nightfall_final","folder":"tf","game":"Team Fortress","app_id":440,"player_count":0,"max_players":24,"Bots":0,"server_type":"Dedicated","server_os":"Linux","password":true,"vac":true,"version":"7757534","steam_id":85568392924964314,"keywords":["nocrits","nodmgspread","payload","uncletopia"],"game_id":440,"stv_port":27076,"stv_name":"Uncletopia | London | 7 | No Payload | STV","players":null},{"server_id":41,"name":"Uncletopia | London | 8 | Community","name_short":"lon-8","host":"lon-1.uk.uncletopia.com","port":27085,"enabled":true,"region":"eu","cc":"gb","latitude":51.509865,"longitude":-0.118092,"reserved":0,"last_update":"0001-01-01T00:00:00Z","name_a2s":"Uncletopia | London | 8 | Community","protocol":17,"map":"workshop/cp_sulfur_rc2.ugc619869471","folder":"tf","game":"Team Fortress","app_id":440,"player_count":0,"max_players":24,"Bots":0,"server_type":"Dedicated","server_os":"Linux","password":true,"vac":true,"version":"7757534","steam_id":85568392924964315,"keywords":["cp","nocrits","nodmgspread","uncletopia"],"game_id":440,"stv_port":27086,"stv_name":"Uncletopia | London | 8 | Community | STV","players":null},{"server_id":300,"name":"Uncletopia | Montr√©al | 1 | All Maps","name_short":"mtl-1","host":"mtl-1.ca.uncletopia.com","port":27015,"enabled":true,"region":"us-east","cc":"ca","latitude":45.50889,"longitude":-73.56167,"reserved":0,"last_update":"0001-01-01T00:00:00Z","name_a2s":"Uncletopia | Montr√©al | 1 | All Maps","protocol":17,"map":"koth_cascade","folder":"tf","game":"Team Fortress","app_id":440,"player_count":0,"max_players":24,"Bots":0,"server_type":"Dedicated","server_os":"Linux","password":true,"vac":true,"version":"7757534","steam_id":85568392924500087,"keywords":["cp","nocrits","nodmgspread","uncletopia"],"game_id":440,"stv_port":27016,"stv_name":"Uncletopia | Montr√©al | 1 | All Maps | STV","players":null},{"server_id":301,"name":"Uncletopia | Montr√©al | 2 | All Maps","name_short":"mtl-2","host":"mtl-1.ca.uncletopia.com","port":27025,"enabled":true,"region":"us-east","cc":"ca","latitude":45.50889,"longitude":-73.56167,"reserved":0,"last_update":"0001-01-01T00:00:00Z","name_a2s":"Uncletopia | Montr√©al | 2 | All Maps","protocol":17,"map":"pl_swiftwater_final1","folder":"tf","game":"Team Fortress","app_id":440,"player_count":0,"max_players":24,"Bots":0,"server_type":"Dedicated","server_os":"Linux","password":true,"vac":true,"version":"7757534","steam_id":85568392924500088,"keywords":["nocrits","nodmgspread","payload","uncletopia"],"game_id":440,"stv_port":27026,"stv_name":"Uncletopia | Montr√©al | 2 | All Maps | STV","players":null},{"server_id":302,"name":"Uncletopia | Montr√©al | 3 | All Maps","name_short":"mtl-3","host":"mtl-1.ca.uncletopia.com","port":27035,"enabled":true,"region":"us-east","cc":"ca","latitude":45.50889,"longitude":-73.56167,"reserved":0,"last_update":"0001-01-01T00:00:00Z","name_a2s":"Uncletopia | Montr√©al | 3 | All Maps","protocol":17,"map":"pl_swiftwater_final1","folder":"tf","game":"Team Fortress","app_id":440,"player_count":0,"max_players":24,"Bots":0,"server_type":"Dedicated","server_os":"Linux","password":true,"vac":true,"version":"7757534","steam_id":85568392924500089,"keywords":["nocrits","nodmgspread","payload","uncletopia"],"game_id":440,"stv_port":27036,"stv_name":"Uncletopia | Montr√©al | 3 | All Maps | STV","players":null},{"server_id":303,"name":"Uncletopia | Montr√©al | 4 | No Payload","name_short":"mtl-4","host":"mtl-1.ca.uncletopia.com","port":27045,"enabled":true,"region":"us-east","cc":"ca","latitude":45.50889,"longitude":-73.56167,"reserved":0,"last_update":"0001-01-01T00:00:00Z","name_a2s":"Uncletopia | Montr√©al | 4 | No Payload","protocol":17,"map":"pl_pier","folder":"tf","game":"Team Fortress","app_id":440,"player_count":0,"max_players":24,"Bots":0,"server_type":"Dedicated","server_os":"Linux","password":true,"vac":true,"version":"7757534","steam_id":85568392924500090,"keywords":["nocrits","nodmgspread","payload","uncletopia"],"game_id":440,"stv_port":27046,"stv_name":"Uncletopia | Montr√©al | 4 | No Payload | STV","players":null},{"server_id":13,"name":"Uncletopia | New York City | 1 | All Maps","name_short":"nyc-1","host":"nyc-1.us.uncletopia.com","port":27015,"enabled":true,"region":"us-east","cc":"us","latitude":40.73061,"longitude":-73.93524,"reserved":0,"last_update":"0001-01-01T00:00:00Z","name_a2s":"Uncletopia | New York City | 1 | All Maps","protocol":17,"map":"cp_mountainlab","folder":"tf","game":"Team Fortress","app_id":440,"player_count":24,"max_players":24,"Bots":0,"server_type":"Dedicated","server_os":"Linux","password":true,"vac":true,"version":"7757534","steam_id":85568392924469993,"keywords":["cp","nocrits","nodmgspread","uncletopia"],"game_id":440,"stv_port":27016,"stv_name":"Uncletopia | New York City | 1 | All Maps | STV","players":[{"user_id":312,"name":"marf","steam_id":76561198014828037,"connected_time":513000000000,"state":"active","ping":132},{"user_id":290,"name":"the spy behind the healing (F2P","steam_id":76561198854070384,"connected_time":2577000000000,"state":"active","ping":275},{"user_id":297,"name":"FS Jorda","steam_id":76561198071421459,"connected_time":2264000000000,"state":"active","ping":44},{"user_id":269,"name":"wool","steam_id":76561198869689933,"connected_time":4288000000000,"state":"active","ping":57},{"user_id":255,"name":"ShadBad","steam_id":76561198248287390,"connected_time":5087000000000,"state":"active","ping":137},{"user_id":287,"name":"kingsmeg","steam_id":76561198116229295,"connected_time":3370000000000,"state":"active","ping":82},{"user_id":309,"name":"Ian","steam_id":76561199078852180,"connected_time":1172000000000,"state":"active","ping":74},{"user_id":305,"name":"„ÄéÔº¥ÔΩèÔΩçÔΩèÔΩãÔΩïÔΩìÔΩà„Äè","steam_id":76561198098611646,"connected_time":1321000000000,"state":"active","ping":48},{"user_id":199,"name":"WibbyOne","steam_id":76561198052843846,"connected_time":9862000000000,"state":"active","ping":33},{"user_id":310,"name":"Alexhcgar„ÉÖ","steam_id":76561198085706389,"connected_time":583000000000,"state":"active","ping":97},{"user_id":311,"name":"TAYLOR SWIFT","steam_id":76561198066767801,"connected_time":569000000000,"state":"active","ping":70},{"user_id":278,"name":"Miss Star","steam_id":76561199106587693,"connected_time":3834000000000,"state":"active","ping":86},{"user_id":302,"name":"RexTheOnlyOne","steam_id":76561198848396566,"connected_time":1574000000000,"state":"active","ping":72},{"user_id":279,"name":"Whys there a level 3 there?","steam_id":76561198309696109,"connected_time":3833000000000,"state":"active","ping":127},{"user_id":288,"name":"proon","steam_id":76561198155983535,"connected_time":3196000000000,"state":"active","ping":59},{"user_id":281,"name":"Moxy10","steam_id":76561197983781684,"connected_time":3784000000000,"state":"active","ping":108},{"user_id":283,"name":"bendera","steam_id":76561197965486503,"connected_time":3751000000000,"state":"active","ping":83},{"user_id":295,"name":"Bread Makes you Fat","steam_id":76561198985126532,"connected_time":2426000000000,"state":"active","ping":69},{"user_id":304,"name":"Chicken #420DONGSQUAD","steam_id":76561198047863656,"connected_time":1454000000000,"state":"active","ping":45},{"user_id":306,"name":"Pockets","steam_id":76561198001742296,"connected_time":1318000000000,"state":"active","ping":79},{"user_id":289,"name":"Punished Kong","steam_id":76561198973620882,"connected_time":3194000000000,"state":"active","ping":67},{"user_id":301,"name":"Zeek","steam_id":76561197987204351,"connected_time":1675000000000,"state":"active","ping":45},{"user_id":268,"name":"will uber light classes","steam_id":76561198117033273,"connected_time":4432000000000,"state":"active","ping":121},{"user_id":308,"name":"quint","steam_id":76561198046797995,"connected_time":1272000000000,"state":"active","ping":77}]},{"server_id":14,"name":"Uncletopia | New York City | 2 | All Maps","name_short":"nyc-2","host":"nyc-1.us.uncletopia.com","port":27025,"enabled":true,"region":"us-east","cc":"us","latitude":40.73061,"longitude":-73.93524,"reserved":0,"last_update":"0001-01-01T00:00:00Z","name_a2s":"Uncletopia | New York City | 2 | All Maps","protocol":17,"map":"cp_snakewater_final1","folder":"tf","game":"Team Fortress","app_id":440,"player_count":24,"max_players":24,"Bots":0,"server_type":"Dedicated","server_os":"Linux","password":true,"vac":true,"version":"7757534","steam_id":85568392924469994,"keywords":["cp","nocrits","nodmgspread","uncletopia"],"game_id":440,"stv_port":27026,"stv_name":"Uncletopia | New York City | 2 | All Maps | STV","players":[{"user_id":361,"name":"blankworthy","steam_id":76561199097823273,"connected_time":443000000000,"state":"active","ping":56},{"user_id":352,"name":"4ling","steam_id":76561197994398381,"connected_time":1140000000000,"state":"active","ping":57},{"user_id":314,"name":"kametro4","steam_id":76561198835430429,"connected_time":4449000000000,"state":"active","ping":76},{"user_id":326,"name":"Bee","steam_id":76561198074681324,"connected_time":3436000000000,"state":"active","ping":49},{"user_id":291,"name":"gghfgfgfg","steam_id":76561198064823861,"connected_time":5545000000000,"state":"active","ping":56},{"user_id":360,"name":"Generic_Soda","steam_id":76561197993528721,"connected_time":681000000000,"state":"active","ping":47},{"user_id":349,"name":"Strange Diplomat","steam_id":76561198428191920,"connected_time":1228000000000,"state":"active","ping":49},{"user_id":348,"name":"Hotdog Goblin","steam_id":76561198004133638,"connected_time":1241000000000,"state":"active","ping":111},{"user_id":357,"name":"„ÅÑ„Å°„Åî„Åæ„Çç","steam_id":76561198166100997,"connected_time":884000000000,"state":"active","ping":74},{"user_id":353,"name":"Lost CS player","steam_id":76561198892387723,"connected_time":1123000000000,"state":"active","ping":55},{"user_id":341,"name":"arch_knight321","steam_id":76561198436797625,"connected_time":2446000000000,"state":"active","ping":64},{"user_id":358,"name":"Xyk","steam_id":76561198023268899,"connected_time":873000000000,"state":"active","ping":84},{"user_id":362,"name":"Clean Lines","steam_id":76561197960691518,"connected_time":3000000000,"state":"spawning","ping":51},{"user_id":339,"name":"The Paladin","steam_id":76561199110579692,"connected_time":2482000000000,"state":"active","ping":68},{"user_id":355,"name":"Mr.Kevin120","steam_id":76561199186919096,"connected_time":1115000000000,"state":"active","ping":103},{"user_id":325,"name":"Femtofarad","steam_id":76561198308583053,"connected_time":3637000000000,"state":"active","ping":68},{"user_id":343,"name":"Piss Scoundrel","steam_id":76561197995562098,"connected_time":2169000000000,"state":"active","ping":73},{"user_id":356,"name":"new and improved washing machin","steam_id":76561199160873100,"connected_time":1079000000000,"state":"active","ping":77},{"user_id":324,"name":"Full Moon (Death Classic)","steam_id":76561198089898720,"connected_time":3792000000000,"state":"active","ping":83},{"user_id":359,"name":"Usman","steam_id":76561198430295625,"connected_time":803000000000,"state":"active","ping":56},{"user_id":296,"name":"Paul Blart","steam_id":76561198068110623,"connected_time":5276000000000,"state":"active","ping":113},{"user_id":347,"name":"Shattered Glass","steam_id":76561198116835391,"connected_time":1248000000000,"state":"active","ping":96},{"user_id":330,"name":"Baron von Whoopsie","steam_id":76561197996691013,"connected_time":3223000000000,"state":"active","ping":57},{"user_id":340,"name":"LazyKoala99","steam_id":76561199183623672,"connected_time":2478000000000,"state":"active","ping":57}]},{"server_id":15,"name":"Uncletopia | New York City | 3 | Stopwatch Beta","name_short":"nyc-3","host":"nyc-1.us.uncletopia.com","port":27035,"enabled":true,"region":"us-east","cc":"us","latitude":40.73061,"longitude":-73.93524,"reserved":0,"last_update":"0001-01-01T00:00:00Z","name_a2s":"Uncletopia | New York City | 3 | Stopwatch Beta","protocol":17,"map":"workshop/koth_ashville_final.ugc2130459942","folder":"tf","game":"Team Fortress","app_id":440,"player_count":0,"max_players":24,"Bots":0,"server_type":"Dedicated","server_os":"Linux","password":true,"vac":true,"version":"7757534","steam_id":85568392924742820,"keywords":["cp","nocrits","nodmgspread","uncletopia"],"game_id":440,"stv_port":27036,"stv_name":"Uncletopia | New York City | 3 | Stopwatch Beta | STV","players":null},{"server_id":16,"name":"Uncletopia | New York City | 4 | Community","name_short":"nyc-4","host":"nyc-1.us.uncletopia.com","port":27045,"enabled":true,"region":"us-east","cc":"us","latitude":40.73061,"longitude":-73.93524,"reserved":0,"last_update":"0001-01-01T00:00:00Z","name_a2s":"Uncletopia | New York City | 4 | Community","protocol":17,"map":"workshop/pl_corrode_rc2.ugc546577989","folder":"tf","game":"Team Fortress","app_id":440,"player_count":1,"max_players":24,"Bots":0,"server_type":"Dedicated","server_os":"Linux","password":true,"vac":true,"version":"7757534","steam_id":85568392924742821,"keywords":["nocrits","nodmgspread","payload","uncletopia"],"game_id":440,"stv_port":27046,"stv_name":"Uncletopia | New York City | 4 | Community | STV","players":[{"user_id":31,"name":"cheers2x","steam_id":76561198366299848,"connected_time":46000000000,"state":"active","ping":62}]},{"server_id":142,"name":"Uncletopia | S√£o Paulo | 1 | All Maps","name_short":"sao-1","host":"sao-1.br.uncletopia.com","port":27015,"enabled":true,"region":"sa","cc":"br","latitude":-23.533773,"longitude":-46.62529,"reserved":0,"last_update":"0001-01-01T00:00:00Z","name_a2s":"Uncletopia | S√£o Paulo | 1 | All Maps","protocol":17,"map":"koth_cascade","folder":"tf","game":"Team Fortress","app_id":440,"player_count":4,"max_players":24,"Bots":0,"server_type":"Dedicated","server_os":"Linux","password":true,"vac":true,"version":"7757534","steam_id":85568392924469996,"keywords":["cp","nocrits","nodmgspread","uncletopia"],"game_id":440,"stv_port":27016,"stv_name":"Uncletopia | S√£o Paulo | 1 | All Maps | STV","players":[{"user_id":30,"name":"Um15","steam_id":76561199184160486,"connected_time":270000000000,"state":"active","ping":210},{"user_id":29,"name":"Mikael_01","steam_id":76561199080253129,"connected_time":668000000000,"state":"active","ping":60},{"user_id":17,"name":"Frans„ÉÉ","steam_id":76561198207928860,"connected_time":2690000000000,"state":"active","ping":36},{"user_id":20,"name":"Speed","steam_id":76561198965538287,"connected_time":2078000000000,"state":"active","ping":49}]},{"server_id":143,"name":"Uncletopia | S√£o Paulo | 2 | All Maps","name_short":"sao-2","host":"sao-2.br.uncletopia.com","port":27015,"enabled":true,"region":"sa","cc":"br","latitude":-23.533773,"longitude":-46.62529,"reserved":0,"last_update":"0001-01-01T00:00:00Z","name_a2s":"Uncletopia | S√£o Paulo | 2 | All Maps","protocol":17,"map":"koth_lakeside_final","folder":"tf","game":"Team Fortress","app_id":440,"player_count":0,"max_players":24,"Bots":0,"server_type":"Dedicated","server_os":"Linux","password":true,"vac":true,"version":"7757534","steam_id":85568392924485349,"keywords":["cp","nocrits","nodmgspread","uncletopia"],"game_id":440,"stv_port":27016,"stv_name":"Uncletopia | S√£o Paulo | 2 | All Maps | STV","players":null},{"server_id":7,"name":"Uncletopia | Seattle | 1 | All Maps","name_short":"sea-1","host":"sea-1.us.uncletopia.com","port":27015,"enabled":true,"region":"us-west","cc":"us","latitude":47.608013,"longitude":-122.33517,"reserved":0,"last_update":"0001-01-01T00:00:00Z","name_a2s":"Uncletopia | Seattle | 1 | All Maps","protocol":17,"map":"pl_barnblitz","folder":"tf","game":"Team Fortress","app_id":440,"player_count":23,"max_players":24,"Bots":0,"server_type":"Dedicated","server_os":"Linux","password":true,"vac":true,"version":"7757534","steam_id":85568392924469997,"keywords":["nocrits","nodmgspread","payload","uncletopia"],"game_id":440,"stv_port":27016,"stv_name":"Uncletopia | Seattle | 1 | All Maps | STV","players":[{"user_id":244,"name":"Delta","steam_id":76561199413339346,"connected_time":2414000000000,"state":"active","ping":62},{"user_id":255,"name":"squash","steam_id":76561198150281353,"connected_time":1589000000000,"state":"active","ping":48},{"user_id":260,"name":"shiadyne","steam_id":76561198271939793,"connected_time":1195000000000,"state":"active","ping":52},{"user_id":205,"name":"Treekincko","steam_id":76561198047995911,"connected_time":5221000000000,"state":"active","ping":39},{"user_id":256,"name":"AquaPhoenix","steam_id":76561198157474924,"connected_time":1571000000000,"state":"active","ping":88},{"user_id":246,"name":"captain red","steam_id":76561198191587983,"connected_time":2172000000000,"state":"active","ping":75},{"user_id":209,"name":"Boyaredeen","steam_id":76561198880492636,"connected_time":5114000000000,"state":"active","ping":56},{"user_id":215,"name":"doctor sex md","steam_id":76561198150678175,"connected_time":4447000000000,"state":"active","ping":73},{"user_id":240,"name":"DiscoTraveler","steam_id":76561199240168088,"connected_time":3053000000000,"state":"active","ping":151},{"user_id":236,"name":"FI LO","steam_id":76561198976530881,"connected_time":3495000000000,"state":"active","ping":70},{"user_id":130,"name":"roanoke‚Ä∫","steam_id":76561198048007844,"connected_time":11501000000000,"state":"active","ping":69},{"user_id":266,"name":"shy guy","steam_id":76561198151246059,"connected_time":128000000000,"state":"active","ping":64},{"user_id":262,"name":"dust | she/it","steam_id":76561198045218909,"connected_time":537000000000,"state":"active","ping":42},{"user_id":258,"name":"A Duck With Socks","steam_id":76561198018844227,"connected_time":1399000000000,"state":"active","ping":61},{"user_id":217,"name":"Sir Galahad","steam_id":76561198195999859,"connected_time":4342000000000,"state":"active","ping":55},{"user_id":218,"name":"Wishful","steam_id":76561198880608202,"connected_time":4334000000000,"state":"active","ping":47},{"user_id":265,"name":"OlympicChamp_12 | Trade.tf","steam_id":76561198830574526,"connected_time":479000000000,"state":"active","ping":138},{"user_id":257,"name":"Soda","steam_id":76561198219209367,"connected_time":1529000000000,"state":"active","ping":59},{"user_id":250,"name":"sheep on da linux","steam_id":76561198076781979,"connected_time":1813000000000,"state":"active","ping":90},{"user_id":237,"name":"Jambi","steam_id":76561198846091685,"connected_time":3491000000000,"state":"active","ping":90},{"user_id":261,"name":"Mediarch","steam_id":76561198050765729,"connected_time":1152000000000,"state":"active","ping":57},{"user_id":253,"name":"Skabbety","steam_id":76561198168044257,"connected_time":1749000000000,"state":"active","ping":41},{"user_id":226,"name":"Big Jon","steam_id":76561198402285099,"connected_time":4147000000000,"state":"active","ping":78}]},{"server_id":119,"name":"Uncletopia | Seattle | 2 | All Maps","name_short":"sea-2","host":"sea-1.us.uncletopia.com","port":27025,"enabled":true,"region":"us-west","cc":"us","latitude":47.608013,"longitude":-122.33517,"reserved":0,"last_update":"0001-01-01T00:00:00Z","name_a2s":"Uncletopia | Seattle | 2 | All Maps","protocol":17,"map":"koth_highpass","folder":"tf","game":"Team Fortress","app_id":440,"player_count":1,"max_players":24,"Bots":0,"server_type":"Dedicated","server_os":"Linux","password":true,"vac":true,"version":"7757534","steam_id":85568392924469998,"keywords":["cp","nocrits","nodmgspread","uncletopia"],"game_id":440,"stv_port":27026,"stv_name":"Uncletopia | Seattle | 2 | All Maps | STV","players":[{"user_id":34,"name":"Birdman743","steam_id":76561198799636748,"connected_time":2459000000000,"state":"active","ping":53}]},{"server_id":406,"name":"Uncletopia | Seattle | 3 | Stopwatch Beta","name_short":"sea-3","host":"sea-1.us.uncletopia.com","port":27035,"enabled":true,"region":"us-west","cc":"us","latitude":47.608013,"longitude":-122.33517,"reserved":0,"last_update":"0001-01-01T00:00:00Z","name_a2s":"Uncletopia | Seattle | 3 | Stopwatch Beta","protocol":17,"map":"koth_lakeside_final","folder":"tf","game":"Team Fortress","app_id":440,"player_count":0,"max_players":24,"Bots":0,"server_type":"Dedicated","server_os":"Linux","password":true,"vac":true,"version":"7757534","steam_id":85568392924515217,"keywords":["cp","nocrits","nodmgspread","uncletopia"],"game_id":440,"stv_port":27036,"stv_name":"Uncletopia | Seattle | 3 | Stopwatch Beta | STV","players":null},{"server_id":17,"name":"Uncletopia | San Francisco | 1 | All Maps","name_short":"sfo-1","host":"sfo-1.us.uncletopia.com","port":27015,"enabled":true,"region":"us-west","cc":"us","latitude":37.77397,"longitude":-122.4313,"reserved":0,"last_update":"0001-01-01T00:00:00Z","name_a2s":"Uncletopia | San Francisco | 1 | All Maps","protocol":17,"map":"pl_swiftwater_final1","folder":"tf","game":"Team Fortress","app_id":440,"player_count":24,"max_players":24,"Bots":0,"server_type":"Dedicated","server_os":"Linux","password":true,"vac":true,"version":"7757534","steam_id":85568392924469999,"keywords":["nocrits","nodmgspread","payload","uncletopia"],"game_id":440,"stv_port":27016,"stv_name":"Uncletopia | San Francisco | 1 | All Maps | STV","players":[{"user_id":48,"name":"TheMagicMrWaffle","steam_id":76561198104357256,"connected_time":1857000000000,"state":"active","ping":52},{"user_id":49,"name":"cass","steam_id":76561198074502046,"connected_time":1798000000000,"state":"active","ping":107},{"user_id":50,"name":"Donkski","steam_id":76561198406895347,"connected_time":1765000000000,"state":"active","ping":75},{"user_id":42,"name":"I regret nothing","steam_id":76561198399261089,"connected_time":2356000000000,"state":"active","ping":45},{"user_id":55,"name":"SneekiCheekiQbone","steam_id":76561198045077980,"connected_time":876000000000,"state":"active","ping":51},{"user_id":56,"name":"Addy \u003c3","steam_id":76561198045819723,"connected_time":789000000000,"state":"active","ping":146},{"user_id":15,"name":"nnichael","steam_id":76561198044136848,"connected_time":3451000000000,"state":"active","ping":62},{"user_id":57,"name":"LogicalFurret","steam_id":76561198350604657,"connected_time":633000000000,"state":"active","ping":59},{"user_id":28,"name":"catlovinggreenbean","steam_id":76561198355974740,"connected_time":2902000000000,"state":"active","ping":102},{"user_id":62,"name":"Risky","steam_id":76561198231029328,"connected_time":410000000000,"state":"active","ping":38},{"user_id":65,"name":"Horse","steam_id":76561199112075552,"connected_time":188000000000,"state":"active","ping":114},{"user_id":29,"name":"Dallas","steam_id":76561198066542919,"connected_time":2838000000000,"state":"active","ping":83},{"user_id":61,"name":"cheems","steam_id":76561198155843685,"connected_time":455000000000,"state":"active","ping":54},{"user_id":54,"name":"Baconotham","steam_id":76561198064245285,"connected_time":938000000000,"state":"active","ping":81},{"user_id":31,"name":"Definitely J.P. Morgan","steam_id":76561199122376235,"connected_time":2729000000000,"state":"active","ping":122},{"user_id":43,"name":"89","steam_id":76561198106308056,"connected_time":2338000000000,"state":"active","ping":61},{"user_id":34,"name":"Mr.Pan","steam_id":76561198069030613,"connected_time":2691000000000,"state":"active","ping":72},{"user_id":63,"name":"minerkid2004","steam_id":76561198044262827,"connected_time":346000000000,"state":"active","ping":53},{"user_id":52,"name":"felinae","steam_id":76561198085308417,"connected_time":1584000000000,"state":"active","ping":74},{"user_id":51,"name":"lukamine","steam_id":76561198166827208,"connected_time":1729000000000,"state":"active","ping":68},{"user_id":53,"name":"bottom pride burger","steam_id":76561198322247602,"connected_time":1241000000000,"state":"active","ping":60},{"user_id":40,"name":"eggplantgirl‚ô•","steam_id":76561198811515692,"connected_time":2572000000000,"state":"active","ping":44},{"user_id":47,"name":"SuperEvilPasta","steam_id":76561198078258907,"connected_time":2081000000000,"state":"active","ping":74},{"user_id":59,"name":"Gazelle","steam_id":76561198336397088,"connected_time":605000000000,"state":"active","ping":70}]},{"server_id":18,"name":"Uncletopia | San Francisco | 2 | All Maps","name_short":"sfo-2","host":"sfo-1.us.uncletopia.com","port":27025,"enabled":true,"region":"us-west","cc":"us","latitude":37.77397,"longitude":-122.4313,"reserved":0,"last_update":"0001-01-01T00:00:00Z","name_a2s":"Uncletopia | San Francisco | 2 | All Maps","protocol":17,"map":"koth_highpass","folder":"tf","game":"Team Fortress","app_id":440,"player_count":0,"max_players":24,"Bots":0,"server_type":"Dedicated","server_os":"Linux","password":true,"vac":true,"version":"7757534","steam_id":85568392924470000,"keywords":["cp","nocrits","nodmgspread","uncletopia"],"game_id":440,"stv_port":27026,"stv_name":"Uncletopia | San Francisco | 2 | All Maps | STV","players":null},{"server_id":19,"name":"Uncletopia | San Francisco | 3 | Stopwatch Beta","name_short":"sfo-3","host":"sfo-1.us.uncletopia.com","port":27035,"enabled":true,"region":"us-west","cc":"us","latitude":37.77397,"longitude":-122.4313,"reserved":0,"last_update":"0001-01-01T00:00:00Z","name_a2s":"Uncletopia | San Francisco | 3 | Stopwatch Beta","protocol":17,"map":"koth_lakeside_final","folder":"tf","game":"Team Fortress","app_id":440,"player_count":0,"max_players":24,"Bots":0,"server_type":"Dedicated","server_os":"Linux","password":true,"vac":true,"version":"7757534","steam_id":85568392924742824,"keywords":["cp","nocrits","nodmgspread","uncletopia"],"game_id":440,"stv_port":27036,"stv_name":"Uncletopia | San Francisco | 3 | Stopwatch Beta | STV","players":null},{"server_id":20,"name":"Uncletopia | San Francisco | 4 | Community","name_short":"sfo-4","host":"sfo-1.us.uncletopia.com","port":27045,"enabled":true,"region":"us-west","cc":"us","latitude":37.77397,"longitude":-122.4313,"reserved":0,"last_update":"0001-01-01T00:00:00Z","name_a2s":"Uncletopia | San Francisco | 4 | Community","protocol":17,"map":"workshop/pl_cashworks_final1.ugc2904065412","folder":"tf","game":"Team Fortress","app_id":440,"player_count":0,"max_players":24,"Bots":0,"server_type":"Dedicated","server_os":"Linux","password":true,"vac":true,"version":"7757534","steam_id":85568392924742826,"keywords":["nocrits","nodmgspread","payload","uncletopia"],"game_id":440,"stv_port":27046,"stv_name":"Uncletopia | San Francisco | 4 | Community | STV","players":null},{"server_id":141,"name":"Uncletopia | Sydney | 1 | All Maps","name_short":"syd-1","host":"syd-1.au.uncletopia.com","port":27015,"enabled":true,"region":"au","cc":"au","latitude":-33.865143,"longitude":151.2099,"reserved":0,"last_update":"0001-01-01T00:00:00Z","name_a2s":"Uncletopia | Sydney | 1 | All Maps","protocol":17,"map":"koth_viaduct","folder":"tf","game":"Team Fortress","app_id":440,"player_count":0,"max_players":24,"Bots":0,"server_type":"Dedicated","server_os":"Linux","password":true,"vac":true,"version":"7757534","steam_id":85568392924470001,"keywords":["cp","nocrits","nodmgspread","uncletopia"],"game_id":440,"stv_port":27016,"stv_name":"Uncletopia | Sydney | 1 | All Maps | STV","players":null},{"server_id":123,"name":"Uncletopia | Sydney | 2 | All Maps","name_short":"syd-2","host":"syd-1.au.uncletopia.com","port":27025,"enabled":true,"region":"au","cc":"au","latitude":-33.865143,"longitude":151.2099,"reserved":0,"last_update":"0001-01-01T00:00:00Z","name_a2s":"Uncletopia | Sydney | 2 | All Maps","protocol":17,"map":"cp_process_final","folder":"tf","game":"Team Fortress","app_id":440,"player_count":0,"max_players":24,"Bots":0,"server_type":"Dedicated","server_os":"Linux","password":true,"vac":true,"version":"7757534","steam_id":85568392924470002,"keywords":["cp","nocrits","nodmgspread","uncletopia"],"game_id":440,"stv_port":27026,"stv_name":"Uncletopia | Sydney | 2 | All Maps | STV","players":null},{"server_id":395,"name":"Uncletopia | Sydney | 3 | All Maps","name_short":"syd-3","host":"syd-1.au.uncletopia.com","port":27035,"enabled":true,"region":"au","cc":"au","latitude":-33.865143,"longitude":151.2099,"reserved":0,"last_update":"0001-01-01T00:00:00Z","name_a2s":"Uncletopia | Sydney | 3 | All Maps","protocol":17,"map":"pl_swiftwater_final1","folder":"tf","game":"Team Fortress","app_id":440,"player_count":0,"max_players":24,"Bots":0,"server_type":"Dedicated","server_os":"Linux","password":true,"vac":true,"version":"7757534","steam_id":85568392925194467,"keywords":["nocrits","nodmgspread","payload","uncletopia"],"game_id":440,"stv_port":27036,"stv_name":"Uncletopia | Sydney | 3 | All Maps | STV","players":null},{"server_id":396,"name":"Uncletopia | Sydney | 4 | All Maps","name_short":"syd-4","host":"syd-1.au.uncletopia.com","port":27045,"enabled":true,"region":"au","cc":"au","latitude":-33.865143,"longitude":151.2099,"reserved":0,"last_update":"0001-01-01T00:00:00Z","name_a2s":"Uncletopia | Sydney | 4 | All Maps","protocol":17,"map":"koth_highpass","folder":"tf","game":"Team Fortress","app_id":440,"player_count":0,"max_players":24,"Bots":0,"server_type":"Dedicated","server_os":"Linux","password":true,"vac":true,"version":"7757534","steam_id":85568392925397958,"keywords":["cp","nocrits","nodmgspread","uncletopia"],"game_id":440,"stv_port":27046,"stv_name":"Uncletopia | Sydney | 4 | All Maps | STV","players":null},{"server_id":58,"name":"Uncletopia | Sydney | 5 | Stopwatch Beta","name_short":"syd-5","host":"syd-1.au.uncletopia.com","port":27055,"enabled":true,"region":"au","cc":"au","latitude":-33.865143,"longitude":151.2099,"reserved":0,"last_update":"0001-01-01T00:00:00Z","name_a2s":"Uncletopia | Sydney | 5 | Stopwatch Beta","protocol":17,"map":"koth_cascade","folder":"tf","game":"Team Fortress","app_id":440,"player_count":0,"max_players":24,"Bots":0,"server_type":"Dedicated","server_os":"Linux","password":true,"vac":true,"version":"7757534","steam_id":85568392925397959,"keywords":["cp","nocrits","nodmgspread","uncletopia"],"game_id":440,"stv_port":27056,"stv_name":"Uncletopia | Sydney | 5 | Stopwatch Beta | STV","players":null},{"server_id":59,"name":"Uncletopia | Sydney | 6 | Community","name_short":"syd-6","host":"syd-1.au.uncletopia.com","port":27065,"enabled":true,"region":"au","cc":"au","latitude":-33.865143,"longitude":151.2099,"reserved":0,"last_update":"0001-01-01T00:00:00Z","name_a2s":"Uncletopia | Sydney | 6 | Community","protocol":17,"map":"cp_snakewater_final1","folder":"tf","game":"Team Fortress","app_id":440,"player_count":0,"max_players":24,"Bots":0,"server_type":"Dedicated","server_os":"Linux","password":true,"vac":true,"version":"7757534","steam_id":85568392925397960,"keywords":["cp","nocrits","nodmgspread","uncletopia"],"game_id":440,"stv_port":27066,"stv_name":"Uncletopia | Sydney | 6 | Community | STV","players":null},{"server_id":49,"name":"Uncletopia | Warsaw | 1 | All Maps","name_short":"waw-1","host":"waw-1.pl.uncletopia.com","port":27015,"enabled":true,"region":"eu","cc":"pl","latitude":52.2297,"longitude":21.017532,"reserved":0,"last_update":"0001-01-01T00:00:00Z","name_a2s":"","protocol":0,"map":"","folder":"","game":"","app_id":0,"player_count":0,"max_players":0,"Bots":0,"server_type":"","server_os":"","password":false,"vac":false,"version":"","steam_id":0,"keywords":null,"game_id":0,"stv_port":0,"stv_name":"","players":null},{"server_id":50,"name":"Uncletopia | Warsaw | 2 | All Maps","name_short":"waw-2","host":"waw-1.pl.uncletopia.com","port":27025,"enabled":true,"region":"eu","cc":"pl","latitude":52.2297,"longitude":21.017532,"reserved":0,"last_update":"0001-01-01T00:00:00Z","name_a2s":"Uncletopia | Warsaw | 2 | All Maps","protocol":17,"map":"koth_viaduct","folder":"tf","game":"Team Fortress","app_id":440,"player_count":0,"max_players":24,"Bots":0,"server_type":"Dedicated","server_os":"Linux","password":true,"vac":true,"version":"7757534","steam_id":85568392925397851,"keywords":["cp","nocrits","nodmgspread","uncletopia"],"game_id":440,"stv_port":27026,"stv_name":"Uncletopia | Warsaw | 2 | All Maps | STV","players":null},{"server_id":51,"name":"Uncletopia | Warsaw | 3 | All Maps","name_short":"waw-3","host":"waw-1.pl.uncletopia.com","port":27035,"enabled":true,"region":"eu","cc":"pl","latitude":52.2297,"longitude":21.017532,"reserved":0,"last_update":"0001-01-01T00:00:00Z","name_a2s":"Uncletopia | Warsaw | 3 | All Maps","protocol":17,"map":"ctf_2fort","folder":"tf","game":"Team Fortress","app_id":440,"player_count":3,"max_players":24,"Bots":0,"server_type":"Dedicated","server_os":"Linux","password":true,"vac":true,"version":"7757534","steam_id":85568392925397852,"keywords":["ctf","nocrits","nodmgspread","uncletopia"],"game_id":440,"stv_port":27036,"stv_name":"Uncletopia | Warsaw | 3 | All Maps | STV","players":[{"user_id":57,"name":"Peter Pammpim","steam_id":76561199103785290,"connected_time":1113000000000,"state":"active","ping":114},{"user_id":56,"name":"RikyBiky","steam_id":76561198261545177,"connected_time":2426000000000,"state":"active","ping":95},{"user_id":34,"name":"spy in the base","steam_id":76561198284570752,"connected_time":7112000000000,"state":"active","ping":33}]},{"server_id":52,"name":"Uncletopia | Warsaw | 4 | All Maps","name_short":"waw-4","host":"waw-1.pl.uncletopia.com","port":27045,"enabled":true,"region":"eu","cc":"pl","latitude":52.2297,"longitude":21.017532,"reserved":0,"last_update":"0001-01-01T00:00:00Z","name_a2s":"Uncletopia | Warsaw | 4 | All Maps","protocol":17,"map":"koth_lakeside_final","folder":"tf","game":"Team Fortress","app_id":440,"player_count":0,"max_players":24,"Bots":0,"server_type":"Dedicated","server_os":"Linux","password":true,"vac":true,"version":"7757534","steam_id":85568392925397853,"keywords":["cp","nocrits","nodmgspread","uncletopia"],"game_id":440,"stv_port":27046,"stv_name":"Uncletopia | Warsaw | 4 | All Maps | STV","players":null},{"server_id":53,"name":"Uncletopia | Warsaw | 5 | Stopwatch Beta","name_short":"waw-5","host":"waw-1.pl.uncletopia.com","port":27055,"enabled":true,"region":"eu","cc":"pl","latitude":52.2297,"longitude":21.017532,"reserved":0,"last_update":"0001-01-01T00:00:00Z","name_a2s":"Uncletopia | Warsaw | 5 | Stopwatch Beta","protocol":17,"map":"pl_borneo","folder":"tf","game":"Team Fortress","app_id":440,"player_count":0,"max_players":24,"Bots":0,"server_type":"Dedicated","server_os":"Linux","password":true,"vac":true,"version":"7757534","steam_id":85568392925397854,"keywords":["nocrits","nodmgspread","payload","uncletopia"],"game_id":440,"stv_port":27056,"stv_name":"Uncletopia | Warsaw | 5 | Stopwatch Beta | STV","players":null},{"server_id":54,"name":"Uncletopia | Warsaw | 6 | Community","name_short":"waw-6","host":"waw-1.pl.uncletopia.com","port":27065,"enabled":true,"region":"eu","cc":"pl","latitude":52.2297,"longitude":21.017532,"reserved":0,"last_update":"0001-01-01T00:00:00Z","name_a2s":"Uncletopia | Warsaw | 6 | Community","protocol":17,"map":"workshop/koth_synthetic_rc6a.ugc1549817316","folder":"tf","game":"Team Fortress","app_id":440,"player_count":0,"max_players":24,"Bots":0,"server_type":"Dedicated","server_os":"Linux","password":true,"vac":true,"version":"7757534","steam_id":85568392925397856,"keywords":["cp","nocrits","nodmgspread","uncletopia"],"game_id":440,"stv_port":27066,"stv_name":"Uncletopia | Warsaw | 6 | Community | STV","players":null}]}