{"status":true,"message":"","result":[{"server_id":9,"name":"Uncletopia | Atlanta | 1 | All Maps","name_short":"atl-1","host":"atl-1.us.uncletopia.com","port":27015,"enabled":true,"region":"us-east","cc":"us","latitude":33.753746,"longitude":-84.38633,"reserved":0,"last_update":"0001-01-01T00:00:00Z","name_a2s":"Uncletopia | Atlanta | 1 | All Maps","protocol":17,"map":"cp_mountainlab","folder":"tf","game":"Team Fortress","app_id":440,"player_count":0,"max_players":24,"Bots":0,"server_type":"Dedicated","server_os":"Linux","password":true,"vac":true,"version":"7961495","steam_id":85568392924469982,"keywords":["cp","nocrits","nodmgspread","uncletopia"],"game_id":440,"stv_port":27016,"stv_name":"Uncletopia | Atlanta | 1 | All Maps | STV","players":null},{"server_id":104,"name":"Uncletopia | Atlanta | 2 | All Maps","name_short":"atl-2","host":"atl-1.us.uncletopia.com","port":27025,"enabled":true,"region":"us-east","cc":"us","latitude":33.753746,"longitude":-84.38633,"reserved":0,"last_update":"0001-01-01T00:00:00Z","name_a2s":"Uncletopia | Atlanta | 2 | All Maps","protocol":17,"map":"koth_cascade","folder":"tf","game":"Team Fortress","app_id":440,"player_count":0,"max_players":24,"Bots":0,"server_type":"Dedicated","server_os":"Linux","password":true,"vac":true,"version":"7961495","steam_id":85568392924469983,"keywords":["cp","nocrits","nodmgspread","uncletopia"],"game_id":440,"stv_port":27026,"stv_name":"Uncletopia | Atlanta | 2 | All Maps | STV","players":null},{"server_id":400,"name":"Uncletopia | Atlanta | 3 | Stopwatch","name_short":"atl-3","host":"atl-1.us.uncletopia.com","port":27035,"enabled":true,"region":"us-east","cc":"us","latitude":33.753746,"longitude":-84.38633,"reserved":0,"last_update":"0001-01-01T00:00:00Z","name_a2s":"Uncletopia | Atlanta | 3 | Stopwatch","protocol":17,"map":"pl_badwater","folder":"tf","game":"Team Fortress","app_id":440,"player_count":0,"max_players":24,"Bots":0,"server_type":"Dedicated","server_os":"Linux","password":true,"vac":true,"version":"7961495","steam_id":85568392924515187,"keywords":["nocrits","nodmgspread","payload","uncletopia"],"game_id":440,"stv_port":27036,"stv_name":"Uncletopia | Atlanta | 3 | Stopwatch | STV","players":null},{"server_id":401,"name":"Uncletopia | Atlanta | 4 | Community","name_short":"atl-4","host":"atl-1.us.uncletopia.com","port":27045,"enabled":true,"region":"us-east","cc":"us","latitude":33.753746,"longitude":-84.38633,"reserved":0,"last_update":"0001-01-01T00:00:00Z","name_a2s":"Uncletopia | Atlanta | 4 | Community","protocol":17,"map":"cp_sunshine","folder":"tf","game":"Team Fortress","app_id":440,"player_count":0,"max_players":24,"Bots":0,"server_type":"Dedicated","server_os":"Linux","password":true,"vac":true,"version":"7961495","steam_id":85568392924515188,"keywords":["cp","nocrits","nodmgspread","uncletopia"],"game_id":440,"stv_port":27046,"stv_name":"Uncletopia | Atlanta | 4 | Community | STV","players":null},{"server_id":2,"name":"Uncletopia | Chicago | 1 | All Maps","name_short":"chi-1","host":"chi-1.us.uncletopia.com","port":27015,"enabled":true,"region":"us-central","cc":"us","latitude":41.881832,"longitude":-87.62318,"reserved":0,"last_update":"0001-01-01T00:00:00Z","name_a2s":"Uncletopia | Chicago | 1 | All Maps","protocol":17,"map":"pl_frontier_final","folder":"tf","game":"Team Fortress","app_id":440,"player_count":24,"max_players":24,"Bots":0,"server_type":"Dedicated","server_os":"Linux","password":true,"vac":true,"version":"7961495","steam_id":85568392924469984,"keywords":["nocrits","nodmgspread","payload","uncletopia"],"game_id":440,"stv_port":27016,"stv_name":"Uncletopia | Chicago | 1 | All Maps | STV","players":[{"user_id":8,"name":"mistral","steam_id":76561198883415090,"connected_time":2051000000000,"state":"active","ping":86},{"user_id":49,"name":"St. Michael","steam_id":76561198037611052,"connected_time":367000000000,"state":"active","ping":66},{"user_id":23,"name":"unmitigated success","steam_id":76561197988234127,"connected_time":1223000000000,"state":"active","ping":65},{"user_id":10,"name":"orneps489","steam_id":76561199124755916,"connected_time":2035000000000,"state":"active","ping":75},{"user_id":50,"name":"Narcolepsy","steam_id":76561198275616126,"connected_time":329000000000,"state":"active","ping":101},{"user_id":32,"name":"Munchlax","steam_id":76561199071002439,"connected_time":869000000000,"state":"active","ping":54},{"user_id":45,"name":"Fred Durst's #1 Fan","steam_id":76561198282395338,"connected_time":636000000000,"state":"active","ping":70},{"user_id":48,"name":"toasty weber","steam_id":76561198037746805,"connected_time":474000000000,"state":"active","ping":62},{"user_id":30,"name":"φCliff Racerφ","steam_id":76561198095908193,"connected_time":907000000000,"state":"active","ping":61},{"user_id":27,"name":"Dog Goggles","steam_id":76561197995233692,"connected_time":1019000000000,"state":"active","ping":84},{"user_id":28,"name":"Gul'dan","steam_id":76561198240466940,"connected_time":1000000000000,"state":"active","ping":177},{"user_id":29,"name":"Neat","steam_id":76561198140451429,"connected_time":931000000000,"state":"active","ping":45},{"user_id":31,"name":"The Hose on Upward","steam_id":76561197965092192,"connected_time":902000000000,"state":"active","ping":85},{"user_id":33,"name":"Sunny Jim","steam_id":76561198115192048,"connected_time":831000000000,"state":"active","ping":106},{"user_id":34,"name":"RuinLucky","steam_id":76561199481172481,"connected_time":828000000000,"state":"active","ping":108},{"user_id":35,"name":"sketchy","steam_id":76561198827076523,"connected_time":782000000000,"state":"active","ping":75},{"user_id":44,"name":"Deshift00","steam_id":76561198058015192,"connected_time":670000000000,"state":"active","ping":88},{"user_id":51,"name":"Hylic","steam_id":76561199051314589,"connected_time":309000000000,"state":"active","ping":60},{"user_id":38,"name":"defbigsonicsbff","steam_id":76561199388617281,"connected_time":766000000000,"state":"active","ping":79},{"user_id":39,"name":"Forsén","steam_id":76561199131971501,"connected_time":760000000000,"state":"active","ping":160},{"user_id":47,"name":"sirrad","steam_id":76561199403589748,"connected_time":503000000000,"state":"active","ping":50},{"user_id":41,"name":"smokecloud","steam_id":76561198136296903,"connected_time":731000000000,"state":"active","ping":74},{"user_id":42,"name":"Vortigon23","steam_id":76561198116361805,"connected_time":730000000000,"state":"active","ping":83},{"user_id":52,"name":"pootwa","steam_id":76561198111259720,"connected_time":302000000000,"state":"active","ping":74}]},{"server_id":106,"name":"Uncletopia | Chicago | 2 | All Maps","name_short":"chi-2","host":"chi-1.us.uncletopia.com","port":27025,"enabled":true,"region":"us-central","cc":"us","latitude":41.881832,"longitude":-87.62318,"reserved":0,"last_update":"0001-01-01T00:00:00Z","name_a2s":"Uncletopia | Chicago | 2 | All Maps","protocol":17,"map":"koth_viaduct","folder":"tf","game":"Team Fortress","app_id":440,"player_count":0,"max_players":24,"Bots":0,"server_type":"Dedicated","server_os":"Linux","password":true,"vac":true,"version":"7961495","steam_id":85568392924469985,"keywords":["cp","nocrits","nodmgspread","uncletopia"],"game_id":440,"stv_port":27026,"stv_name":"Uncletopia | Chicago | 2 | All Maps | STV","players":null},{"server_id":402,"name":"Uncletopia | Chicago | 3 | All Maps","name_short":"chi-3","host":"chi-1.us.uncletopia.com","port":27035,"enabled":true,"region":"us-central","cc":"us","latitude":41.881832,"longitude":-87.62318,"reserved":0,"last_update":"0001-01-01T00:00:00Z","name_a2s":"Uncletopia | Chicago | 3 | All Maps","protocol":17,"map":"pl_frontier_final","folder":"tf","game":"Team Fortress","app_id":440,"player_count":0,"max_players":24,"Bots":0,"server_type":"Dedicated","server_os":"Linux","password":true,"vac":true,"version":"7961495","steam_id":85568392924515191,"keywords":["nocrits","nodmgspread","payload","uncletopia"],"game_id":440,"stv_port":27036,"stv_name":"Uncletopia | Chicago | 3 | All Maps | STV","players":null},{"server_id":403,"name":"Uncletopia | Chicago | 4 | All Maps","name_short":"chi-4","host":"chi-1.us.uncletopia.com","port":27045,"enabled":true,"region":"us-central","cc":"us","latitude":41.881832,"longitude":-87.62318,"reserved":0,"last_update":"0001-01-01T00:00:00Z","name_a2s":"Uncletopia | Chicago | 4 | All Maps","protocol":17,"map":"koth_cascade","folder":"tf","game":"Team Fortress","app_id":440,"player_count":0,"max_players":24,"Bots":0,"server_type":"Dedicated","server_os":"Linux","password":true,"vac":true,"version":"7961495","steam_id":85568392924515193,"keywords":["cp","nocrits","nodmgspread","uncletopia"],"game_id":440,"stv_port":27046,"stv_name":"Uncletopia | Chicago | 4 | All Maps | STV","players":null},{"server_id":36,"name":"Uncletopia | Chicago | 5 | All Maps","name_short":"chi-5","host":"chi-2.us.uncletopia.com","port":27015,"enabled":true,"region":"us-central","cc":"us","latitude":41.881832,"longitude":-87.62318,"reserved":0,"last_update":"0001-01-01T00:00:00Z","name_a2s":"Uncletopia | Chicago | 5 | All Maps","protocol":17,"map":"pl_swiftwater_final1","folder":"tf","game":"Team Fortress","app_id":440,"player_count":0,"max_players":24,"Bots":0,"server_type":"Dedicated","server_os":"Linux","password":true,"vac":true,"version":"7961495","steam_id":85568392924866362,"keywords":["nocrits","nodmgspread","payload","uncletopia"],"game_id":440,"stv_port":27016,"stv_name":"Uncletopia | Chicago | 5 | All Maps | STV","players":null},{"server_id":37,"name":"Uncletopia | Chicago | 6 | All Maps","name_short":"chi-6","host":"chi-2.us.uncletopia.com","port":27025,"enabled":true,"region":"us-central","cc":"us","latitude":41.881832,"longitude":-87.62318,"reserved":0,"last_update":"0001-01-01T00:00:00Z","name_a2s":"Uncletopia | Chicago | 6 | All Maps","protocol":17,"map":"pl_frontier_final","folder":"tf","game":"Team Fortress","app_id":440,"player_count":0,"max_players":24,"Bots":0,"server_type":"Dedicated","server_os":"Linux","password":true,"vac":true,"version":"7961495","steam_id":85568392924866363,"keywords":["nocrits","nodmgspread","payload","uncletopia"],"game_id":440,"stv_port":27026,"stv_name":"Uncletopia | Chicago | 6 | All Maps | STV","players":null},{"server_id":38,"name":"Uncletopia | Chicago | 7 | Stopwatch","name_short":"chi-7","host":"chi-2.us.uncletopia.com","port":27035,"enabled":true,"region":"us-central","cc":"us","latitude":41.881832,"longitude":-87.62318,"reserved":0,"last_update":"0001-01-01T00:00:00Z","name_a2s":"Uncletopia | Chicago | 7 | Stopwatch","protocol":17,"map":"pl_badwater","folder":"tf","game":"Team Fortress","app_id":440,"player_count":0,"max_players":24,"Bots":0,"server_type":"Dedicated","server_os":"Linux","password":true,"vac":true,"version":"7961495","steam_id":85568392924866364,"keywords":["nocrits","nodmgspread","payload","uncletopia"],"game_id":440,"stv_port":27036,"stv_name":"Uncletopia | Chicago | 7 | Stopwatch | STV","players":null},{"server_id":39,"name":"Uncletopia | Chicago | 8 | Community","name_short":"chi-8","host":"chi-2.us.uncletopia.com","port":27045,"enabled":true,"region":"us-central","cc":"us","latitude":41.881832,"longitude":-87.62318,"reserved":0,"last_update":"0001-01-01T00:00:00Z","name_a2s":"Uncletopia | Chicago | 8 | Community","protocol":17,"map":"pl_pier","folder":"tf","game":"Team Fortress","app_id":440,"player_count":0,"max_players":24,"Bots":0,"server_type":"Dedicated","server_os":"Linux","password":true,"vac":true,"version":"7961495","steam_id":85568392924866365,"keywords":["nocrits","nodmgspread","payload","uncletopia"],"game_id":440,"stv_port":27046,"stv_name":"Uncletopia | Chicago | 8 | Community | STV","players":null},{"server_id":8,"name":"Uncletopia | Dallas | 1 | All Maps","name_short":"dal-1","host":"dal-1.us.uncletopia.com","port":27015,"enabled":true,"region":"us-central","cc":"us","latitude":32.779167,"longitude":-96.80889,"reserved":0,"last_update":"0001-01-01T00:00:00Z","name_a2s":"Uncletopia | Dallas | 1 | All Maps","protocol":17,"map":"pl_barnblitz","folder":"tf","game":"Team Fortress","app_id":440,"player_count":24,"max_players":24,"Bots":0,"server_type":"Dedicated","server_os":"Linux","password":true,"vac":true,"version":"7961495","steam_id":85568392924469986,"keywords":["nocrits","nodmgspread","payload","uncletopia"],"game_id":440,"stv_port":27016,"stv_name":"Uncletopia | Dallas | 1 | All Maps | STV","players":[{"user_id":173,"name":"Zetta","steam_id":76561198045710113,"connected_time":3427000000000,"state":"active","ping":79},{"user_id":192,"name":"Discourse","steam_id":76561198984286678,"connected_time":1833000000000,"state":"active","ping":79},{"user_id":176,"name":"Aeris","steam_id":76561198287271028,"connected_time":2963000000000,"state":"active","ping":73},{"user_id":169,"name":"doydoydoydoydoy","steam_id":76561198037803087,"connected_time":3779000000000,"state":"active","ping":64},{"user_id":205,"name":"Обама","steam_id":76561198134415874,"connected_time":323000000000,"state":"active","ping":65},{"user_id":203,"name":"ghoulavelii","steam_id":76561199043015477,"connected_time":506000000000,"state":"active","ping":82},{"user_id":197,"name":"Mellou","steam_id":76561198212048740,"connected_time":1259000000000,"state":"active","ping":44},{"user_id":171,"name":"Peashooter","steam_id":76561198295501978,"connected_time":3698000000000,"state":"active","ping":52},{"user_id":187,"name":"Valen","steam_id":76561198142031999,"connected_time":2407000000000,"state":"active","ping":65},{"user_id":134,"name":"Draconic Ballad","steam_id":76561198027191515,"connected_time":5464000000000,"state":"active","ping":75},{"user_id":196,"name":"Bogey","steam_id":76561198096227944,"connected_time":1375000000000,"state":"active","ping":48},{"user_id":163,"name":"altra","steam_id":76561198117148323,"connected_time":4162000000000,"state":"active","ping":81},{"user_id":178,"name":"Meh","steam_id":76561198078187920,"connected_time":2936000000000,"state":"active","ping":110},{"user_id":180,"name":"Phosu","steam_id":76561198180162801,"connected_time":2874000000000,"state":"active","ping":66},{"user_id":182,"name":"Bussy Bandit","steam_id":76561198034028769,"connected_time":2795000000000,"state":"active","ping":84},{"user_id":200,"name":"Cheddar","steam_id":76561199123994392,"connected_time":794000000000,"state":"active","ping":128},{"user_id":198,"name":"dobby","steam_id":76561198012274834,"connected_time":827000000000,"state":"active","ping":69},{"user_id":183,"name":"Boom 13","steam_id":76561198126796502,"connected_time":2792000000000,"state":"active","ping":79},{"user_id":201,"name":"tf2player001","steam_id":76561199497314797,"connected_time":756000000000,"state":"active","ping":111},{"user_id":184,"name":"twitch.tv/cockroachjones","steam_id":76561199070677866,"connected_time":2757000000000,"state":"active","ping":159},{"user_id":207,"name":"Hawkborne","steam_id":76561198107249245,"connected_time":108000000000,"state":"active","ping":71},{"user_id":199,"name":"JayRawgTV","steam_id":76561198044402840,"connected_time":825000000000,"state":"active","ping":45},{"user_id":190,"name":"Dalsteeeeen","steam_id":76561198079701053,"connected_time":1870000000000,"state":"active","ping":66},{"user_id":202,"name":"Boot Mcstink","steam_id":76561199226873917,"connected_time":724000000000,"state":"active","ping":86}]},{"server_id":108,"name":"Uncletopia | Dallas | 2 | All Maps","name_short":"dal-2","host":"dal-1.us.uncletopia.com","port":27025,"enabled":true,"region":"us-central","cc":"us","latitude":32.779167,"longitude":-96.80889,"reserved":0,"last_update":"0001-01-01T00:00:00Z","name_a2s":"Uncletopia | Dallas | 2 | All Maps","protocol":17,"map":"cp_process_final","folder":"tf","game":"Team Fortress","app_id":440,"player_count":0,"max_players":24,"Bots":0,"server_type":"Dedicated","server_os":"Linux","password":true,"vac":true,"version":"7961495","steam_id":85568392924469988,"keywords":["cp","nocrits","nodmgspread","uncletopia"],"game_id":440,"stv_port":27026,"stv_name":"Uncletopia | Dallas | 2 | All Maps | STV","players":null},{"server_id":404,"name":"Uncletopia | Dallas | 3 | All Maps","name_short":"dal-3","host":"dal-1.us.uncletopia.com","port":27035,"enabled":true,"region":"us-central","cc":"us","latitude":32.779167,"longitude":-96.80889,"reserved":0,"last_update":"0001-01-01T00:00:00Z","name_a2s":"Uncletopia | Dallas | 3 | All Maps","protocol":17,"map":"pl_badwater","folder":"tf","game":"Team Fortress","app_id":440,"player_count":0,"max_players":24,"Bots":0,"server_type":"Dedicated","server_os":"Linux","password":true,"vac":true,"version":"7961495","steam_id":85568392924515219,"keywords":["nocrits","nodmgspread","payload","uncletopia"],"game_id":440,"stv_port":27036,"stv_name":"Uncletopia | Dallas | 3 | All Maps | STV","players":null},{"server_id":405,"name":"Uncletopia | Dallas | 4 | Community","name_short":"dal-4","host":"dal-1.us.uncletopia.com","port":27045,"enabled":true,"region":"us-central","cc":"us","latitude":32.779167,"longitude":-96.80889,"reserved":0,"last_update":"0001-01-01T00:00:00Z","name_a2s":"Uncletopia | Dallas | 4 | Community","protocol":17,"map":"pl_pier","folder":"tf","game":"Team Fortress","app_id":440,"player_count":0,"max_players":24,"Bots":0,"server_type":"Dedicated","server_os":"Linux","password":true,"vac":true,"version":"7961495","steam_id":85568392924515220,"keywords":["nocrits","nodmgspread","payload","uncletopia"],"game_id":440,"stv_port":27046,"stv_name":"Uncletopia | Dallas | 4 | Community | STV","players":null},{"server_id":5,"name":"Uncletopia | Frankfurt | 1 | All Maps","name_short":"frk-1","host":"frk-1.de.uncletopia.com","port":27015,"enabled":true,"region":"eu","cc":"de","latitude":50.110924,"longitude":8.682127,"reserved":0,"last_update":"0001-01-01T00:00:00Z","name_a2s":"Uncletopia | Frankfurt | 1 | All Maps","protocol":17,"map":"koth_highpass","folder":"tf","game":"Team Fortress","app_id":440,"player_count":24,"max_players":24,"Bots":0,"server_type":"Dedicated","server_os":"Linux","password":true,"vac":true,"version":"7961495","steam_id":85568392924469989,"keywords":["cp","nocrits","nodmgspread","uncletopia"],"game_id":440,"stv_port":27016,"stv_name":"Uncletopia | Frankfurt | 1 | All Maps | STV","players":[{"user_id":14,"name":"Zerwee","steam_id":76561198181368101,"connected_time":554000000000,"state":"active","ping":51},{"user_id":15,"name":"Gearless","steam_id":76561198362367074,"connected_time":527000000000,"state":"active","ping":75},{"user_id":32,"name":"Real (Real)","steam_id":76561198323425034,"connected_time":261000000000,"state":"active","ping":72},{"user_id":17,"name":"Mka Kitty","steam_id":76561198070128785,"connected_time":511000000000,"state":"active","ping":75},{"user_id":18,"name":"wasted potential","steam_id":76561198798841999,"connected_time":490000000000,"state":"active","ping":61},{"user_id":19,"name":"☻","steam_id":76561198085914681,"connected_time":484000000000,"state":"active","ping":66},{"user_id":20,"name":"Adrian Picche","steam_id":76561198009335657,"connected_time":468000000000,"state":"active","ping":72},{"user_id":21,"name":"Waffles","steam_id":76561199086942763,"connected_time":440000000000,"state":"active","ping":380},{"user_id":33,"name":"il","steam_id":76561198122662610,"connected_time":227000000000,"state":"active","ping":75},{"user_id":23,"name":"≡ YOBAMA ≡","steam_id":76561198126707319,"connected_time":344000000000,"state":"active","ping":76},{"user_id":24,"name":"Tsumayōji","steam_id":76561198158709847,"connected_time":341000000000,"state":"active","ping":69},{"user_id":41,"name":"Wale","steam_id":76561198133656441,"connected_time":75000000000,"state":"active","ping":56},{"user_id":27,"name":"Sayu","steam_id":76561198395421637,"connected_time":319000000000,"state":"active","ping":47},{"user_id":29,"name":"theos","steam_id":76561198380183009,"connected_time":302000000000,"state":"active","ping":74},{"user_id":35,"name":"Anet1k","steam_id":76561198137123138,"connected_time":169000000000,"state":"active","ping":55},{"user_id":31,"name":"sparkynerd","steam_id":76561199040106887,"connected_time":274000000000,"state":"active","ping":72},{"user_id":38,"name":"Marabosha","steam_id":76561198137599173,"connected_time":108000000000,"state":"active","ping":105},{"user_id":39,"name":"midlpsyzl47","steam_id":76561199475972637,"connected_time":105000000000,"state":"active","ping":71},{"user_id":40,"name":"B-17 FLYING FORTRESS","steam_id":76561199239974737,"connected_time":95000000000,"state":"active","ping":79},{"user_id":42,"name":"We are in a world of magic","steam_id":76561198104745492,"connected_time":60000000000,"state":"spawning","ping":51},{"user_id":43,"name":"MrvicaKing69","steam_id":76561199268407840,"connected_time":47000000000,"state":"active","ping":86},{"user_id":44,"name":"Klikkxy","steam_id":76561199319171770,"connected_time":20000000000,"state":"spawning","ping":268},{"user_id":45,"name":"Collie","steam_id":76561198149072785,"connected_time":15000000000,"state":"spawning","ping":62},{"user_id":46,"name":"Geedis Enjoyer","steam_id":76561198032359132,"connected_time":5000000000,"state":"spawning","ping":60}]},{"server_id":110,"name":"Uncletopia | Frankfurt | 2 | All Maps","name_short":"frk-2","host":"frk-1.de.uncletopia.com","port":27025,"enabled":true,"region":"eu","cc":"de","latitude":50.110924,"longitude":8.682127,"reserved":0,"last_update":"0001-01-01T00:00:00Z","name_a2s":"Uncletopia | Frankfurt | 2 | All Maps","protocol":17,"map":"cp_dustbowl","folder":"tf","game":"Team Fortress","app_id":440,"player_count":0,"max_players":24,"Bots":0,"server_type":"Dedicated","server_os":"Linux","password":true,"vac":true,"version":"7961495","steam_id":85568392924469990,"keywords":["cp","nocrits","nodmgspread","uncletopia"],"game_id":440,"stv_port":27026,"stv_name":"Uncletopia | Frankfurt | 2 | All Maps | STV","players":null},{"server_id":308,"name":"Uncletopia | Frankfurt | 3 | All Maps","name_short":"frk-3","host":"frk-1.de.uncletopia.com","port":27035,"enabled":true,"region":"eu","cc":"de","latitude":50.110924,"longitude":8.682127,"reserved":0,"last_update":"0001-01-01T00:00:00Z","name_a2s":"Uncletopia | Frankfurt | 3 | All Maps","protocol":17,"map":"cp_dustbowl","folder":"tf","game":"Team Fortress","app_id":440,"player_count":24,"max_players":24,"Bots":0,"server_type":"Dedicated","server_os":"Linux","password":true,"vac":true,"version":"7961495","steam_id":85568392924504274,"keywords":["cp","nocrits","nodmgspread","uncletopia"],"game_id":440,"stv_port":27036,"stv_name":"Uncletopia | Frankfurt | 3 | All Maps | STV","players":[{"user_id":400,"name":"Lucki","steam_id":76561198410249745,"connected_time":1031000000000,"state":"active","ping":64},{"user_id":418,"name":"kemor","steam_id":76561198027684291,"connected_time":146000000000,"state":"active","ping":45},{"user_id":385,"name":"Gangwolf","steam_id":76561198043868575,"connected_time":1881000000000,"state":"active","ping":53},{"user_id":397,"name":"efffcraft","steam_id":76561198306317166,"connected_time":1167000000000,"state":"active","ping":94},{"user_id":413,"name":"marvi444","steam_id":76561198431534139,"connected_time":535000000000,"state":"active","ping":42},{"user_id":345,"name":"SnowShot","steam_id":76561198004766638,"connected_time":5024000000000,"state":"active","ping":64},{"user_id":371,"name":"roblan11","steam_id":76561198066839258,"connected_time":3364000000000,"state":"active","ping":44},{"user_id":367,"name":"steck","steam_id":76561197973948113,"connected_time":3648000000000,"state":"active","ping":50},{"user_id":373,"name":"howabe","steam_id":76561197996486818,"connected_time":3255000000000,"state":"active","ping":53},{"user_id":414,"name":"EtoGeek","steam_id":76561198020304242,"connected_time":527000000000,"state":"active","ping":72},{"user_id":384,"name":"Dot","steam_id":76561198047299145,"connected_time":2009000000000,"state":"active","ping":76},{"user_id":401,"name":"Mr. Watch","steam_id":76561198276103501,"connected_time":1023000000000,"state":"active","ping":76},{"user_id":358,"name":"KajaStorm","steam_id":76561199215842872,"connected_time":4001000000000,"state":"active","ping":130},{"user_id":411,"name":"BajoBongo","steam_id":76561198037096711,"connected_time":539000000000,"state":"active","ping":70},{"user_id":416,"name":"Hej sokoły!","steam_id":76561198406300604,"connected_time":299000000000,"state":"active","ping":86},{"user_id":378,"name":"Der ewige Boomer","steam_id":76561198254812703,"connected_time":2592000000000,"state":"active","ping":69},{"user_id":410,"name":"ion luca caragiale","steam_id":76561198132025408,"connected_time":544000000000,"state":"active","ping":62},{"user_id":402,"name":"Jeb_","steam_id":76561198162259257,"connected_time":1016000000000,"state":"active","ping":77},{"user_id":366,"name":"PWizard","steam_id":76561198026458489,"connected_time":3733000000000,"state":"active","ping":71},{"user_id":421,"name":"Klaun","steam_id":76561198077827849,"connected_time":126000000000,"state":"active","ping":76},{"user_id":420,"name":"jill sandwich","steam_id":76561198075068529,"connected_time":139000000000,"state":"active","ping":49},{"user_id":379,"name":"0PeKyN","steam_id":76561199027244825,"connected_time":2584000000000,"state":"active","ping":71},{"user_id":405,"name":"the grongle","steam_id":76561198989398023,"connected_time":620000000000,"state":"active","ping":102},{"user_id":355,"name":"Coke Zero","steam_id":76561198158562873,"connected_time":4440000000000,"state":"active","ping":55}]},{"server_id":309,"name":"Uncletopia | Frankfurt | 4 | All Maps","name_short":"frk-4","host":"frk-1.de.uncletopia.com","port":27045,"enabled":true,"region":"eu","cc":"de","latitude":50.110924,"longitude":8.682127,"reserved":0,"last_update":"0001-01-01T00:00:00Z","name_a2s":"Uncletopia | Frankfurt | 4 | All Maps","protocol":17,"map":"pl_badwater","folder":"tf","game":"Team Fortress","app_id":440,"player_count":24,"max_players":24,"Bots":0,"server_type":"Dedicated","server_os":"Linux","password":true,"vac":true,"version":"7961495","steam_id":85568392924504275,"keywords":["nocrits","nodmgspread","payload","uncletopia"],"game_id":440,"stv_port":27046,"stv_name":"Uncletopia | Frankfurt | 4 | All Maps | STV","players":[{"user_id":173,"name":"Cage268","steam_id":76561198856835115,"connected_time":2145000000000,"state":"active","ping":82},{"user_id":205,"name":"Marchioly","steam_id":76561198335079215,"connected_time":178000000000,"state":"active","ping":107},{"user_id":174,"name":"Flostro","steam_id":76561198259793697,"connected_time":2138000000000,"state":"active","ping":66},{"user_id":195,"name":"Heinrich","steam_id":76561198063897745,"connected_time":939000000000,"state":"active","ping":70},{"user_id":194,"name":"sBLOCKER  85","steam_id":76561198939078994,"connected_time":1158000000000,"state":"active","ping":122},{"user_id":198,"name":"♂ MGE ♂ PUPSIK ♂","steam_id":76561198308302932,"connected_time":742000000000,"state":"active","ping":90},{"user_id":177,"name":"Fus in Boots","steam_id":76561198053897722,"connected_time":1772000000000,"state":"active","ping":73},{"user_id":200,"name":"mashete","steam_id":76561198151829282,"connected_time":710000000000,"state":"active","ping":86},{"user_id":183,"name":"Keke","steam_id":76561198042032908,"connected_time":1541000000000,"state":"active","ping":107},{"user_id":46,"name":"woop","steam_id":76561198985105074,"connected_time":11197000000000,"state":"active","ping":77},{"user_id":184,"name":"Mega","steam_id":76561198163588989,"connected_time":1509000000000,"state":"active","ping":55},{"user_id":191,"name":"Skrbi❤","steam_id":76561198393866042,"connected_time":1389000000000,"state":"active","ping":66},{"user_id":204,"name":"DeCypher \u003c3","steam_id":76561198171992619,"connected_time":333000000000,"state":"active","ping":73},{"user_id":190,"name":"Krombopulos Michael","steam_id":76561198045720030,"connected_time":1416000000000,"state":"active","ping":161},{"user_id":193,"name":"kgf","steam_id":76561198181442259,"connected_time":1325000000000,"state":"active","ping":46},{"user_id":160,"name":"baballe","steam_id":76561198302448192,"connected_time":3644000000000,"state":"active","ping":38},{"user_id":135,"name":"outlaw","steam_id":76561198323805289,"connected_time":4646000000000,"state":"active","ping":45},{"user_id":187,"name":"Kenopsia","steam_id":76561198126750888,"connected_time":1473000000000,"state":"active","ping":82},{"user_id":188,"name":"Rezzarezz","steam_id":76561198092020043,"connected_time":1467000000000,"state":"active","ping":60},{"user_id":202,"name":"Jouppi","steam_id":76561198063725468,"connected_time":708000000000,"state":"active","ping":102},{"user_id":74,"name":"hisham","steam_id":76561198414437290,"connected_time":9077000000000,"state":"active","ping":110},{"user_id":105,"name":"MONSTRO","steam_id":76561198990050144,"connected_time":7011000000000,"state":"active","ping":88},{"user_id":189,"name":"\u003c3","steam_id":76561198301481739,"connected_time":1454000000000,"state":"active","ping":49},{"user_id":199,"name":"Pigeon","steam_id":76561199109713313,"connected_time":741000000000,"state":"active","ping":57}]},{"server_id":310,"name":"Uncletopia | Frankfurt | 5 | All Maps","name_short":"frk-5","host":"frk-1.de.uncletopia.com","port":27055,"enabled":true,"region":"eu","cc":"de","latitude":50.110924,"longitude":8.682127,"reserved":0,"last_update":"0001-01-01T00:00:00Z","name_a2s":"Uncletopia | Frankfurt | 5 | All Maps","protocol":17,"map":"koth_viaduct","folder":"tf","game":"Team Fortress","app_id":440,"player_count":0,"max_players":24,"Bots":0,"server_type":"Dedicated","server_os":"Linux","password":true,"vac":true,"version":"7961495","steam_id":85568392924504277,"keywords":["cp","nocrits","nodmgspread","uncletopia"],"game_id":440,"stv_port":27056,"stv_name":"Uncletopia | Frankfurt | 5 | All Maps | STV","players":null},{"server_id":311,"name":"Uncletopia | Frankfurt | 6 | All Maps","name_short":"frk-6","host":"frk-1.de.uncletopia.com","port":27065,"enabled":true,"region":"eu","cc":"de","latitude":50.110924,"longitude":8.682127,"reserved":0,"last_update":"0001-01-01T00:00:00Z","name_a2s":"Uncletopia | Frankfurt | 6 | All Maps","protocol":17,"map":"cp_altitude","folder":"tf","game":"Team Fortress","app_id":440,"player_count":0,"max_players":24,"Bots":0,"server_type":"Dedicated","server_os":"Linux","password":true,"vac":true,"version":"7961495","steam_id":85568392924504278,"keywords":["cp","nocrits","nodmgspread","uncletopia"],"game_id":440,"stv_port":27066,"stv_name":"Uncletopia | Frankfurt | 6 | All Maps | STV","players":null},{"server_id":23,"name":"Uncletopia | Frankfurt | 7 | Stopwatch","name_short":"frk-7","host":"frk-1.de.uncletopia.com","port":27075,"enabled":true,"region":"eu","cc":"de","latitude":50.110924,"longitude":8.682127,"reserved":0,"last_update":"0001-01-01T00:00:00Z","name_a2s":"Uncletopia | Frankfurt | 7 | Stopwatch","protocol":17,"map":"pl_frontier_final","folder":"tf","game":"Team Fortress","app_id":440,"player_count":0,"max_players":24,"Bots":0,"server_type":"Dedicated","server_os":"Linux","password":true,"vac":true,"version":"7961495","steam_id":85568392924742827,"keywords":["nocrits","nodmgspread","payload","uncletopia"],"game_id":440,"stv_port":27076,"stv_name":"Uncletopia | Frankfurt | 7 | Stopwatch | STV","players":null},{"server_id":24,"name":"Uncletopia | Frankfurt | 8 | Community","name_short":"frk-8","host":"frk-1.de.uncletopia.com","port":27085,"enabled":true,"region":"eu","cc":"de","latitude":50.110924,"longitude":8.682127,"reserved":0,"last_update":"0001-01-01T00:00:00Z","name_a2s":"Uncletopia | Frankfurt | 8 | Community","protocol":17,"map":"workshop/pl_barnblitz_pro7.ugc582280235","folder":"tf","game":"Team Fortress","app_id":440,"player_count":0,"max_players":24,"Bots":0,"server_type":"Dedicated","server_os":"Linux","password":true,"vac":true,"version":"7961495","steam_id":85568392924742828,"keywords":["nocrits","nodmgspread","payload","uncletopia"],"game_id":440,"stv_port":27086,"stv_name":"Uncletopia | Frankfurt | 8 | Community | STV","players":null},{"server_id":202,"name":"Uncletopia | Hong Kong | 1 | All Maps","name_short":"hgk-1","host":"hgk-1.hk.uncletopia.com","port":27015,"enabled":true,"region":"asia","cc":"hk","latitude":22.302711,"longitude":114.177216,"reserved":0,"last_update":"0001-01-01T00:00:00Z","name_a2s":"Uncletopia | Hong Kong | 1 | All Maps","protocol":17,"map":"pl_upward","folder":"tf","game":"Team Fortress","app_id":440,"player_count":24,"max_players":24,"Bots":0,"server_type":"Dedicated","server_os":"Linux","password":true,"vac":true,"version":"7961495","steam_id":85568392924494504,"keywords":["nocrits","nodmgspread","payload","uncletopia"],"game_id":440,"stv_port":27016,"stv_name":"Uncletopia | Hong Kong | 1 | All Maps | STV","players":[{"user_id":285,"name":"左 辙","steam_id":76561198202460529,"connected_time":1414000000000,"state":"active","ping":89},{"user_id":186,"name":"쿠키","steam_id":76561197997220367,"connected_time":9736000000000,"state":"active","ping":49},{"user_id":300,"name":"Fun haver","steam_id":76561199233580320,"connected_time":816000000000,"state":"active","ping":85},{"user_id":305,"name":"apollo","steam_id":76561198823374287,"connected_time":587000000000,"state":"active","ping":75},{"user_id":135,"name":"Momoxhien","steam_id":76561198414997429,"connected_time":13890000000000,"state":"active","ping":62},{"user_id":243,"name":"ArcticDolphin","steam_id":76561198203626319,"connected_time":4990000000000,"state":"active","ping":126},{"user_id":302,"name":"Vortex Swagger","steam_id":76561198833527091,"connected_time":776000000000,"state":"active","ping":100},{"user_id":287,"name":"Uncle . ks","steam_id":76561198004821819,"connected_time":1313000000000,"state":"active","ping":51},{"user_id":226,"name":"https://bad-dragon.com","steam_id":76561198086760958,"connected_time":6365000000000,"state":"active","ping":154},{"user_id":266,"name":"thelucidletters","steam_id":76561199014081185,"connected_time":3285000000000,"state":"active","ping":118},{"user_id":288,"name":"Mudal","steam_id":76561198021192745,"connected_time":1306000000000,"state":"active","ping":86},{"user_id":259,"name":"Stewb","steam_id":76561198131423270,"connected_time":3960000000000,"state":"active","ping":62},{"user_id":279,"name":"MANCO FETT","steam_id":76561198107128889,"connected_time":2064000000000,"state":"active","ping":85},{"user_id":290,"name":"Roadlion","steam_id":76561198304358355,"connected_time":1137000000000,"state":"active","ping":113},{"user_id":307,"name":"E","steam_id":76561198796342005,"connected_time":182000000000,"state":"active","ping":108},{"user_id":293,"name":"Winter","steam_id":76561198303149875,"connected_time":1041000000000,"state":"active","ping":112},{"user_id":281,"name":"Fernando Alonso","steam_id":76561199237541155,"connected_time":1839000000000,"state":"active","ping":102},{"user_id":303,"name":"Umi is eating kids","steam_id":76561199278758757,"connected_time":765000000000,"state":"active","ping":136},{"user_id":262,"name":"母の肉団子@hao123.com","steam_id":76561198069561896,"connected_time":3716000000000,"state":"active","ping":45},{"user_id":308,"name":"V :3","steam_id":76561199034546642,"connected_time":139000000000,"state":"active","ping":104},{"user_id":283,"name":"kappa","steam_id":76561198060373158,"connected_time":1761000000000,"state":"active","ping":102},{"user_id":298,"name":"Wat","steam_id":76561199159894607,"connected_time":925000000000,"state":"active","ping":123},{"user_id":239,"name":"Kyle187.14 (kr)","steam_id":76561198323378749,"connected_time":5491000000000,"state":"active","ping":79},{"user_id":212,"name":"villy","steam_id":76561198169263597,"connected_time":7779000000000,"state":"active","ping":37}]},{"server_id":1,"name":"Uncletopia | Los Angeles | 1 | All Maps","name_short":"lax-1","host":"lax-1.us.uncletopia.com","port":27015,"enabled":true,"region":"us-west","cc":"us","latitude":33.94279,"longitude":-118.41004,"reserved":0,"last_update":"0001-01-01T00:00:00Z","name_a2s":"Uncletopia | Los Angeles | 1 | All Maps","protocol":17,"map":"pl_snowycoast","folder":"tf","game":"Team Fortress","app_id":440,"player_count":0,"max_players":24,"Bots":0,"server_type":"Dedicated","server_os":"Linux","password":true,"vac":true,"version":"7961495","steam_id":85568392924469991,"keywords":["nocrits","nodmgspread","payload","uncletopia"],"game_id":440,"stv_port":27016,"stv_name":"Uncletopia | Los Angeles | 1 | All Maps | STV","players":null},{"server_id":112,"name":"Uncletopia | Los Angeles | 2 | All Maps","name_short":"lax-2","host":"lax-1.us.uncletopia.com","port":27025,"enabled":true,"region":"us-west","cc":"us","latitude":33.94279,"longitude":-118.41004,"reserved":0,"last_update":"0001-01-01T00:00:00Z","name_a2s":"Uncletopia | Los Angeles | 2 | All Maps","protocol":17,"map":"cp_mountainlab","folder":"tf","game":"Team Fortress","app_id":440,"player_count":0,"max_players":24,"Bots":0,"server_type":"Dedicated","server_os":"Linux","password":true,"vac":true,"version":"7961495","steam_id":85568392924469992,"keywords":["cp","nocrits","nodmgspread","uncletopia"],"game_id":440,"stv_port":27026,"stv_name":"Uncletopia | Los Angeles | 2 | All Maps | STV","players":null},{"server_id":324,"name":"Uncletopia | Los Angeles | 3 | All Maps","name_short":"lax-3","host":"lax-1.us.uncletopia.com","port":27035,"enabled":true,"region":"us-west","cc":"us","latitude":33.94279,"longitude":-118.41004,"reserved":0,"last_update":"0001-01-01T00:00:00Z","name_a2s":"Uncletopia | Los Angeles | 3 | All Maps","protocol":17,"map":"pl_frontier_final","folder":"tf","game":"Team Fortress","app_id":440,"player_count":0,"max_players":24,"Bots":0,"server_type":"Dedicated","server_os":"Linux","password":true,"vac":true,"version":"7961495","steam_id":85568392924510198,"keywords":["nocrits","nodmgspread","payload","uncletopia"],"game_id":440,"stv_port":27036,"stv_name":"Uncletopia | Los Angeles | 3 | All Maps | STV","players":null},{"server_id":25,"name":"Uncletopia | Los Angeles | 4 | Stopwatch","name_short":"lax-4","host":"lax-1.us.uncletopia.com","port":27045,"enabled":true,"region":"us-west","cc":"us","latitude":33.94279,"longitude":-118.41004,"reserved":0,"last_update":"0001-01-01T00:00:00Z","name_a2s":"Uncletopia | Los Angeles | 4 | Stopwatch","protocol":17,"map":"pl_barnblitz","folder":"tf","game":"Team Fortress","app_id":440,"player_count":0,"max_players":24,"Bots":0,"server_type":"Dedicated","server_os":"Linux","password":true,"vac":true,"version":"7961495","steam_id":85568392924510199,"keywords":["nocrits","nodmgspread","payload","uncletopia"],"game_id":440,"stv_port":27046,"stv_name":"Uncletopia | Los Angeles | 4 | Stopwatch | STV","players":null},{"server_id":11,"name":"Uncletopia | London | 1 | All Maps","name_short":"lon-1","host":"lon-1.uk.uncletopia.com","port":27015,"enabled":true,"region":"eu","cc":"gb","latitude":51.509865,"longitude":-0.118092,"reserved":0,"last_update":"0001-01-01T00:00:00Z","name_a2s":"Uncletopia | London | 1 | All Maps","protocol":17,"map":"cp_dustbowl","folder":"tf","game":"Team Fortress","app_id":440,"player_count":24,"max_players":24,"Bots":0,"server_type":"Dedicated","server_os":"Linux","password":true,"vac":true,"version":"7961495","steam_id":85568392924367362,"keywords":["cp","nocrits","nodmgspread","uncletopia"],"game_id":440,"stv_port":27016,"stv_name":"Uncletopia | London | 1 | All Maps | STV","players":[{"user_id":446,"name":"Ceiling fan enthusiast","steam_id":76561197989214268,"connected_time":1992000000000,"state":"active","ping":64},{"user_id":462,"name":"KENZO","steam_id":76561197993520279,"connected_time":217000000000,"state":"active","ping":72},{"user_id":451,"name":"Creative","steam_id":76561198835034247,"connected_time":1903000000000,"state":"active","ping":83},{"user_id":419,"name":"LasagneMan","steam_id":76561198971904377,"connected_time":3891000000000,"state":"active","ping":49},{"user_id":431,"name":"Rogue","steam_id":76561199143593182,"connected_time":3250000000000,"state":"active","ping":46},{"user_id":447,"name":"The Engineer","steam_id":76561199437330739,"connected_time":1984000000000,"state":"active","ping":62},{"user_id":455,"name":"Gender Telecaster","steam_id":76561198106455841,"connected_time":1353000000000,"state":"active","ping":72},{"user_id":443,"name":"Hoff","steam_id":76561198138540938,"connected_time":2035000000000,"state":"active","ping":73},{"user_id":461,"name":"Tummy","steam_id":76561198045654910,"connected_time":223000000000,"state":"active","ping":43},{"user_id":442,"name":"The indomitable human spirit","steam_id":76561198368339225,"connected_time":2388000000000,"state":"active","ping":118},{"user_id":459,"name":"Royal Dutch Shell","steam_id":76561198215986979,"connected_time":394000000000,"state":"active","ping":45},{"user_id":458,"name":"spy among us","steam_id":76561198392537090,"connected_time":907000000000,"state":"active","ping":65},{"user_id":444,"name":"AlfonsoM","steam_id":76561198138832894,"connected_time":2035000000000,"state":"active","ping":78},{"user_id":463,"name":"Valoxi","steam_id":76561197995042938,"connected_time":154000000000,"state":"active","ping":64},{"user_id":450,"name":"RXQ","steam_id":76561199423258992,"connected_time":1959000000000,"state":"active","ping":172},{"user_id":460,"name":"yipike yahiey ya kyo","steam_id":76561199226683960,"connected_time":333000000000,"state":"active","ping":83},{"user_id":464,"name":"GamerPanda","steam_id":76561198061454277,"connected_time":34000000000,"state":"active","ping":65},{"user_id":437,"name":"waitrose gaming","steam_id":76561198011450253,"connected_time":2700000000000,"state":"active","ping":55},{"user_id":421,"name":"LordTrap.exe","steam_id":76561198318089716,"connected_time":3855000000000,"state":"active","ping":57},{"user_id":426,"name":"†j1ll3s†","steam_id":76561198444424053,"connected_time":3694000000000,"state":"active","ping":78},{"user_id":438,"name":"Akisян","steam_id":76561198078706435,"connected_time":2608000000000,"state":"active","ping":81},{"user_id":338,"name":"im tired","steam_id":76561198812159557,"connected_time":8496000000000,"state":"active","ping":77},{"user_id":441,"name":"worm with a fat ass","steam_id":76561198170026338,"connected_time":2489000000000,"state":"active","ping":68},{"user_id":456,"name":"Anthony","steam_id":76561198123873957,"connected_time":1344000000000,"state":"active","ping":42}]},{"server_id":114,"name":"Uncletopia | London | 2 | All Maps","name_short":"lon-2","host":"lon-1.uk.uncletopia.com","port":27025,"enabled":true,"region":"eu","cc":"gb","latitude":51.509865,"longitude":-0.118092,"reserved":0,"last_update":"0001-01-01T00:00:00Z","name_a2s":"Uncletopia | London | 2 | All Maps","protocol":17,"map":"koth_lakeside_final","folder":"tf","game":"Team Fortress","app_id":440,"player_count":0,"max_players":24,"Bots":0,"server_type":"Dedicated","server_os":"Linux","password":true,"vac":true,"version":"7961495","steam_id":85568392924470941,"keywords":["cp","nocrits","nodmgspread","uncletopia"],"game_id":440,"stv_port":27026,"stv_name":"Uncletopia | London | 2 | All Maps | STV","players":null},{"server_id":320,"name":"Uncletopia | London | 3 | All Maps","name_short":"lon-3","host":"lon-1.uk.uncletopia.com","port":27035,"enabled":true,"region":"eu","cc":"gb","latitude":51.509865,"longitude":-0.118092,"reserved":0,"last_update":"0001-01-01T00:00:00Z","name_a2s":"Uncletopia | London | 3 | All Maps","protocol":17,"map":"pl_swiftwater_final1","folder":"tf","game":"Team Fortress","app_id":440,"player_count":24,"max_players":24,"Bots":0,"server_type":"Dedicated","server_os":"Linux","password":true,"vac":true,"version":"7961495","steam_id":85568392924510192,"keywords":["nocrits","nodmgspread","payload","uncletopia"],"game_id":440,"stv_port":27036,"stv_name":"Uncletopia | London | 3 | All Maps | STV","players":[{"user_id":25,"name":"Cosmetic brain","steam_id":76561198055936410,"connected_time":1927000000000,"state":"active","ping":81},{"user_id":32,"name":"neun_o2","steam_id":76561198795862574,"connected_time":1162000000000,"state":"active","ping":129},{"user_id":57,"name":"Derek Pappalardo Gaming","steam_id":76561198215428069,"connected_time":619000000000,"state":"active","ping":72},{"user_id":24,"name":"Pirkage #transrights","steam_id":76561198323002691,"connected_time":2055000000000,"state":"active","ping":72},{"user_id":61,"name":"zeppa114","steam_id":76561198065192734,"connected_time":345000000000,"state":"active","ping":55},{"user_id":62,"name":"silicon based life form","steam_id":76561199127121346,"connected_time":331000000000,"state":"active","ping":56},{"user_id":28,"name":"alexable","steam_id":76561198381310350,"connected_time":1518000000000,"state":"active","ping":75},{"user_id":59,"name":"Rin-Nakaret","steam_id":76561197971051188,"connected_time":533000000000,"state":"active","ping":58},{"user_id":56,"name":"Nittugai","steam_id":76561198067366462,"connected_time":636000000000,"state":"active","ping":61},{"user_id":60,"name":"Sonofawesker","steam_id":76561198149753537,"connected_time":376000000000,"state":"active","ping":53},{"user_id":63,"name":"ExtraFlames","steam_id":76561199136146246,"connected_time":325000000000,"state":"active","ping":55},{"user_id":64,"name":"Hugee  くコ:彡","steam_id":76561198245495152,"connected_time":316000000000,"state":"active","ping":60},{"user_id":38,"name":"Çodar","steam_id":76561198235518444,"connected_time":925000000000,"state":"active","ping":37},{"user_id":39,"name":"The Breathing Lad#saveTF2","steam_id":76561198301333768,"connected_time":908000000000,"state":"active","ping":54},{"user_id":55,"name":"yuck","steam_id":76561197987249568,"connected_time":715000000000,"state":"active","ping":112},{"user_id":41,"name":"mh3","steam_id":76561198192204191,"connected_time":883000000000,"state":"active","ping":74},{"user_id":47,"name":"Saab900","steam_id":76561198143529110,"connected_time":804000000000,"state":"active","ping":47},{"user_id":48,"name":"the spy from team fortress 2","steam_id":76561198047797306,"connected_time":793000000000,"state":"active","ping":117},{"user_id":45,"name":"TheRizzlerOfRizzmass","steam_id":76561198162462063,"connected_time":840000000000,"state":"active","ping":51},{"user_id":49,"name":"Fuck it (unhandicaps)","steam_id":76561197983095579,"connected_time":787000000000,"state":"active","ping":86},{"user_id":58,"name":"GabGame","steam_id":76561198105631808,"connected_time":614000000000,"state":"active","ping":68},{"user_id":51,"name":"Penis Contortionist","steam_id":76561198073663784,"connected_time":766000000000,"state":"active","ping":38},{"user_id":66,"name":"BORGETENNISCLUB","steam_id":76561198049343723,"connected_time":17000000000,"state":"active","ping":56},{"user_id":54,"name":"Fat Pigeon","steam_id":76561198817940142,"connected_time":729000000000,"state":"active","ping":47}]},{"server_id":321,"name":"Uncletopia | London | 4 | All Maps","name_short":"lon-4","host":"lon-1.uk.uncletopia.com","port":27045,"enabled":true,"region":"eu","cc":"gb","latitude":51.509865,"longitude":-0.118092,"reserved":0,"last_update":"0001-01-01T00:00:00Z","name_a2s":"Uncletopia | London | 4 | All Maps","protocol":17,"map":"koth_cascade","folder":"tf","game":"Team Fortress","app_id":440,"player_count":0,"max_players":24,"Bots":0,"server_type":"Dedicated","server_os":"Linux","password":true,"vac":true,"version":"7961495","steam_id":85568392924510193,"keywords":["cp","nocrits","nodmgspread","uncletopia"],"game_id":440,"stv_port":27046,"stv_name":"Uncletopia | London | 4 | All Maps | STV","players":null},{"server_id":21,"name":"Uncletopia | London | 5 | All Maps","name_short":"lon-5","host":"lon-1.uk.uncletopia.com","port":27055,"enabled":true,"region":"eu","cc":"gb","latitude":51.509865,"longitude":-0.118092,"reserved":0,"last_update":"0001-01-01T00:00:00Z","name_a2s":"Uncletopia | London | 5 | All Maps","protocol":17,"map":"koth_lakeside_final","folder":"tf","game":"Team Fortress","app_id":440,"player_count":0,"max_players":24,"Bots":0,"server_type":"Dedicated","server_os":"Linux","password":true,"vac":true,"version":"7961495","steam_id":85568392924742829,"keywords":["cp","nocrits","nodmgspread","uncletopia"],"game_id":440,"stv_port":27056,"stv_name":"Uncletopia | London | 5 | All Maps | STV","players":null},{"server_id":22,"name":"Uncletopia | London | 6 | All Maps","name_short":"lon-6","host":"lon-1.uk.uncletopia.com","port":27065,"enabled":true,"region":"eu","cc":"gb","latitude":51.509865,"longitude":-0.118092,"reserved":0,"last_update":"0001-01-01T00:00:00Z","name_a2s":"Uncletopia | London | 6 | All Maps","protocol":17,"map":"pl_upward","folder":"tf","game":"Team Fortress","app_id":440,"player_count":24,"max_players":24,"Bots":0,"server_type":"Dedicated","server_os":"Linux","password":true,"vac":true,"version":"7961495","steam_id":85568392924742830,"keywords":["nocrits","nodmgspread","payload","uncletopia"],"game_id":440,"stv_port":27066,"stv_name":"Uncletopia | London | 6 | All Maps | STV","players":[{"user_id":213,"name":"EEEEEH","steam_id":76561198126717413,"connected_time":4201000000000,"state":"active","ping":82},{"user_id":232,"name":"Larry Penus","steam_id":76561198207546233,"connected_time":2735000000000,"state":"active","ping":41},{"user_id":201,"name":"Xeno","steam_id":76561198975556646,"connected_time":4889000000000,"state":"active","ping":58},{"user_id":245,"name":"fence_","steam_id":76561198150386379,"connected_time":1307000000000,"state":"active","ping":46},{"user_id":258,"name":"dirty rascal","steam_id":76561198000871038,"connected_time":816000000000,"state":"active","ping":45},{"user_id":265,"name":"Solus","steam_id":76561199486493777,"connected_time":217000000000,"state":"active","ping":60},{"user_id":257,"name":"God himself.","steam_id":76561198309874415,"connected_time":836000000000,"state":"active","ping":37},{"user_id":254,"name":"Vikud","steam_id":76561199110575856,"connected_time":1015000000000,"state":"active","ping":150},{"user_id":224,"name":"joachym","steam_id":76561198428579761,"connected_time":3264000000000,"state":"active","ping":70},{"user_id":142,"name":"lorislk989","steam_id":76561199224251630,"connected_time":8797000000000,"state":"active","ping":69},{"user_id":173,"name":"After8","steam_id":76561198090750865,"connected_time":6444000000000,"state":"active","ping":73},{"user_id":221,"name":"Kahvi","steam_id":76561198723244199,"connected_time":3454000000000,"state":"active","ping":76},{"user_id":182,"name":"i have a micropenis","steam_id":76561199009805208,"connected_time":5810000000000,"state":"active","ping":107},{"user_id":259,"name":"Linlin","steam_id":76561199116884671,"connected_time":808000000000,"state":"active","ping":56},{"user_id":261,"name":"Kiste262","steam_id":76561198056825021,"connected_time":776000000000,"state":"active","ping":79},{"user_id":240,"name":"Parky","steam_id":76561198013803623,"connected_time":1948000000000,"state":"active","ping":44},{"user_id":244,"name":"Topool45","steam_id":76561199161389847,"connected_time":1392000000000,"state":"active","ping":77},{"user_id":243,"name":"Destiny","steam_id":76561198023243402,"connected_time":1426000000000,"state":"active","ping":80},{"user_id":252,"name":"Goblineer","steam_id":76561198442888935,"connected_time":1150000000000,"state":"active","ping":56},{"user_id":239,"name":"MovingIsOverRated","steam_id":76561198385633292,"connected_time":1962000000000,"state":"active","ping":151},{"user_id":260,"name":"Le_TINTOUIN #Save-TF2","steam_id":76561198428385639,"connected_time":808000000000,"state":"active","ping":67},{"user_id":228,"name":"BurningJoke","steam_id":76561199014358707,"connected_time":3154000000000,"state":"active","ping":59},{"user_id":251,"name":"normal","steam_id":76561198133712839,"connected_time":1187000000000,"state":"active","ping":121},{"user_id":230,"name":"nug","steam_id":76561198055396568,"connected_time":3082000000000,"state":"active","ping":54}]},{"server_id":40,"name":"Uncletopia | London | 7 | Stopwatch","name_short":"lon-7","host":"lon-1.uk.uncletopia.com","port":27075,"enabled":true,"region":"eu","cc":"gb","latitude":51.509865,"longitude":-0.118092,"reserved":0,"last_update":"0001-01-01T00:00:00Z","name_a2s":"Uncletopia | London | 7 | Stopwatch","protocol":17,"map":"koth_lakeside_final","folder":"tf","game":"Team Fortress","app_id":440,"player_count":0,"max_players":24,"Bots":0,"server_type":"Dedicated","server_os":"Linux","password":true,"vac":true,"version":"7961495","steam_id":85568392924964314,"keywords":["cp","nocrits","nodmgspread","uncletopia"],"game_id":440,"stv_port":27076,"stv_name":"Uncletopia | London | 7 | Stopwatch | STV","players":null},{"server_id":41,"name":"Uncletopia | London | 8 | Community","name_short":"lon-8","host":"lon-1.uk.uncletopia.com","port":27085,"enabled":true,"region":"eu","cc":"gb","latitude":51.509865,"longitude":-0.118092,"reserved":0,"last_update":"0001-01-01T00:00:00Z","name_a2s":"Uncletopia | London | 8 | Community","protocol":17,"map":"workshop/koth_bagel_rc6.ugc2514036946","folder":"tf","game":"Team Fortress","app_id":440,"player_count":0,"max_players":24,"Bots":0,"server_type":"Dedicated","server_os":"Linux","password":true,"vac":true,"version":"7961495","steam_id":85568392924964315,"keywords":["cp","nocrits","nodmgspread","uncletopia"],"game_id":440,"stv_port":27086,"stv_name":"Uncletopia | London | 8 | Community | STV","players":null},{"server_id":300,"name":"Uncletopia | Montréal | 1 | All Maps","name_short":"mtl-1","host":"mtl-1.ca.uncletopia.com","port":27015,"enabled":true,"region":"us-east","cc":"ca","latitude":45.50889,"longitude":-73.56167,"reserved":0,"last_update":"0001-01-01T00:00:00Z","name_a2s":"","protocol":0,"map":"","folder":"","game":"","app_id":0,"player_count":0,"max_players":0,"Bots":0,"server_type":"","server_os":"","password":false,"vac":false,"version":"","steam_id":0,"keywords":null,"game_id":0,"stv_port":0,"stv_name":"","players":null},{"server_id":301,"name":"Uncletopia | Montréal | 2 | ???","name_short":"mtl-2","host":"mtl-1.ca.uncletopia.com","port":27025,"enabled":true,"region":"us-east","cc":"ca","latitude":45.50889,"longitude":-73.56167,"reserved":0,"last_update":"0001-01-01T00:00:00Z","name_a2s":"","protocol":0,"map":"","folder":"","game":"","app_id":0,"player_count":0,"max_players":0,"Bots":0,"server_type":"","server_os":"","password":false,"vac":false,"version":"","steam_id":0,"keywords":null,"game_id":0,"stv_port":0,"stv_name":"","players":null},{"server_id":13,"name":"Uncletopia | New York City | 1 | All Maps","name_short":"nyc-1","host":"nyc-1.us.uncletopia.com","port":27015,"enabled":true,"region":"us-east","cc":"us","latitude":40.73061,"longitude":-73.93524,"reserved":0,"last_update":"0001-01-01T00:00:00Z","name_a2s":"Uncletopia | New York City | 1 | All Maps","protocol":17,"map":"pl_borneo","folder":"tf","game":"Team Fortress","app_id":440,"player_count":24,"max_players":24,"Bots":0,"server_type":"Dedicated","server_os":"Linux","password":true,"vac":true,"version":"7961495","steam_id":85568392924469993,"keywords":["nocrits","nodmgspread","payload","uncletopia"],"game_id":440,"stv_port":27016,"stv_name":"Uncletopia | New York City | 1 | All Maps | STV","players":[{"user_id":99,"name":"magnofajo","steam_id":76561199066981192,"connected_time":403000000000,"state":"active","ping":151},{"user_id":90,"name":"✪Type_Alpha","steam_id":76561198122780598,"connected_time":692000000000,"state":"active","ping":49},{"user_id":95,"name":"Billy Mays","steam_id":76561197998876324,"connected_time":549000000000,"state":"active","ping":87},{"user_id":92,"name":"floppy muppet","steam_id":76561198003076261,"connected_time":690000000000,"state":"active","ping":88},{"user_id":77,"name":"indi","steam_id":76561198045917538,"connected_time":1894000000000,"state":"active","ping":72},{"user_id":88,"name":"Impresio","steam_id":76561198129127347,"connected_time":932000000000,"state":"active","ping":83},{"user_id":85,"name":"Tony Pizza","steam_id":76561198276513608,"connected_time":1581000000000,"state":"active","ping":150},{"user_id":63,"name":"[TSG] Turner's Chocolate Milk","steam_id":76561198058963288,"connected_time":3401000000000,"state":"active","ping":54},{"user_id":27,"name":"oskaroku00","steam_id":76561199025360128,"connected_time":5485000000000,"state":"active","ping":129},{"user_id":25,"name":"fnaf101wess1","steam_id":76561198925181928,"connected_time":5565000000000,"state":"active","ping":59},{"user_id":104,"name":"Still Grillby","steam_id":76561198161275243,"connected_time":169000000000,"state":"active","ping":60},{"user_id":81,"name":"Yogenfruz","steam_id":76561198039460264,"connected_time":1722000000000,"state":"active","ping":90},{"user_id":100,"name":"pnut","steam_id":76561198043862737,"connected_time":369000000000,"state":"active","ping":40},{"user_id":45,"name":"Mr. Klauk","steam_id":76561199085666301,"connected_time":5011000000000,"state":"active","ping":65},{"user_id":61,"name":"Mr. Tickle","steam_id":76561198126684647,"connected_time":3539000000000,"state":"active","ping":72},{"user_id":102,"name":"Animal Slices","steam_id":76561198137545511,"connected_time":280000000000,"state":"active","ping":75},{"user_id":87,"name":"Winter the Witchie","steam_id":76561198151971178,"connected_time":1383000000000,"state":"active","ping":77},{"user_id":103,"name":"Brown_Dream","steam_id":76561198975766145,"connected_time":278000000000,"state":"active","ping":74},{"user_id":35,"name":"-W3E- grim10465","steam_id":76561198045698581,"connected_time":5373000000000,"state":"active","ping":32},{"user_id":83,"name":"lu","steam_id":76561198080731872,"connected_time":1599000000000,"state":"active","ping":70},{"user_id":86,"name":"majorbobfunction","steam_id":76561198042464632,"connected_time":1446000000000,"state":"active","ping":71},{"user_id":56,"name":"Drapph","steam_id":76561199384213314,"connected_time":4095000000000,"state":"active","ping":84},{"user_id":98,"name":"Elena Manetta","steam_id":76561197998344054,"connected_time":505000000000,"state":"active","ping":34},{"user_id":71,"name":"Feared Gamer","steam_id":76561198350127514,"connected_time":2641000000000,"state":"active","ping":54}]},{"server_id":14,"name":"Uncletopia | New York City | 2 | All Maps","name_short":"nyc-2","host":"nyc-1.us.uncletopia.com","port":27025,"enabled":true,"region":"us-east","cc":"us","latitude":40.73061,"longitude":-73.93524,"reserved":0,"last_update":"0001-01-01T00:00:00Z","name_a2s":"Uncletopia | New York City | 2 | All Maps","protocol":17,"map":"pl_snowycoast","folder":"tf","game":"Team Fortress","app_id":440,"player_count":0,"max_players":24,"Bots":0,"server_type":"Dedicated","server_os":"Linux","password":true,"vac":true,"version":"7961495","steam_id":85568392924469994,"keywords":["nocrits","nodmgspread","payload","uncletopia"],"game_id":440,"stv_port":27026,"stv_name":"Uncletopia | New York City | 2 | All Maps | STV","players":null},{"server_id":15,"name":"Uncletopia | New York City | 3 | Stopwatch","name_short":"nyc-3","host":"nyc-1.us.uncletopia.com","port":27035,"enabled":true,"region":"us-east","cc":"us","latitude":40.73061,"longitude":-73.93524,"reserved":0,"last_update":"0001-01-01T00:00:00Z","name_a2s":"Uncletopia | New York City | 3 | Stopwatch","protocol":17,"map":"workshop/pl_badwater_pro_v12.ugc2142942074","folder":"tf","game":"Team Fortress","app_id":440,"player_count":0,"max_players":24,"Bots":0,"server_type":"Dedicated","server_os":"Linux","password":true,"vac":true,"version":"7961495","steam_id":85568392924742820,"keywords":["nocrits","nodmgspread","payload","uncletopia"],"game_id":440,"stv_port":27036,"stv_name":"Uncletopia | New York City | 3 | Stopwatch | STV","players":null},{"server_id":16,"name":"Uncletopia | New York City | 4 | Community","name_short":"nyc-4","host":"nyc-1.us.uncletopia.com","port":27045,"enabled":true,"region":"us-east","cc":"us","latitude":40.73061,"longitude":-73.93524,"reserved":0,"last_update":"0001-01-01T00:00:00Z","name_a2s":"Uncletopia | New York City | 4 | Community","protocol":17,"map":"cp_altitude","folder":"tf","game":"Team Fortress","app_id":440,"player_count":0,"max_players":24,"Bots":0,"server_type":"Dedicated","server_os":"Linux","password":true,"vac":true,"version":"7961495","steam_id":85568392924742821,"keywords":["cp","nocrits","nodmgspread","uncletopia"],"game_id":440,"stv_port":27046,"stv_name":"Uncletopia | New York City | 4 | Community | STV","players":null},{"server_id":142,"name":"Uncletopia | São Paulo | 1 | All Maps","name_short":"sao-1","host":"sao-1.br.uncletopia.com","port":27015,"enabled":true,"region":"sa","cc":"br","latitude":-23.533773,"longitude":-46.62529,"reserved":0,"last_update":"0001-01-01T00:00:00Z","name_a2s":"Uncletopia | São Paulo | 1 | All Maps","protocol":17,"map":"cp_snakewater_final1","folder":"tf","game":"Team Fortress","app_id":440,"player_count":0,"max_players":24,"Bots":0,"server_type":"Dedicated","server_os":"Linux","password":true,"vac":true,"version":"7961495","steam_id":85568392924469996,"keywords":["cp","nocrits","nodmgspread","uncletopia"],"game_id":440,"stv_port":27016,"stv_name":"Uncletopia | São Paulo | 1 | All Maps | STV","players":null},{"server_id":143,"name":"Uncletopia | São Paulo | 2 | Community","name_short":"sao-2","host":"sao-2.br.uncletopia.com","port":27015,"enabled":true,"region":"sa","cc":"br","latitude":-23.533773,"longitude":-46.62529,"reserved":0,"last_update":"0001-01-01T00:00:00Z","name_a2s":"Uncletopia | São Paulo | 2 | Community","protocol":17,"map":"pl_badwater","folder":"tf","game":"Team Fortress","app_id":440,"player_count":0,"max_players":24,"Bots":0,"server_type":"Dedicated","server_os":"Linux","password":true,"vac":true,"version":"7961495","steam_id":85568392924485349,"keywords":["nocrits","nodmgspread","payload","uncletopia"],"game_id":440,"stv_port":27016,"stv_name":"Uncletopia | São Paulo | 2 | Community | STV","players":null},{"server_id":7,"name":"Uncletopia | Seattle | 1 | All Maps","name_short":"sea-1","host":"sea-1.us.uncletopia.com","port":27015,"enabled":true,"region":"us-west","cc":"us","latitude":47.608013,"longitude":-122.33517,"reserved":0,"last_update":"0001-01-01T00:00:00Z","name_a2s":"Uncletopia | Seattle | 1 | All Maps","protocol":17,"map":"pl_upward","folder":"tf","game":"Team Fortress","app_id":440,"player_count":23,"max_players":24,"Bots":0,"server_type":"Dedicated","server_os":"Linux","password":true,"vac":true,"version":"7961495","steam_id":85568392924469997,"keywords":["nocrits","nodmgspread","payload","uncletopia"],"game_id":440,"stv_port":27016,"stv_name":"Uncletopia | Seattle | 1 | All Maps | STV","players":[{"user_id":112,"name":"Melonfrog","steam_id":76561198389885427,"connected_time":152000000000,"state":"active","ping":64},{"user_id":108,"name":"Blind_Deuce","steam_id":76561198155697762,"connected_time":672000000000,"state":"active","ping":45},{"user_id":84,"name":"Sworddemonboggle","steam_id":76561198295526535,"connected_time":2254000000000,"state":"active","ping":119},{"user_id":82,"name":"GreySweaterCat","steam_id":76561198351860293,"connected_time":2329000000000,"state":"active","ping":114},{"user_id":113,"name":"Dragoninventor (He/Him)","steam_id":76561198956224948,"connected_time":132000000000,"state":"active","ping":86},{"user_id":101,"name":"amagicowl","steam_id":76561199060487814,"connected_time":1089000000000,"state":"active","ping":46},{"user_id":105,"name":"Ranch","steam_id":76561198035557013,"connected_time":952000000000,"state":"active","ping":101},{"user_id":94,"name":"TheDude","steam_id":76561198314764519,"connected_time":1571000000000,"state":"active","ping":148},{"user_id":114,"name":"Charlie","steam_id":76561198798127908,"connected_time":81000000000,"state":"active","ping":103},{"user_id":111,"name":"DragonJimmy","steam_id":76561198272966565,"connected_time":404000000000,"state":"active","ping":88},{"user_id":115,"name":"Cursed Frog","steam_id":76561198090419068,"connected_time":48000000000,"state":"spawning","ping":70},{"user_id":75,"name":"times table","steam_id":76561198341452558,"connected_time":2747000000000,"state":"active","ping":107},{"user_id":87,"name":"Jeremy","steam_id":76561199092175631,"connected_time":2174000000000,"state":"active","ping":94},{"user_id":107,"name":"Chackie Jan","steam_id":76561199099907475,"connected_time":904000000000,"state":"active","ping":132},{"user_id":97,"name":"the keebler","steam_id":76561199486326945,"connected_time":1484000000000,"state":"active","ping":125},{"user_id":71,"name":"Korshal","steam_id":76561198819036121,"connected_time":3127000000000,"state":"active","ping":107},{"user_id":59,"name":"ferret gaming","steam_id":76561198850577111,"connected_time":4003000000000,"state":"active","ping":86},{"user_id":109,"name":"Warhead","steam_id":76561198067746049,"connected_time":461000000000,"state":"active","ping":62},{"user_id":78,"name":"StormyBoyo","steam_id":76561198273482774,"connected_time":2529000000000,"state":"active","ping":119},{"user_id":47,"name":"Bige Rone","steam_id":76561198066718191,"connected_time":5314000000000,"state":"active","ping":48},{"user_id":80,"name":"The Great Eagle Scourge of 1822","steam_id":76561198325086209,"connected_time":2459000000000,"state":"active","ping":76},{"user_id":98,"name":"FrostNova","steam_id":76561198348354629,"connected_time":1434000000000,"state":"active","ping":76},{"user_id":106,"name":"Ġ1 ♦ Synth","steam_id":76561198058660228,"connected_time":943000000000,"state":"active","ping":105}]},{"server_id":119,"name":"Uncletopia | Seattle | 2 | All Maps","name_short":"sea-2","host":"sea-1.us.uncletopia.com","port":27025,"enabled":true,"region":"us-west","cc":"us","latitude":47.608013,"longitude":-122.33517,"reserved":0,"last_update":"0001-01-01T00:00:00Z","name_a2s":"Uncletopia | Seattle | 2 | All Maps","protocol":17,"map":"cp_snakewater_final1","folder":"tf","game":"Team Fortress","app_id":440,"player_count":0,"max_players":24,"Bots":0,"server_type":"Dedicated","server_os":"Linux","password":true,"vac":true,"version":"7961495","steam_id":85568392924469998,"keywords":["cp","nocrits","nodmgspread","uncletopia"],"game_id":440,"stv_port":27026,"stv_name":"Uncletopia | Seattle | 2 | All Maps | STV","players":null},{"server_id":406,"name":"Uncletopia | Seattle | 3 | Stopwatch","name_short":"sea-3","host":"sea-1.us.uncletopia.com","port":27035,"enabled":true,"region":"us-west","cc":"us","latitude":47.608013,"longitude":-122.33517,"reserved":0,"last_update":"0001-01-01T00:00:00Z","name_a2s":"Uncletopia | Seattle | 3 | Stopwatch","protocol":17,"map":"cp_snakewater_final1","folder":"tf","game":"Team Fortress","app_id":440,"player_count":0,"max_players":24,"Bots":0,"server_type":"Dedicated","server_os":"Linux","password":true,"vac":true,"version":"7961495","steam_id":85568392924515217,"keywords":["cp","nocrits","nodmgspread","uncletopia"],"game_id":440,"stv_port":27036,"stv_name":"Uncletopia | Seattle | 3 | Stopwatch | STV","players":null},{"server_id":17,"name":"Uncletopia | San Francisco | 1 | All Maps","name_short":"sfo-1","host":"sfo-1.us.uncletopia.com","port":27015,"enabled":true,"region":"us-west","cc":"us","latitude":37.77397,"longitude":-122.4313,"reserved":0,"last_update":"0001-01-01T00:00:00Z","name_a2s":"Uncletopia | San Francisco | 1 | All Maps","protocol":17,"map":"koth_cascade","folder":"tf","game":"Team Fortress","app_id":440,"player_count":0,"max_players":24,"Bots":0,"server_type":"Dedicated","server_os":"Linux","password":true,"vac":true,"version":"7961495","steam_id":85568392924469999,"keywords":["cp","nocrits","nodmgspread","uncletopia"],"game_id":440,"stv_port":27016,"stv_name":"Uncletopia | San Francisco | 1 | All Maps | STV","players":null},{"server_id":18,"name":"Uncletopia | San Francisco | 2 | All Maps","name_short":"sfo-2","host":"sfo-1.us.uncletopia.com","port":27025,"enabled":true,"region":"us-west","cc":"us","latitude":37.77397,"longitude":-122.4313,"reserved":0,"last_update":"0001-01-01T00:00:00Z","name_a2s":"Uncletopia | San Francisco | 2 | All Maps","protocol":17,"map":"pl_frontier_final","folder":"tf","game":"Team Fortress","app_id":440,"player_count":0,"max_players":24,"Bots":0,"server_type":"Dedicated","server_os":"Linux","password":true,"vac":true,"version":"7961495","steam_id":85568392924470000,"keywords":["nocrits","nodmgspread","payload","uncletopia"],"game_id":440,"stv_port":27026,"stv_name":"Uncletopia | San Francisco | 2 | All Maps | STV","players":null},{"server_id":19,"name":"Uncletopia | San Francisco | 3 | Stopwatch","name_short":"sfo-3","host":"sfo-1.us.uncletopia.com","port":27035,"enabled":true,"region":"us-west","cc":"us","latitude":37.77397,"longitude":-122.4313,"reserved":0,"last_update":"0001-01-01T00:00:00Z","name_a2s":"Uncletopia | San Francisco | 3 | Stopwatch","protocol":17,"map":"pl_pier","folder":"tf","game":"Team Fortress","app_id":440,"player_count":0,"max_players":24,"Bots":0,"server_type":"Dedicated","server_os":"Linux","password":true,"vac":true,"version":"7961495","steam_id":85568392924742824,"keywords":["nocrits","nodmgspread","payload","uncletopia"],"game_id":440,"stv_port":27036,"stv_name":"Uncletopia | San Francisco | 3 | Stopwatch | STV","players":null},{"server_id":20,"name":"Uncletopia | San Francisco | 4 | Community","name_short":"sfo-4","host":"sfo-1.us.uncletopia.com","port":27045,"enabled":true,"region":"us-west","cc":"us","latitude":37.77397,"longitude":-122.4313,"reserved":0,"last_update":"0001-01-01T00:00:00Z","name_a2s":"Uncletopia | San Francisco | 4 | Community","protocol":17,"map":"pl_pier","folder":"tf","game":"Team Fortress","app_id":440,"player_count":0,"max_players":24,"Bots":0,"server_type":"Dedicated","server_os":"Linux","password":true,"vac":true,"version":"7961495","steam_id":85568392924742826,"keywords":["nocrits","nodmgspread","payload","uncletopia"],"game_id":440,"stv_port":27046,"stv_name":"Uncletopia | San Francisco | 4 | Community | STV","players":null},{"server_id":141,"name":"Uncletopia | Sydney | 1 | All Maps","name_short":"syd-1","host":"syd-1.au.uncletopia.com","port":27015,"enabled":true,"region":"au","cc":"au","latitude":-33.865143,"longitude":151.2099,"reserved":0,"last_update":"0001-01-01T00:00:00Z","name_a2s":"Uncletopia | Sydney | 1 | All Maps","protocol":17,"map":"koth_lakeside_final","folder":"tf","game":"Team Fortress","app_id":440,"player_count":0,"max_players":24,"Bots":0,"server_type":"Dedicated","server_os":"Linux","password":true,"vac":true,"version":"7961495","steam_id":85568392924470001,"keywords":["cp","nocrits","nodmgspread","uncletopia"],"game_id":440,"stv_port":27016,"stv_name":"Uncletopia | Sydney | 1 | All Maps | STV","players":null},{"server_id":123,"name":"Uncletopia | Sydney | 2 | All Maps","name_short":"syd-2","host":"syd-1.au.uncletopia.com","port":27025,"enabled":true,"region":"au","cc":"au","latitude":-33.865143,"longitude":151.2099,"reserved":0,"last_update":"0001-01-01T00:00:00Z","name_a2s":"Uncletopia | Sydney | 2 | All Maps","protocol":17,"map":"koth_highpass","folder":"tf","game":"Team Fortress","app_id":440,"player_count":7,"max_players":24,"Bots":0,"server_type":"Dedicated","server_os":"Linux","password":true,"vac":true,"version":"7961495","steam_id":85568392924470002,"keywords":["cp","nocrits","nodmgspread","uncletopia"],"game_id":440,"stv_port":27026,"stv_name":"Uncletopia | Sydney | 2 | All Maps | STV","players":[{"user_id":194,"name":"¿eTheRealMe?","steam_id":76561198033297147,"connected_time":400000000000,"state":"active","ping":90},{"user_id":187,"name":"PeNGU","steam_id":76561198860536387,"connected_time":1615000000000,"state":"active","ping":99},{"user_id":184,"name":"ModeratelyAverage","steam_id":76561198982747965,"connected_time":1720000000000,"state":"active","ping":88},{"user_id":177,"name":"foshizzle","steam_id":76561198044488273,"connected_time":2320000000000,"state":"active","ping":52},{"user_id":183,"name":"lunstedtemila","steam_id":76561199000937599,"connected_time":1794000000000,"state":"active","ping":72},{"user_id":185,"name":"♥Kai♥","steam_id":76561198066098072,"connected_time":1696000000000,"state":"active","ping":72},{"user_id":99,"name":"ELPY","steam_id":76561198180295770,"connected_time":9576000000000,"state":"active","ping":52}]},{"server_id":395,"name":"Uncletopia | Sydney | 3 | All Maps","name_short":"syd-3","host":"syd-1.au.uncletopia.com","port":27035,"enabled":true,"region":"au","cc":"au","latitude":-33.865143,"longitude":151.2099,"reserved":0,"last_update":"0001-01-01T00:00:00Z","name_a2s":"Uncletopia | Sydney | 3 | All Maps","protocol":17,"map":"cp_dustbowl","folder":"tf","game":"Team Fortress","app_id":440,"player_count":0,"max_players":24,"Bots":0,"server_type":"Dedicated","server_os":"Linux","password":true,"vac":true,"version":"7961495","steam_id":85568392925194467,"keywords":["cp","nocrits","nodmgspread","uncletopia"],"game_id":440,"stv_port":27036,"stv_name":"Uncletopia | Sydney | 3 | All Maps | STV","players":null},{"server_id":396,"name":"Uncletopia | Sydney | 4 | All Maps","name_short":"syd-4","host":"syd-1.au.uncletopia.com","port":27045,"enabled":true,"region":"au","cc":"au","latitude":-33.865143,"longitude":151.2099,"reserved":0,"last_update":"0001-01-01T00:00:00Z","name_a2s":"Uncletopia | Sydney | 4 | All Maps","protocol":17,"map":"cp_sunshine","folder":"tf","game":"Team Fortress","app_id":440,"player_count":0,"max_players":24,"Bots":0,"server_type":"Dedicated","server_os":"Linux","password":true,"vac":true,"version":"7961495","steam_id":85568392925397958,"keywords":["cp","nocrits","nodmgspread","uncletopia"],"game_id":440,"stv_port":27046,"stv_name":"Uncletopia | Sydney | 4 | All Maps | STV","players":null},{"server_id":58,"name":"Uncletopia | Sydney | 5 | Stopwatch","name_short":"syd-5","host":"syd-1.au.uncletopia.com","port":27055,"enabled":true,"region":"au","cc":"au","latitude":-33.865143,"longitude":151.2099,"reserved":0,"last_update":"0001-01-01T00:00:00Z","name_a2s":"Uncletopia | Sydney | 5 | Stopwatch","protocol":17,"map":"workshop/koth_ashville_final.ugc2130459942","folder":"tf","game":"Team Fortress","app_id":440,"player_count":0,"max_players":24,"Bots":0,"server_type":"Dedicated","server_os":"Linux","password":true,"vac":true,"version":"7961495","steam_id":85568392925397959,"keywords":["cp","nocrits","nodmgspread","uncletopia"],"game_id":440,"stv_port":27056,"stv_name":"Uncletopia | Sydney | 5 | Stopwatch | STV","players":null},{"server_id":59,"name":"Uncletopia | Sydney | 6 | Community","name_short":"syd-6","host":"syd-1.au.uncletopia.com","port":27065,"enabled":true,"region":"au","cc":"au","latitude":-33.865143,"longitude":151.2099,"reserved":0,"last_update":"0001-01-01T00:00:00Z","name_a2s":"Uncletopia | Sydney | 6 | Community","protocol":17,"map":"workshop/koth_kemptown_rc1.ugc767410655","folder":"tf","game":"Team Fortress","app_id":440,"player_count":0,"max_players":24,"Bots":0,"server_type":"Dedicated","server_os":"Linux","password":true,"vac":true,"version":"7961495","steam_id":85568392925397960,"keywords":["cp","nocrits","nodmgspread","uncletopia"],"game_id":440,"stv_port":27066,"stv_name":"Uncletopia | Sydney | 6 | Community | STV","players":null},{"server_id":49,"name":"Uncletopia | Warsaw | 1 | All Maps","name_short":"waw-1","host":"waw-1.pl.uncletopia.com","port":27015,"enabled":true,"region":"eu","cc":"pl","latitude":52.2297,"longitude":21.017532,"reserved":0,"last_update":"0001-01-01T00:00:00Z","name_a2s":"Uncletopia | Warsaw | 1 | All Maps","protocol":17,"map":"koth_lakeside_final","folder":"tf","game":"Team Fortress","app_id":440,"player_count":0,"max_players":24,"Bots":0,"server_type":"Dedicated","server_os":"Linux","password":true,"vac":true,"version":"7961495","steam_id":85568392925397850,"keywords":["cp","nocrits","nodmgspread","uncletopia"],"game_id":440,"stv_port":27016,"stv_name":"Uncletopia | Warsaw | 1 | All Maps | STV","players":null},{"server_id":50,"name":"Uncletopia | Warsaw | 2 | All Maps","name_short":"waw-2","host":"waw-1.pl.uncletopia.com","port":27025,"enabled":true,"region":"eu","cc":"pl","latitude":52.2297,"longitude":21.017532,"reserved":0,"last_update":"0001-01-01T00:00:00Z","name_a2s":"Uncletopia | Warsaw | 2 | All Maps","protocol":17,"map":"pl_badwater","folder":"tf","game":"Team Fortress","app_id":440,"player_count":23,"max_players":24,"Bots":0,"server_type":"Dedicated","server_os":"Linux","password":true,"vac":true,"version":"7961495","steam_id":85568392925397851,"keywords":["nocrits","nodmgspread","payload","uncletopia"],"game_id":440,"stv_port":27026,"stv_name":"Uncletopia | Warsaw | 2 | All Maps | STV","players":[{"user_id":9,"name":"stefanbejenari","steam_id":76561199466718294,"connected_time":8249000000000,"state":"active","ping":81},{"user_id":22,"name":"Flohr","steam_id":76561198191948841,"connected_time":5021000000000,"state":"active","ping":62},{"user_id":64,"name":"Llama gaming","steam_id":76561199096881883,"connected_time":2511000000000,"state":"active","ping":142},{"user_id":55,"name":"Mazila89","steam_id":76561199048444196,"connected_time":3445000000000,"state":"active","ping":83},{"user_id":84,"name":"zaleek69","steam_id":76561198058877595,"connected_time":129000000000,"state":"active","ping":75},{"user_id":23,"name":"†𝔥e ωoo","steam_id":76561198929808815,"connected_time":5018000000000,"state":"active","ping":61},{"user_id":73,"name":"qwertyrealschru_lll","steam_id":76561199120083473,"connected_time":1590000000000,"state":"active","ping":60},{"user_id":46,"name":"Nick","steam_id":76561198036109469,"connected_time":3756000000000,"state":"active","ping":49},{"user_id":60,"name":"Refurbished Boy","steam_id":76561197995834697,"connected_time":2893000000000,"state":"active","ping":113},{"user_id":83,"name":"generic alias","steam_id":76561198271607226,"connected_time":390000000000,"state":"active","ping":118},{"user_id":85,"name":"The Same Sapi [KZ]","steam_id":76561198332715153,"connected_time":36000000000,"state":"active","ping":100},{"user_id":78,"name":"Doogie","steam_id":76561198846924693,"connected_time":1132000000000,"state":"active","ping":89},{"user_id":29,"name":"Kardiol","steam_id":76561198122344852,"connected_time":4705000000000,"state":"active","ping":66},{"user_id":81,"name":"veltek","steam_id":76561198112681438,"connected_time":915000000000,"state":"active","ping":65},{"user_id":80,"name":"Gravy","steam_id":76561198029548074,"connected_time":1063000000000,"state":"active","ping":79},{"user_id":35,"name":"꒰ ˶• ༝ •˶꒱","steam_id":76561198054474684,"connected_time":4350000000000,"state":"active","ping":71},{"user_id":82,"name":"Gugu gaga","steam_id":76561198161822358,"connected_time":408000000000,"state":"active","ping":73},{"user_id":68,"name":"Sandvich","steam_id":76561199079493666,"connected_time":2444000000000,"state":"active","ping":100},{"user_id":70,"name":"Trash Compactor","steam_id":76561199383047989,"connected_time":2160000000000,"state":"active","ping":113},{"user_id":40,"name":"t.tv/KaizokuHaru","steam_id":76561198209223023,"connected_time":4147000000000,"state":"active","ping":62},{"user_id":41,"name":"milan","steam_id":76561198858509678,"connected_time":4101000000000,"state":"active","ping":90},{"user_id":53,"name":"kryhu","steam_id":76561198293327713,"connected_time":3465000000000,"state":"active","ping":48},{"user_id":56,"name":"LizCul","steam_id":76561198024436969,"connected_time":3418000000000,"state":"active","ping":71}]},{"server_id":51,"name":"Uncletopia | Warsaw | 3 | All Maps","name_short":"waw-3","host":"waw-1.pl.uncletopia.com","port":27035,"enabled":true,"region":"eu","cc":"pl","latitude":52.2297,"longitude":21.017532,"reserved":0,"last_update":"0001-01-01T00:00:00Z","name_a2s":"Uncletopia | Warsaw | 3 | All Maps","protocol":17,"map":"pl_borneo","folder":"tf","game":"Team Fortress","app_id":440,"player_count":19,"max_players":24,"Bots":0,"server_type":"Dedicated","server_os":"Linux","password":true,"vac":true,"version":"7961495","steam_id":85568392925397852,"keywords":["nocrits","nodmgspread","payload","uncletopia"],"game_id":440,"stv_port":27036,"stv_name":"Uncletopia | Warsaw | 3 | All Maps | STV","players":[{"user_id":56,"name":"alice","steam_id":76561198269200388,"connected_time":845000000000,"state":"active","ping":47},{"user_id":68,"name":"Storm's Foreshadow","steam_id":76561198098462526,"connected_time":156000000000,"state":"active","ping":42},{"user_id":69,"name":"Embrace the Radiation","steam_id":76561198343328308,"connected_time":143000000000,"state":"active","ping":64},{"user_id":70,"name":"shmax","steam_id":76561198889012709,"connected_time":85000000000,"state":"active","ping":110},{"user_id":18,"name":"Von Leining","steam_id":76561198859983504,"connected_time":2511000000000,"state":"active","ping":64},{"user_id":71,"name":"pajer0","steam_id":76561198002913482,"connected_time":39000000000,"state":"active","ping":107},{"user_id":72,"name":"Worms","steam_id":76561198040442214,"connected_time":26000000000,"state":"spawning","ping":106},{"user_id":73,"name":"bernkastel","steam_id":76561198030909125,"connected_time":18000000000,"state":"active","ping":114},{"user_id":52,"name":"Morbeus","steam_id":76561198057717808,"connected_time":1002000000000,"state":"active","ping":92},{"user_id":24,"name":"Spetse","steam_id":76561197990649972,"connected_time":2109000000000,"state":"active","ping":95},{"user_id":67,"name":"low on caffeine","steam_id":76561198257158275,"connected_time":365000000000,"state":"active","ping":163},{"user_id":25,"name":"The Knight","steam_id":76561198055320626,"connected_time":2066000000000,"state":"active","ping":73},{"user_id":30,"name":"M2rtRa","steam_id":76561198111036466,"connected_time":1814000000000,"state":"active","ping":90},{"user_id":34,"name":"Lammet","steam_id":76561198149409729,"connected_time":1760000000000,"state":"active","ping":84},{"user_id":49,"name":"5UP3R TH30 B4G","steam_id":76561198852348375,"connected_time":1227000000000,"state":"active","ping":78},{"user_id":37,"name":"Spongelica Slobblecoque","steam_id":76561198009072273,"connected_time":1722000000000,"state":"active","ping":68},{"user_id":45,"name":"Gooner","steam_id":76561198087035309,"connected_time":1495000000000,"state":"active","ping":30},{"user_id":42,"name":"Grekofun","steam_id":76561198758029808,"connected_time":1642000000000,"state":"active","ping":56},{"user_id":60,"name":"Toxic_Cicity","steam_id":76561198165753440,"connected_time":737000000000,"state":"active","ping":114}]},{"server_id":52,"name":"Uncletopia | Warsaw | 4 | All Maps","name_short":"waw-4","host":"waw-1.pl.uncletopia.com","port":27045,"enabled":true,"region":"eu","cc":"pl","latitude":52.2297,"longitude":21.017532,"reserved":0,"last_update":"0001-01-01T00:00:00Z","name_a2s":"Uncletopia | Warsaw | 4 | All Maps","protocol":17,"map":"cp_process_final","folder":"tf","game":"Team Fortress","app_id":440,"player_count":0,"max_players":24,"Bots":0,"server_type":"Dedicated","server_os":"Linux","password":true,"vac":true,"version":"7961495","steam_id":85568392925397853,"keywords":["cp","nocrits","nodmgspread","uncletopia"],"game_id":440,"stv_port":27046,"stv_name":"Uncletopia | Warsaw | 4 | All Maps | STV","players":null},{"server_id":53,"name":"Uncletopia | Warsaw | 5 | Stopwatch","name_short":"waw-5","host":"waw-1.pl.uncletopia.com","port":27055,"enabled":true,"region":"eu","cc":"pl","latitude":52.2297,"longitude":21.017532,"reserved":0,"last_update":"0001-01-01T00:00:00Z","name_a2s":"Uncletopia | Warsaw | 5 | Stopwatch","protocol":17,"map":"pl_barnblitz","folder":"tf","game":"Team Fortress","app_id":440,"player_count":0,"max_players":24,"Bots":0,"server_type":"Dedicated","server_os":"Linux","password":true,"vac":true,"version":"7961495","steam_id":85568392925397854,"keywords":["nocrits","nodmgspread","payload","uncletopia"],"game_id":440,"stv_port":27056,"stv_name":"Uncletopia | Warsaw | 5 | Stopwatch | STV","players":null},{"server_id":54,"name":"Uncletopia | Warsaw | 6 | Community","name_short":"waw-6","host":"waw-1.pl.uncletopia.com","port":27065,"enabled":true,"region":"eu","cc":"pl","latitude":52.2297,"longitude":21.017532,"reserved":0,"last_update":"0001-01-01T00:00:00Z","name_a2s":"Uncletopia | Warsaw | 6 | Community","protocol":17,"map":"cp_altitude","folder":"tf","game":"Team Fortress","app_id":440,"player_count":0,"max_players":24,"Bots":0,"server_type":"Dedicated","server_os":"Linux","password":true,"vac":true,"version":"7961495","steam_id":85568392925397856,"keywords":["cp","nocrits","nodmgspread","uncletopia"],"game_id":440,"stv_port":27066,"stv_name":"Uncletopia | Warsaw | 6 | Community | STV","players":null}]}