{"status":true,"message":"","result":[{"server_id":9,"name":"Uncletopia | Atlanta | 1 | All Maps","name_short":"atl-1","host":"atl-1.us.uncletopia.com","port":27015,"enabled":true,"region":"us-east","cc":"us","latitude":33.753746,"longitude":-84.38633,"reserved":0,"last_update":"0001-01-01T00:00:00Z","name_a2s":"Uncletopia | Atlanta | 1 | All Maps","protocol":17,"map":"pl_frontier_final","folder":"tf","game":"Team Fortress","app_id":440,"player_count":24,"max_players":24,"Bots":0,"server_type":"Dedicated","server_os":"Linux","password":true,"vac":true,"version":"7701286","steam_id":85568392924469982,"keywords":["nocrits","nodmgspread","payload","uncletopia"],"game_id":440,"stv_port":27016,"stv_name":"Uncletopia | Atlanta | 1 | All Maps | STV","players":[{"user_id":698,"name":"Heti","steam_id":76561197972832497,"connected_time":289000000000,"state":"active","ping":92},{"user_id":662,"name":"TRHD_Pharaxer™","steam_id":76561198051236069,"connected_time":2677000000000,"state":"active","ping":152},{"user_id":681,"name":"squid game","steam_id":76561199248960166,"connected_time":1877000000000,"state":"active","ping":100},{"user_id":663,"name":"Dojodank","steam_id":76561198088894863,"connected_time":2362000000000,"state":"active","ping":70},{"user_id":695,"name":"joe","steam_id":76561198045781320,"connected_time":605000000000,"state":"active","ping":70},{"user_id":690,"name":"Blusa 23","steam_id":76561199210543494,"connected_time":1312000000000,"state":"active","ping":89},{"user_id":689,"name":"Drygongames","steam_id":76561198250418424,"connected_time":1367000000000,"state":"active","ping":48},{"user_id":661,"name":"Mr. Sun","steam_id":76561198081338822,"connected_time":2740000000000,"state":"active","ping":44},{"user_id":682,"name":"loam","steam_id":76561199213540148,"connected_time":1529000000000,"state":"active","ping":59},{"user_id":685,"name":"Abbashea","steam_id":76561199182136969,"connected_time":1434000000000,"state":"active","ping":109},{"user_id":665,"name":"Vituu","steam_id":76561198322603884,"connected_time":2316000000000,"state":"active","ping":139},{"user_id":673,"name":"❅Alyx❅","steam_id":76561198024303978,"connected_time":2193000000000,"state":"active","ping":59},{"user_id":699,"name":"Kitsu ♥","steam_id":76561198091741658,"connected_time":279000000000,"state":"active","ping":79},{"user_id":670,"name":"crittr","steam_id":76561198014302068,"connected_time":2258000000000,"state":"active","ping":56},{"user_id":653,"name":"Dragon_Spiced","steam_id":76561198097517957,"connected_time":3638000000000,"state":"active","ping":60},{"user_id":700,"name":"Abbreviated","steam_id":76561198088423054,"connected_time":275000000000,"state":"active","ping":48},{"user_id":672,"name":"rolt bagger","steam_id":76561198026664629,"connected_time":2252000000000,"state":"active","ping":60},{"user_id":697,"name":"Bali","steam_id":76561198038693845,"connected_time":307000000000,"state":"active","ping":109},{"user_id":646,"name":"anddrond","steam_id":76561198170112453,"connected_time":3876000000000,"state":"active","ping":52},{"user_id":678,"name":"M.L.JEW","steam_id":76561198997375055,"connected_time":2008000000000,"state":"active","ping":79},{"user_id":701,"name":"frijol","steam_id":76561198072400741,"connected_time":268000000000,"state":"active","ping":95},{"user_id":696,"name":"ATL1 | Kramer","steam_id":76561198083595936,"connected_time":321000000000,"state":"active","ping":84},{"user_id":703,"name":"Sir Tea","steam_id":76561198353912752,"connected_time":234000000000,"state":"active","ping":76},{"user_id":688,"name":"Lord Pretty Flocko Jordye","steam_id":76561198962880749,"connected_time":1391000000000,"state":"active","ping":113}]},{"server_id":400,"name":"Uncletopia | Atlanta | 3 | All Maps","name_short":"atl-3","host":"atl-1.us.uncletopia.com","port":27035,"enabled":true,"region":"us-east","cc":"us","latitude":33.753746,"longitude":-84.38633,"reserved":0,"last_update":"0001-01-01T00:00:00Z","name_a2s":"Uncletopia | Atlanta | 3 | All Maps","protocol":17,"map":"koth_highpass","folder":"tf","game":"Team Fortress","app_id":440,"player_count":0,"max_players":24,"Bots":0,"server_type":"Dedicated","server_os":"Linux","password":true,"vac":true,"version":"7701286","steam_id":85568392924515187,"keywords":["cp","nocrits","nodmgspread","uncletopia"],"game_id":440,"stv_port":0,"stv_name":"","players":null},{"server_id":401,"name":"Uncletopia | Atlanta | 4 | No Payload","name_short":"atl-4","host":"atl-1.us.uncletopia.com","port":27045,"enabled":true,"region":"us-east","cc":"us","latitude":33.753746,"longitude":-84.38633,"reserved":0,"last_update":"0001-01-01T00:00:00Z","name_a2s":"Uncletopia | Atlanta | 4 | No Payload","protocol":17,"map":"koth_brazil","folder":"tf","game":"Team Fortress","app_id":440,"player_count":0,"max_players":24,"Bots":0,"server_type":"Dedicated","server_os":"Linux","password":true,"vac":true,"version":"7701286","steam_id":85568392924515188,"keywords":["cp","nocrits","nodmgspread","uncletopia"],"game_id":440,"stv_port":27046,"stv_name":"Uncletopia | Atlanta | 4 | No Payload | STV","players":null},{"server_id":2,"name":"Uncletopia | Chicago | 1 | All Maps","name_short":"chi-1","host":"chi-1.us.uncletopia.com","port":27015,"enabled":true,"region":"us-central","cc":"us","latitude":41.881832,"longitude":-87.62318,"reserved":0,"last_update":"0001-01-01T00:00:00Z","name_a2s":"Uncletopia | Chicago | 1 | All Maps","protocol":17,"map":"cp_sunshine","folder":"tf","game":"Team Fortress","app_id":440,"player_count":24,"max_players":24,"Bots":0,"server_type":"Dedicated","server_os":"Linux","password":true,"vac":true,"version":"7701286","steam_id":85568392924469984,"keywords":["cp","nocrits","nodmgspread","uncletopia"],"game_id":440,"stv_port":27016,"stv_name":"Uncletopia | Chicago | 1 | All Maps | STV","players":[{"user_id":416,"name":"The art of mashing","steam_id":76561198167543368,"connected_time":1029000000000,"state":"active","ping":125},{"user_id":409,"name":"garf (smissmiss)","steam_id":76561198088228311,"connected_time":1213000000000,"state":"active","ping":58},{"user_id":350,"name":"Chode Mode","steam_id":76561198353840477,"connected_time":5365000000000,"state":"active","ping":55},{"user_id":376,"name":"math","steam_id":76561198092542997,"connected_time":3614000000000,"state":"active","ping":66},{"user_id":417,"name":"Yayifications","steam_id":76561198066227208,"connected_time":966000000000,"state":"active","ping":62},{"user_id":366,"name":"pinglefingle","steam_id":76561198216580197,"connected_time":4403000000000,"state":"active","ping":78},{"user_id":402,"name":"Deborp","steam_id":76561198118868430,"connected_time":2018000000000,"state":"active","ping":90},{"user_id":386,"name":"Mr.ToasterOven","steam_id":76561199120586450,"connected_time":3008000000000,"state":"active","ping":49},{"user_id":411,"name":"Corbe","steam_id":76561198353893927,"connected_time":1055000000000,"state":"active","ping":38},{"user_id":412,"name":"rato","steam_id":76561198993641831,"connected_time":1045000000000,"state":"active","ping":53},{"user_id":418,"name":"Sentry Gun (Spooky American)","steam_id":76561198313770809,"connected_time":730000000000,"state":"active","ping":56},{"user_id":424,"name":"m1nny_","steam_id":76561198045238424,"connected_time":111000000000,"state":"active","ping":75},{"user_id":271,"name":"GuyGoom","steam_id":76561198254522178,"connected_time":10998000000000,"state":"active","ping":53},{"user_id":408,"name":"mafia man","steam_id":76561198057185217,"connected_time":1499000000000,"state":"active","ping":55},{"user_id":375,"name":"IGotTheLettuce","steam_id":76561198062473897,"connected_time":3624000000000,"state":"active","ping":66},{"user_id":423,"name":"Draconic Ballad","steam_id":76561198027191515,"connected_time":223000000000,"state":"active","ping":50},{"user_id":389,"name":"Ignalis","steam_id":76561198025662927,"connected_time":2926000000000,"state":"active","ping":55},{"user_id":397,"name":"Potato PC","steam_id":76561197994217512,"connected_time":2494000000000,"state":"active","ping":75},{"user_id":404,"name":"Digit","steam_id":76561198156589157,"connected_time":1607000000000,"state":"active","ping":100},{"user_id":405,"name":"Evolution","steam_id":76561198144767370,"connected_time":1582000000000,"state":"active","ping":48},{"user_id":377,"name":"Lady Duckland","steam_id":76561198077092840,"connected_time":3598000000000,"state":"active","ping":60},{"user_id":400,"name":"finn #savetf2 (he/him)","steam_id":76561198257531708,"connected_time":2236000000000,"state":"active","ping":56},{"user_id":341,"name":"Sandwich","steam_id":76561198035654490,"connected_time":6443000000000,"state":"active","ping":71},{"user_id":422,"name":"CoconutRice","steam_id":76561198114909164,"connected_time":491000000000,"state":"active","ping":56}]},{"server_id":106,"name":"Uncletopia | Chicago | 2 | All Maps","name_short":"chi-2","host":"chi-1.us.uncletopia.com","port":27025,"enabled":true,"region":"us-central","cc":"us","latitude":41.881832,"longitude":-87.62318,"reserved":0,"last_update":"0001-01-01T00:00:00Z","name_a2s":"Uncletopia | Chicago | 2 | All Maps","protocol":17,"map":"koth_viaduct","folder":"tf","game":"Team Fortress","app_id":440,"player_count":0,"max_players":24,"Bots":0,"server_type":"Dedicated","server_os":"Linux","password":true,"vac":true,"version":"7701286","steam_id":85568392924469985,"keywords":["cp","nocrits","nodmgspread","uncletopia"],"game_id":440,"stv_port":27026,"stv_name":"Uncletopia | Chicago | 2 | All Maps | STV","players":null},{"server_id":402,"name":"Uncletopia | Chicago | 3 | All Maps","name_short":"chi-3","host":"chi-1.us.uncletopia.com","port":27035,"enabled":true,"region":"us-central","cc":"us","latitude":41.881832,"longitude":-87.62318,"reserved":0,"last_update":"0001-01-01T00:00:00Z","name_a2s":"Uncletopia | Chicago | 3 | All Maps","protocol":17,"map":"pl_pier","folder":"tf","game":"Team Fortress","app_id":440,"player_count":24,"max_players":24,"Bots":0,"server_type":"Dedicated","server_os":"Linux","password":true,"vac":true,"version":"7701286","steam_id":85568392924515191,"keywords":["nocrits","nodmgspread","payload","uncletopia"],"game_id":440,"stv_port":27036,"stv_name":"Uncletopia | Chicago | 3 | All Maps | STV","players":[{"user_id":139,"name":"❤birbohex❤","steam_id":76561198392961483,"connected_time":166000000000,"state":"active","ping":46},{"user_id":129,"name":"Dert","steam_id":76561198883014990,"connected_time":652000000000,"state":"active","ping":55},{"user_id":137,"name":"DADDY ESCANOR","steam_id":76561198075102565,"connected_time":260000000000,"state":"active","ping":55},{"user_id":86,"name":"Rocky","steam_id":76561198048158539,"connected_time":2034000000000,"state":"active","ping":76},{"user_id":123,"name":"Captain Innocuous","steam_id":76561197968982943,"connected_time":865000000000,"state":"active","ping":88},{"user_id":143,"name":"DeathwingTheDestroyer","steam_id":76561199147322448,"connected_time":83000000000,"state":"active","ping":52},{"user_id":122,"name":"MILK MAN","steam_id":76561199012860639,"connected_time":974000000000,"state":"active","ping":59},{"user_id":136,"name":"Moanfulmilk","steam_id":76561199229169396,"connected_time":470000000000,"state":"active","ping":64},{"user_id":145,"name":"Crayfry","steam_id":76561198146525237,"connected_time":33000000000,"state":"active","ping":50},{"user_id":130,"name":"Lost","steam_id":76561198025933206,"connected_time":643000000000,"state":"active","ping":61},{"user_id":111,"name":"denk","steam_id":76561198049702548,"connected_time":1352000000000,"state":"active","ping":63},{"user_id":146,"name":"PapaTheBear123","steam_id":76561198885286869,"connected_time":31000000000,"state":"spawning","ping":140},{"user_id":27,"name":"Dictatorial Karelian","steam_id":76561198196736457,"connected_time":6137000000000,"state":"active","ping":157},{"user_id":28,"name":"doctor sex md","steam_id":76561198150678175,"connected_time":6113000000000,"state":"active","ping":103},{"user_id":126,"name":"Little Pew","steam_id":76561198140341533,"connected_time":704000000000,"state":"active","ping":32},{"user_id":131,"name":"The_atom_bomb","steam_id":76561198139944683,"connected_time":619000000000,"state":"active","ping":61},{"user_id":115,"name":"Hot Milk + Sweet Delight","steam_id":76561197988989149,"connected_time":1280000000000,"state":"active","ping":82},{"user_id":141,"name":"Luke5Arman","steam_id":76561198079940169,"connected_time":89000000000,"state":"active","ping":57},{"user_id":132,"name":"nhbiker","steam_id":76561198081277675,"connected_time":613000000000,"state":"active","ping":52},{"user_id":142,"name":"McMatthew","steam_id":76561198031741388,"connected_time":87000000000,"state":"active","ping":66},{"user_id":133,"name":"k1eran","steam_id":76561198064600737,"connected_time":598000000000,"state":"active","ping":75},{"user_id":147,"name":"rkp!","steam_id":76561199053070819,"connected_time":28000000000,"state":"active","ping":59},{"user_id":117,"name":"newboi (F2P)","steam_id":76561199273882768,"connected_time":1271000000000,"state":"active","ping":63},{"user_id":40,"name":"9 boy (f2p)","steam_id":76561198027906463,"connected_time":5717000000000,"state":"active","ping":45}]},{"server_id":403,"name":"Uncletopia | Chicago | 4 | All Maps","name_short":"chi-4","host":"chi-1.us.uncletopia.com","port":27045,"enabled":true,"region":"us-central","cc":"us","latitude":41.881832,"longitude":-87.62318,"reserved":0,"last_update":"0001-01-01T00:00:00Z","name_a2s":"Uncletopia | Chicago | 4 | All Maps","protocol":17,"map":"pl_swiftwater_final1","folder":"tf","game":"Team Fortress","app_id":440,"player_count":24,"max_players":24,"Bots":0,"server_type":"Dedicated","server_os":"Linux","password":true,"vac":true,"version":"7701286","steam_id":85568392924515193,"keywords":["nocrits","nodmgspread","payload","uncletopia"],"game_id":440,"stv_port":27046,"stv_name":"Uncletopia | Chicago | 4 | All Maps | STV","players":[{"user_id":163,"name":"motorized bar of soap","steam_id":76561198882404753,"connected_time":688000000000,"state":"active","ping":75},{"user_id":142,"name":"Vampire Juicebox","steam_id":76561198148652081,"connected_time":2324000000000,"state":"active","ping":62},{"user_id":148,"name":"Scorpie Doodle","steam_id":76561198021845763,"connected_time":1513000000000,"state":"active","ping":40},{"user_id":171,"name":"David Lynch's Woodpeckers","steam_id":76561198039763676,"connected_time":172000000000,"state":"active","ping":62},{"user_id":75,"name":"in trouble? call a crackhead","steam_id":76561198072657891,"connected_time":7559000000000,"state":"active","ping":48},{"user_id":15,"name":"Fredfredfood","steam_id":76561198072824802,"connected_time":10046000000000,"state":"active","ping":51},{"user_id":158,"name":"weeb","steam_id":76561198106945226,"connected_time":1073000000000,"state":"active","ping":60},{"user_id":149,"name":"20ZC20ZC20ZC20ZC","steam_id":76561198274959371,"connected_time":1506000000000,"state":"active","ping":66},{"user_id":173,"name":"ToeSniffer1992","steam_id":76561199134895220,"connected_time":136000000000,"state":"active","ping":72},{"user_id":161,"name":"[K.Y.L.L.]Drone #0432 (they/it)","steam_id":76561198027321950,"connected_time":921000000000,"state":"active","ping":95},{"user_id":169,"name":"LUCK KING","steam_id":76561198377521891,"connected_time":313000000000,"state":"active","ping":88},{"user_id":151,"name":"Menace to Sobriety","steam_id":76561198245103000,"connected_time":1379000000000,"state":"active","ping":63},{"user_id":156,"name":"frid","steam_id":76561198005806915,"connected_time":1131000000000,"state":"active","ping":60},{"user_id":121,"name":"Jake_Spencer","steam_id":76561198025176750,"connected_time":3473000000000,"state":"active","ping":90},{"user_id":174,"name":"Athrium","steam_id":76561199201940614,"connected_time":46000000000,"state":"active","ping":57},{"user_id":168,"name":"Droneable","steam_id":76561198090410671,"connected_time":414000000000,"state":"active","ping":84},{"user_id":165,"name":"gnome","steam_id":76561198262275475,"connected_time":672000000000,"state":"active","ping":80},{"user_id":167,"name":"Hol Horse","steam_id":76561198078207743,"connected_time":464000000000,"state":"active","ping":79},{"user_id":132,"name":"carrion goat","steam_id":76561198262064871,"connected_time":3019000000000,"state":"active","ping":72},{"user_id":160,"name":"cognitiveAfflatus","steam_id":76561198295181426,"connected_time":976000000000,"state":"active","ping":61},{"user_id":162,"name":"Be Gay, Do Crimes, Smoke Weed!","steam_id":76561198092419868,"connected_time":860000000000,"state":"active","ping":89},{"user_id":82,"name":"Medic","steam_id":76561198067869016,"connected_time":7144000000000,"state":"active","ping":45},{"user_id":172,"name":"Sqautchamo","steam_id":76561198012968239,"connected_time":150000000000,"state":"active","ping":77},{"user_id":166,"name":"floppy muppet","steam_id":76561198003076261,"connected_time":672000000000,"state":"active","ping":87}]},{"server_id":36,"name":"Uncletopia | Chicago | 5 | All Maps","name_short":"chi-5","host":"chi-2.us.uncletopia.com","port":27015,"enabled":true,"region":"us-central","cc":"us","latitude":41.881832,"longitude":-87.62318,"reserved":0,"last_update":"0001-01-01T00:00:00Z","name_a2s":"Uncletopia | Chicago | 5 | All Maps","protocol":17,"map":"koth_lakeside_final","folder":"tf","game":"Team Fortress","app_id":440,"player_count":0,"max_players":24,"Bots":0,"server_type":"Dedicated","server_os":"Linux","password":true,"vac":true,"version":"7701286","steam_id":85568392924866362,"keywords":["cp","nocrits","nodmgspread","uncletopia"],"game_id":440,"stv_port":27016,"stv_name":"Uncletopia | Chicago | 5 | All Maps | STV","players":null},{"server_id":37,"name":"Uncletopia | Chicago | 6 | All Maps","name_short":"chi-6","host":"chi-2.us.uncletopia.com","port":27025,"enabled":true,"region":"us-central","cc":"us","latitude":41.881832,"longitude":-87.62318,"reserved":0,"last_update":"0001-01-01T00:00:00Z","name_a2s":"Uncletopia | Chicago | 6 | All Maps","protocol":17,"map":"cp_mountainlab","folder":"tf","game":"Team Fortress","app_id":440,"player_count":0,"max_players":24,"Bots":0,"server_type":"Dedicated","server_os":"Linux","password":true,"vac":true,"version":"7701286","steam_id":85568392924866363,"keywords":["cp","nocrits","nodmgspread","uncletopia"],"game_id":440,"stv_port":0,"stv_name":"","players":null},{"server_id":38,"name":"Uncletopia | Chicago | 7 | No Payload","name_short":"chi-7","host":"chi-2.us.uncletopia.com","port":27035,"enabled":true,"region":"us-central","cc":"us","latitude":41.881832,"longitude":-87.62318,"reserved":0,"last_update":"0001-01-01T00:00:00Z","name_a2s":"Uncletopia | Chicago | 7 | No Payload","protocol":17,"map":"cp_dustbowl","folder":"tf","game":"Team Fortress","app_id":440,"player_count":0,"max_players":24,"Bots":0,"server_type":"Dedicated","server_os":"Linux","password":true,"vac":true,"version":"7701286","steam_id":85568392924866364,"keywords":["cp","nocrits","nodmgspread","uncletopia"],"game_id":440,"stv_port":27036,"stv_name":"Uncletopia | Chicago | 7 | No Payload | STV","players":null},{"server_id":39,"name":"Uncletopia | Chicago | 8 | Community","name_short":"chi-8","host":"chi-2.us.uncletopia.com","port":27045,"enabled":true,"region":"us-central","cc":"us","latitude":41.881832,"longitude":-87.62318,"reserved":0,"last_update":"0001-01-01T00:00:00Z","name_a2s":"Uncletopia | Chicago | 8 | Community","protocol":17,"map":"koth_cascade","folder":"tf","game":"Team Fortress","app_id":440,"player_count":0,"max_players":24,"Bots":0,"server_type":"Dedicated","server_os":"Linux","password":true,"vac":true,"version":"7701286","steam_id":85568392924866365,"keywords":["cp","nocrits","nodmgspread","uncletopia"],"game_id":440,"stv_port":0,"stv_name":"","players":null},{"server_id":8,"name":"Uncletopia | Dallas | 1 | All Maps","name_short":"dal-1","host":"dal-1.us.uncletopia.com","port":27015,"enabled":true,"region":"us-central","cc":"us","latitude":32.779167,"longitude":-96.80889,"reserved":0,"last_update":"0001-01-01T00:00:00Z","name_a2s":"Uncletopia | Dallas | 1 | All Maps","protocol":17,"map":"pl_upward","folder":"tf","game":"Team Fortress","app_id":440,"player_count":24,"max_players":24,"Bots":0,"server_type":"Dedicated","server_os":"Linux","password":true,"vac":true,"version":"7701286","steam_id":85568392924469986,"keywords":["nocrits","nodmgspread","payload","uncletopia"],"game_id":440,"stv_port":27016,"stv_name":"Uncletopia | Dallas | 1 | All Maps | STV","players":[{"user_id":229,"name":"Krazzle","steam_id":76561198029782412,"connected_time":1605000000000,"state":"active","ping":57},{"user_id":204,"name":"Reyloko","steam_id":76561198172480913,"connected_time":3427000000000,"state":"active","ping":74},{"user_id":230,"name":"CB1 Cousin Junebug","steam_id":76561198090573639,"connected_time":1601000000000,"state":"active","ping":78},{"user_id":238,"name":"Herr Müller","steam_id":76561198064876829,"connected_time":1037000000000,"state":"active","ping":91},{"user_id":248,"name":"Posadis","steam_id":76561198283812183,"connected_time":216000000000,"state":"active","ping":93},{"user_id":246,"name":"ball crusher :}","steam_id":76561198141198352,"connected_time":227000000000,"state":"active","ping":64},{"user_id":234,"name":"garfield","steam_id":76561198114119308,"connected_time":1533000000000,"state":"active","ping":60},{"user_id":244,"name":"walrus","steam_id":76561198057853319,"connected_time":416000000000,"state":"active","ping":89},{"user_id":249,"name":"no hablo inglés","steam_id":76561197974470963,"connected_time":213000000000,"state":"active","ping":82},{"user_id":250,"name":"Chihiro Cyrille","steam_id":76561198028875748,"connected_time":207000000000,"state":"active","ping":83},{"user_id":254,"name":"iHateOverwatchiLoveTf2","steam_id":76561198081617990,"connected_time":90000000000,"state":"active","ping":94},{"user_id":232,"name":"NormanVillage","steam_id":76561198330337371,"connected_time":1596000000000,"state":"active","ping":89},{"user_id":215,"name":"Emma","steam_id":76561198318093783,"connected_time":3037000000000,"state":"active","ping":62},{"user_id":240,"name":"Queen Frau the Round","steam_id":76561197999942134,"connected_time":522000000000,"state":"active","ping":71},{"user_id":251,"name":"Len","steam_id":76561199141913673,"connected_time":199000000000,"state":"active","ping":92},{"user_id":222,"name":"Rooster Miami Man","steam_id":76561199001393067,"connected_time":2490000000000,"state":"active","ping":123},{"user_id":235,"name":"Christoph Waltz eating a burger","steam_id":76561199215811448,"connected_time":1513000000000,"state":"active","ping":97},{"user_id":253,"name":"OmniXVII","steam_id":76561198027183394,"connected_time":171000000000,"state":"active","ping":79},{"user_id":252,"name":"Sheppy","steam_id":76561198295126940,"connected_time":191000000000,"state":"active","ping":79},{"user_id":223,"name":"Im racist (i like racing)","steam_id":76561198076067588,"connected_time":2481000000000,"state":"active","ping":135},{"user_id":47,"name":"Mr.Oxiclean","steam_id":76561198144729009,"connected_time":15720000000000,"state":"active","ping":77},{"user_id":239,"name":"Snakeye3490","steam_id":76561198197060503,"connected_time":884000000000,"state":"active","ping":412},{"user_id":194,"name":"Sharp","steam_id":76561198044565001,"connected_time":4890000000000,"state":"active","ping":89},{"user_id":51,"name":"Anon","steam_id":76561198109740776,"connected_time":15651000000000,"state":"active","ping":94}]},{"server_id":108,"name":"Uncletopia | Dallas | 2 | All Maps","name_short":"dal-2","host":"dal-1.us.uncletopia.com","port":27025,"enabled":true,"region":"us-central","cc":"us","latitude":32.779167,"longitude":-96.80889,"reserved":0,"last_update":"0001-01-01T00:00:00Z","name_a2s":"Uncletopia | Dallas | 2 | All Maps","protocol":17,"map":"koth_lakeside_final","folder":"tf","game":"Team Fortress","app_id":440,"player_count":0,"max_players":24,"Bots":0,"server_type":"Dedicated","server_os":"Linux","password":true,"vac":true,"version":"7701286","steam_id":85568392924469988,"keywords":["cp","nocrits","nodmgspread","uncletopia"],"game_id":440,"stv_port":27026,"stv_name":"Uncletopia | Dallas | 2 | All Maps | STV","players":null},{"server_id":5,"name":"Uncletopia | Frankfurt | 1 | All Maps","name_short":"frk-1","host":"frk-1.de.uncletopia.com","port":27015,"enabled":true,"region":"eu","cc":"de","latitude":50.110924,"longitude":8.682127,"reserved":0,"last_update":"0001-01-01T00:00:00Z","name_a2s":"Uncletopia | Frankfurt | 1 | All Maps","protocol":17,"map":"pl_wutville_event","folder":"tf","game":"Team Fortress","app_id":440,"player_count":22,"max_players":24,"Bots":0,"server_type":"Dedicated","server_os":"Linux","password":true,"vac":true,"version":"7701286","steam_id":85568392924469989,"keywords":["nocrits","nodmgspread","payload","uncletopia"],"game_id":440,"stv_port":27016,"stv_name":"Uncletopia | Frankfurt | 1 | All Maps | STV","players":[{"user_id":542,"name":"ghost","steam_id":76561198189940229,"connected_time":3417000000000,"state":"active","ping":59},{"user_id":590,"name":"OmR","steam_id":76561198015792609,"connected_time":26000000000,"state":"active","ping":51},{"user_id":582,"name":"cultured","steam_id":76561198188647690,"connected_time":900000000000,"state":"active","ping":73},{"user_id":576,"name":"pandeux","steam_id":76561198343527617,"connected_time":1196000000000,"state":"active","ping":51},{"user_id":551,"name":"=OKB= P4NTH3R","steam_id":76561197999204603,"connected_time":2717000000000,"state":"active","ping":50},{"user_id":559,"name":"LarsInABox","steam_id":76561198028329262,"connected_time":2406000000000,"state":"active","ping":70},{"user_id":524,"name":"Sgreff","steam_id":76561198036304365,"connected_time":4224000000000,"state":"active","ping":59},{"user_id":573,"name":"Perpetual Pub Push","steam_id":76561198256714846,"connected_time":1302000000000,"state":"active","ping":47},{"user_id":585,"name":"OREO","steam_id":76561198017080006,"connected_time":264000000000,"state":"active","ping":104},{"user_id":555,"name":"Gety0","steam_id":76561198044387185,"connected_time":2495000000000,"state":"active","ping":77},{"user_id":526,"name":"daimao622","steam_id":76561198042082838,"connected_time":4106000000000,"state":"active","ping":58},{"user_id":569,"name":"Bones","steam_id":76561198065081225,"connected_time":1616000000000,"state":"active","ping":53},{"user_id":589,"name":"Fome","steam_id":76561198180241217,"connected_time":121000000000,"state":"active","ping":74},{"user_id":578,"name":"Hannü","steam_id":76561197969886128,"connected_time":1175000000000,"state":"active","ping":62},{"user_id":535,"name":"Le Unabomber","steam_id":76561198869003596,"connected_time":3779000000000,"state":"active","ping":71},{"user_id":570,"name":"chief","steam_id":76561197995856532,"connected_time":1595000000000,"state":"active","ping":53},{"user_id":586,"name":"scallywag","steam_id":76561198834192529,"connected_time":222000000000,"state":"active","ping":75},{"user_id":540,"name":"Pestdoktor","steam_id":76561198058159271,"connected_time":3516000000000,"state":"active","ping":56},{"user_id":572,"name":"schizo gamer moment","steam_id":76561199414716848,"connected_time":1382000000000,"state":"active","ping":62},{"user_id":583,"name":"Maxinator80","steam_id":76561198064728122,"connected_time":885000000000,"state":"active","ping":52},{"user_id":587,"name":"Spoof059","steam_id":76561198356116829,"connected_time":221000000000,"state":"active","ping":69}]},{"server_id":110,"name":"Uncletopia | Frankfurt | 2 | All Maps","name_short":"frk-2","host":"frk-1.de.uncletopia.com","port":27025,"enabled":true,"region":"eu","cc":"de","latitude":50.110924,"longitude":8.682127,"reserved":0,"last_update":"0001-01-01T00:00:00Z","name_a2s":"Uncletopia | Frankfurt | 2 | All Maps","protocol":17,"map":"pl_frostcliff","folder":"tf","game":"Team Fortress","app_id":440,"player_count":24,"max_players":24,"Bots":0,"server_type":"Dedicated","server_os":"Linux","password":true,"vac":true,"version":"7701286","steam_id":85568392924469990,"keywords":["nocrits","nodmgspread","payload","uncletopia"],"game_id":440,"stv_port":27026,"stv_name":"Uncletopia | Frankfurt | 2 | All Maps | STV","players":[{"user_id":333,"name":"Speibsackerl","steam_id":76561198058135257,"connected_time":1402000000000,"state":"active","ping":62},{"user_id":245,"name":"dotdotdot","steam_id":76561198057628751,"connected_time":6587000000000,"state":"active","ping":60},{"user_id":345,"name":"Vitamin Weee","steam_id":76561199183937747,"connected_time":307000000000,"state":"active","ping":66},{"user_id":332,"name":"xXdoge gaming 42069Xx","steam_id":76561198372971096,"connected_time":1429000000000,"state":"active","ping":61},{"user_id":319,"name":"Nithle","steam_id":76561198025372740,"connected_time":2393000000000,"state":"active","ping":74},{"user_id":343,"name":"Mi PRO | FIH","steam_id":76561199023108666,"connected_time":575000000000,"state":"active","ping":111},{"user_id":334,"name":"Joe","steam_id":76561198368758532,"connected_time":1389000000000,"state":"active","ping":94},{"user_id":335,"name":"lephanukkah","steam_id":76561198797345502,"connected_time":1357000000000,"state":"active","ping":54},{"user_id":308,"name":"cat (they/them)","steam_id":76561198416657815,"connected_time":2924000000000,"state":"active","ping":66},{"user_id":322,"name":"Gurgula","steam_id":76561198021253678,"connected_time":2296000000000,"state":"active","ping":77},{"user_id":305,"name":"Johnny Amoeba Of Christmas Past","steam_id":76561198079530054,"connected_time":2970000000000,"state":"active","ping":64},{"user_id":338,"name":"Steel21","steam_id":76561197991543780,"connected_time":1267000000000,"state":"active","ping":76},{"user_id":244,"name":"Makeways","steam_id":76561198274466477,"connected_time":6785000000000,"state":"active","ping":65},{"user_id":347,"name":"DrExplosive","steam_id":76561198063678579,"connected_time":186000000000,"state":"active","ping":53},{"user_id":348,"name":"Aspartus","steam_id":76561198101385763,"connected_time":179000000000,"state":"active","ping":46},{"user_id":281,"name":"Bromoneto","steam_id":76561198876695014,"connected_time":4377000000000,"state":"active","ping":59},{"user_id":328,"name":"mat","steam_id":76561198824697295,"connected_time":1719000000000,"state":"active","ping":63},{"user_id":339,"name":"manure merchant","steam_id":76561198010109316,"connected_time":1115000000000,"state":"active","ping":62},{"user_id":349,"name":"SynthBox3","steam_id":76561199094075745,"connected_time":145000000000,"state":"active","ping":104},{"user_id":344,"name":"round object","steam_id":76561198136239861,"connected_time":557000000000,"state":"active","ping":63},{"user_id":340,"name":"gagalak","steam_id":76561198089979108,"connected_time":1109000000000,"state":"active","ping":90},{"user_id":300,"name":"MagicTITIKAKA","steam_id":76561198129509548,"connected_time":3090000000000,"state":"active","ping":110},{"user_id":336,"name":"Fran","steam_id":76561199070516960,"connected_time":1331000000000,"state":"active","ping":68}]},{"server_id":308,"name":"Uncletopia | Frankfurt | 3 | All Maps","name_short":"frk-3","host":"frk-1.de.uncletopia.com","port":27035,"enabled":true,"region":"eu","cc":"de","latitude":50.110924,"longitude":8.682127,"reserved":0,"last_update":"0001-01-01T00:00:00Z","name_a2s":"Uncletopia | Frankfurt | 3 | All Maps","protocol":17,"map":"pl_upward","folder":"tf","game":"Team Fortress","app_id":440,"player_count":24,"max_players":24,"Bots":0,"server_type":"Dedicated","server_os":"Linux","password":true,"vac":true,"version":"7701286","steam_id":85568392924504274,"keywords":["nocrits","nodmgspread","payload","uncletopia"],"game_id":440,"stv_port":27036,"stv_name":"Uncletopia | Frankfurt | 3 | All Maps | STV","players":[{"user_id":627,"name":"Regan","steam_id":76561198100631086,"connected_time":2748000000000,"state":"active","ping":55},{"user_id":653,"name":"Luo Lang","steam_id":76561197988802856,"connected_time":1223000000000,"state":"active","ping":56},{"user_id":654,"name":"Lyell","steam_id":76561198350329389,"connected_time":1219000000000,"state":"active","ping":84},{"user_id":629,"name":"bayley","steam_id":76561198117472639,"connected_time":2744000000000,"state":"active","ping":63},{"user_id":658,"name":"balance? dafaq is that?","steam_id":76561199439030016,"connected_time":1157000000000,"state":"active","ping":100},{"user_id":671,"name":"Karewa.","steam_id":76561198201109002,"connected_time":599000000000,"state":"active","ping":90},{"user_id":669,"name":"wasteland","steam_id":76561198189686075,"connected_time":931000000000,"state":"active","ping":59},{"user_id":643,"name":"ErJu","steam_id":76561198106273165,"connected_time":1851000000000,"state":"active","ping":64},{"user_id":648,"name":"Rat head","steam_id":76561198184360615,"connected_time":1567000000000,"state":"active","ping":90},{"user_id":675,"name":"ultralex","steam_id":76561198024910383,"connected_time":272000000000,"state":"active","ping":58},{"user_id":672,"name":"Brica","steam_id":76561198196324799,"connected_time":524000000000,"state":"active","ping":78},{"user_id":645,"name":"fénix","steam_id":76561198083199151,"connected_time":1666000000000,"state":"active","ping":60},{"user_id":646,"name":"sex","steam_id":76561198412197820,"connected_time":1641000000000,"state":"active","ping":69},{"user_id":661,"name":"el quack quack","steam_id":76561198418538887,"connected_time":1138000000000,"state":"active","ping":98},{"user_id":673,"name":"MR.DED#SAVETF2","steam_id":76561199102310318,"connected_time":504000000000,"state":"active","ping":242},{"user_id":663,"name":"Valoxi","steam_id":76561197995042938,"connected_time":1092000000000,"state":"active","ping":63},{"user_id":652,"name":"KillerQueen (he/they/she)","steam_id":76561199019399725,"connected_time":1326000000000,"state":"active","ping":63},{"user_id":460,"name":"( ]KROAN[ )","steam_id":76561198022840710,"connected_time":10572000000000,"state":"active","ping":71},{"user_id":668,"name":"scottland survivor","steam_id":76561199042470246,"connected_time":968000000000,"state":"active","ping":50},{"user_id":634,"name":"engiwolf","steam_id":76561198273963575,"connected_time":2644000000000,"state":"active","ping":88},{"user_id":647,"name":"King","steam_id":76561198302115343,"connected_time":1620000000000,"state":"active","ping":140},{"user_id":670,"name":"her0es","steam_id":76561198047156773,"connected_time":684000000000,"state":"active","ping":55},{"user_id":676,"name":"Efeca","steam_id":76561198018923829,"connected_time":253000000000,"state":"active","ping":68},{"user_id":620,"name":"Tsar Ferdinand I","steam_id":76561198968004534,"connected_time":4164000000000,"state":"active","ping":91}]},{"server_id":309,"name":"Uncletopia | Frankfurt | 4 | All Maps","name_short":"frk-4","host":"frk-1.de.uncletopia.com","port":27045,"enabled":true,"region":"eu","cc":"de","latitude":50.110924,"longitude":8.682127,"reserved":0,"last_update":"0001-01-01T00:00:00Z","name_a2s":"Uncletopia | Frankfurt | 4 | All Maps","protocol":17,"map":"pl_borneo","folder":"tf","game":"Team Fortress","app_id":440,"player_count":24,"max_players":24,"Bots":0,"server_type":"Dedicated","server_os":"Linux","password":true,"vac":true,"version":"7701286","steam_id":85568392924504275,"keywords":["nocrits","nodmgspread","payload","uncletopia"],"game_id":440,"stv_port":27046,"stv_name":"Uncletopia | Frankfurt | 4 | All Maps | STV","players":[{"user_id":315,"name":"Drunk Master","steam_id":76561198204143508,"connected_time":94000000000,"state":"active","ping":60},{"user_id":238,"name":"Proto-arc","steam_id":76561198012776747,"connected_time":7066000000000,"state":"active","ping":59},{"user_id":292,"name":"giclure :;","steam_id":76561197986362828,"connected_time":2370000000000,"state":"active","ping":41},{"user_id":294,"name":"not a nihilist","steam_id":76561198004340466,"connected_time":2345000000000,"state":"active","ping":50},{"user_id":210,"name":"Fat Pigeon","steam_id":76561198817940142,"connected_time":9443000000000,"state":"active","ping":59},{"user_id":297,"name":"LordTrap.exe","steam_id":76561198318089716,"connected_time":2283000000000,"state":"active","ping":59},{"user_id":289,"name":"Standingo","steam_id":76561198035642311,"connected_time":2637000000000,"state":"active","ping":101},{"user_id":291,"name":"shr1mple","steam_id":76561198173537027,"connected_time":2477000000000,"state":"active","ping":44},{"user_id":272,"name":"Charmedelf","steam_id":76561197993611881,"connected_time":4597000000000,"state":"active","ping":60},{"user_id":293,"name":"Čika Kure","steam_id":76561199002244505,"connected_time":2368000000000,"state":"active","ping":56},{"user_id":310,"name":"Joe12000","steam_id":76561198160817969,"connected_time":616000000000,"state":"active","ping":62},{"user_id":242,"name":"Pico","steam_id":76561198063552545,"connected_time":5700000000000,"state":"active","ping":98},{"user_id":306,"name":"TidB","steam_id":76561198055342304,"connected_time":1268000000000,"state":"active","ping":46},{"user_id":312,"name":"player","steam_id":76561198054474684,"connected_time":261000000000,"state":"active","ping":78},{"user_id":254,"name":"Miton","steam_id":76561197970323209,"connected_time":5485000000000,"state":"active","ping":84},{"user_id":308,"name":"Gryoss","steam_id":76561197999837111,"connected_time":750000000000,"state":"active","ping":109},{"user_id":313,"name":"Dolcelatte","steam_id":76561198038501770,"connected_time":239000000000,"state":"active","ping":47},{"user_id":300,"name":"BELADIT","steam_id":76561198011911501,"connected_time":2188000000000,"state":"active","ping":74},{"user_id":311,"name":"asuxVEVO","steam_id":76561197988085026,"connected_time":393000000000,"state":"active","ping":73},{"user_id":302,"name":"pablo.gonzalez.2005","steam_id":76561198971389390,"connected_time":1938000000000,"state":"active","ping":67},{"user_id":275,"name":"Труп Володя","steam_id":76561198035718457,"connected_time":4457000000000,"state":"active","ping":95},{"user_id":307,"name":"funny spy","steam_id":76561198267612598,"connected_time":1086000000000,"state":"active","ping":82},{"user_id":314,"name":"Healthiest Person in Ohio","steam_id":76561198154176202,"connected_time":196000000000,"state":"active","ping":64},{"user_id":287,"name":"TheMilOne","steam_id":76561198058910512,"connected_time":2895000000000,"state":"active","ping":55}]},{"server_id":310,"name":"Uncletopia | Frankfurt | 5 | All Maps","name_short":"frk-5","host":"frk-1.de.uncletopia.com","port":27055,"enabled":true,"region":"eu","cc":"de","latitude":50.110924,"longitude":8.682127,"reserved":0,"last_update":"0001-01-01T00:00:00Z","name_a2s":"Uncletopia | Frankfurt | 5 | All Maps","protocol":17,"map":"cp_dustbowl","folder":"tf","game":"Team Fortress","app_id":440,"player_count":23,"max_players":24,"Bots":0,"server_type":"Dedicated","server_os":"Linux","password":true,"vac":true,"version":"7701286","steam_id":85568392924504277,"keywords":["cp","nocrits","nodmgspread","uncletopia"],"game_id":440,"stv_port":27056,"stv_name":"Uncletopia | Frankfurt | 5 | All Maps | STV","players":[{"user_id":215,"name":"MomoInTheBox","steam_id":76561197994150695,"connected_time":3411000000000,"state":"active","ping":75},{"user_id":259,"name":"BBòÓ NiceGuy","steam_id":76561198008074156,"connected_time":1173000000000,"state":"active","ping":52},{"user_id":250,"name":"opaacic","steam_id":76561199158514501,"connected_time":1305000000000,"state":"active","ping":73},{"user_id":248,"name":"Engi-Nearing","steam_id":76561199221172552,"connected_time":1371000000000,"state":"active","ping":68},{"user_id":274,"name":"yodie land","steam_id":76561198127441800,"connected_time":190000000000,"state":"active","ping":72},{"user_id":276,"name":"Chat","steam_id":76561198351286949,"connected_time":106000000000,"state":"active","ping":59},{"user_id":258,"name":"ćirno","steam_id":76561199010825303,"connected_time":1184000000000,"state":"active","ping":75},{"user_id":220,"name":"Salih","steam_id":76561198287934839,"connected_time":3266000000000,"state":"active","ping":51},{"user_id":225,"name":"F2P gameing","steam_id":76561198834713682,"connected_time":2633000000000,"state":"active","ping":75},{"user_id":260,"name":"heavyyy","steam_id":76561199149902885,"connected_time":1171000000000,"state":"active","ping":73},{"user_id":261,"name":"monstrioz","steam_id":76561199004673069,"connected_time":1167000000000,"state":"active","ping":81},{"user_id":252,"name":"rosepinkyfuzz","steam_id":76561198018546334,"connected_time":1296000000000,"state":"active","ping":70},{"user_id":255,"name":"roar","steam_id":76561198032516058,"connected_time":1263000000000,"state":"active","ping":58},{"user_id":174,"name":"-rikeOo-","steam_id":76561198303995379,"connected_time":5907000000000,"state":"active","ping":70},{"user_id":266,"name":"Spy","steam_id":76561198122074582,"connected_time":947000000000,"state":"active","ping":90},{"user_id":262,"name":"Silverowl","steam_id":76561198045773877,"connected_time":1152000000000,"state":"active","ping":57},{"user_id":267,"name":"Mr. Sandman","steam_id":76561198281209867,"connected_time":908000000000,"state":"active","ping":93},{"user_id":275,"name":"MAKENTAKEN","steam_id":76561199127359587,"connected_time":135000000000,"state":"active","ping":95},{"user_id":273,"name":"KingPotatoChips","steam_id":76561198035156465,"connected_time":480000000000,"state":"active","ping":60},{"user_id":178,"name":"SilverSteel","steam_id":76561198153690579,"connected_time":5853000000000,"state":"active","ping":59},{"user_id":270,"name":"NEET","steam_id":76561198133887882,"connected_time":633000000000,"state":"active","ping":114},{"user_id":271,"name":"yummy_treat_for_mr_beast","steam_id":76561198010251613,"connected_time":546000000000,"state":"active","ping":81},{"user_id":272,"name":"Fortezza","steam_id":76561198972539903,"connected_time":545000000000,"state":"active","ping":53}]},{"server_id":311,"name":"Uncletopia | Frankfurt | 6 | All Maps","name_short":"frk-6","host":"frk-1.de.uncletopia.com","port":27065,"enabled":true,"region":"eu","cc":"de","latitude":50.110924,"longitude":8.682127,"reserved":0,"last_update":"0001-01-01T00:00:00Z","name_a2s":"Uncletopia | Frankfurt | 6 | All Maps","protocol":17,"map":"koth_cascade","folder":"tf","game":"Team Fortress","app_id":440,"player_count":0,"max_players":24,"Bots":0,"server_type":"Dedicated","server_os":"Linux","password":true,"vac":true,"version":"7701286","steam_id":85568392924504278,"keywords":["cp","nocrits","nodmgspread","uncletopia"],"game_id":440,"stv_port":27066,"stv_name":"Uncletopia | Frankfurt | 6 | All Maps | STV","players":null},{"server_id":23,"name":"Uncletopia | Frankfurt | 7 | No Payload","name_short":"frk-7","host":"frk-1.de.uncletopia.com","port":27075,"enabled":true,"region":"eu","cc":"de","latitude":50.110924,"longitude":8.682127,"reserved":0,"last_update":"0001-01-01T00:00:00Z","name_a2s":"Uncletopia | Frankfurt | 7 | No Payload","protocol":17,"map":"koth_harvest_final","folder":"tf","game":"Team Fortress","app_id":440,"player_count":0,"max_players":24,"Bots":0,"server_type":"Dedicated","server_os":"Linux","password":true,"vac":true,"version":"7701286","steam_id":85568392924742827,"keywords":["cp","nocrits","nodmgspread","uncletopia"],"game_id":440,"stv_port":27076,"stv_name":"Uncletopia | Frankfurt | 7 | No Payload | STV","players":null},{"server_id":24,"name":"Uncletopia | Frankfurt | 8 | Community","name_short":"frk-8","host":"frk-1.de.uncletopia.com","port":27085,"enabled":true,"region":"eu","cc":"de","latitude":50.110924,"longitude":8.682127,"reserved":0,"last_update":"0001-01-01T00:00:00Z","name_a2s":"Uncletopia | Frankfurt | 8 | Community","protocol":17,"map":"workshop/koth_ashville_final.ugc2130459942","folder":"tf","game":"Team Fortress","app_id":440,"player_count":0,"max_players":24,"Bots":0,"server_type":"Dedicated","server_os":"Linux","password":true,"vac":true,"version":"7701286","steam_id":85568392924742828,"keywords":["cp","nocrits","nodmgspread","uncletopia"],"game_id":440,"stv_port":27086,"stv_name":"Uncletopia | Frankfurt | 8 | Community | STV","players":null},{"server_id":202,"name":"Uncletopia | Hong Kong | 1 | All Maps","name_short":"hgk-1","host":"hgk-1.hk.uncletopia.com","port":27015,"enabled":true,"region":"asia","cc":"hk","latitude":22.302711,"longitude":114.177216,"reserved":0,"last_update":"0001-01-01T00:00:00Z","name_a2s":"Uncletopia | Hong Kong | 1 | All Maps","protocol":17,"map":"koth_cascade","folder":"tf","game":"Team Fortress","app_id":440,"player_count":0,"max_players":24,"Bots":0,"server_type":"Dedicated","server_os":"Linux","password":true,"vac":true,"version":"7701286","steam_id":85568392924494504,"keywords":["cp","nocrits","nodmgspread","uncletopia"],"game_id":440,"stv_port":27016,"stv_name":"Uncletopia | Hong Kong | 1 | All Maps | STV","players":null},{"server_id":1,"name":"Uncletopia | Los Angeles | 1 | All Maps","name_short":"lax-1","host":"lax-1.us.uncletopia.com","port":27015,"enabled":true,"region":"us-west","cc":"us","latitude":33.94279,"longitude":-118.41004,"reserved":0,"last_update":"0001-01-01T00:00:00Z","name_a2s":"Uncletopia | Los Angeles | 1 | All Maps","protocol":17,"map":"koth_lakeside_final","folder":"tf","game":"Team Fortress","app_id":440,"player_count":0,"max_players":24,"Bots":0,"server_type":"Dedicated","server_os":"Linux","password":true,"vac":true,"version":"7701286","steam_id":85568392924469991,"keywords":["cp","nocrits","nodmgspread","uncletopia"],"game_id":440,"stv_port":0,"stv_name":"","players":null},{"server_id":112,"name":"Uncletopia | Los Angeles | 2 | All Maps","name_short":"lax-2","host":"lax-1.us.uncletopia.com","port":27025,"enabled":true,"region":"us-west","cc":"us","latitude":33.94279,"longitude":-118.41004,"reserved":0,"last_update":"0001-01-01T00:00:00Z","name_a2s":"Uncletopia | Los Angeles | 2 | All Maps","protocol":17,"map":"cp_snakewater_final1","folder":"tf","game":"Team Fortress","app_id":440,"player_count":0,"max_players":24,"Bots":0,"server_type":"Dedicated","server_os":"Linux","password":true,"vac":true,"version":"7701286","steam_id":85568392924469992,"keywords":["cp","nocrits","nodmgspread","uncletopia"],"game_id":440,"stv_port":0,"stv_name":"","players":null},{"server_id":324,"name":"Uncletopia | Los Angeles | 3 | All Maps","name_short":"lax-3","host":"lax-1.us.uncletopia.com","port":27035,"enabled":true,"region":"us-west","cc":"us","latitude":33.94279,"longitude":-118.41004,"reserved":0,"last_update":"0001-01-01T00:00:00Z","name_a2s":"Uncletopia | Los Angeles | 3 | All Maps","protocol":17,"map":"koth_lakeside_final","folder":"tf","game":"Team Fortress","app_id":440,"player_count":0,"max_players":24,"Bots":0,"server_type":"Dedicated","server_os":"Linux","password":true,"vac":true,"version":"7701286","steam_id":85568392924510198,"keywords":["cp","nocrits","nodmgspread","uncletopia"],"game_id":440,"stv_port":27036,"stv_name":"Uncletopia | Los Angeles | 3 | All Maps | STV","players":null},{"server_id":25,"name":"Uncletopia | Los Angeles | 4 | No Payload","name_short":"lax-4","host":"lax-1.us.uncletopia.com","port":27045,"enabled":true,"region":"us-west","cc":"us","latitude":33.94279,"longitude":-118.41004,"reserved":0,"last_update":"0001-01-01T00:00:00Z","name_a2s":"Uncletopia | Los Angeles | 4 | No Payload","protocol":17,"map":"pl_badwater","folder":"tf","game":"Team Fortress","app_id":440,"player_count":0,"max_players":24,"Bots":0,"server_type":"Dedicated","server_os":"Linux","password":true,"vac":true,"version":"7701286","steam_id":85568392924510199,"keywords":["nocrits","nodmgspread","payload","uncletopia"],"game_id":440,"stv_port":0,"stv_name":"","players":null},{"server_id":11,"name":"Uncletopia | London | 1 | All Maps","name_short":"lon-1","host":"lon-1.uk.uncletopia.com","port":27015,"enabled":true,"region":"eu","cc":"gb","latitude":51.509865,"longitude":-0.118092,"reserved":0,"last_update":"0001-01-01T00:00:00Z","name_a2s":"Uncletopia | London | 1 | All Maps","protocol":17,"map":"pl_snowycoast","folder":"tf","game":"Team Fortress","app_id":440,"player_count":24,"max_players":24,"Bots":0,"server_type":"Dedicated","server_os":"Linux","password":true,"vac":true,"version":"7701286","steam_id":85568392924367362,"keywords":["nocrits","nodmgspread","payload","uncletopia"],"game_id":440,"stv_port":27016,"stv_name":"Uncletopia | London | 1 | All Maps | STV","players":[{"user_id":434,"name":"Langlock509","steam_id":76561198402284626,"connected_time":1165000000000,"state":"active","ping":48},{"user_id":433,"name":"Mads","steam_id":76561198089261782,"connected_time":1191000000000,"state":"active","ping":60},{"user_id":374,"name":"Ullapool Caber","steam_id":76561198116151026,"connected_time":4277000000000,"state":"active","ping":56},{"user_id":375,"name":"The Great Pootizmo","steam_id":76561198256504605,"connected_time":4274000000000,"state":"active","ping":47},{"user_id":428,"name":"Alegz","steam_id":76561198287810139,"connected_time":2012000000000,"state":"active","ping":82},{"user_id":422,"name":"Mango","steam_id":76561198139555709,"connected_time":2230000000000,"state":"active","ping":56},{"user_id":424,"name":"Stitch","steam_id":76561198104613474,"connected_time":2100000000000,"state":"active","ping":66},{"user_id":415,"name":"When Life gives you Lemons","steam_id":76561198318290663,"connected_time":2404000000000,"state":"active","ping":59},{"user_id":378,"name":"Sneaky Lög","steam_id":76561198990438917,"connected_time":4107000000000,"state":"active","ping":76},{"user_id":438,"name":"sex slapper","steam_id":76561198078625819,"connected_time":1090000000000,"state":"active","ping":47},{"user_id":436,"name":"mAYONEZ INTERNATIONAL","steam_id":76561197999887000,"connected_time":1123000000000,"state":"active","ping":74},{"user_id":379,"name":"Stormaster","steam_id":76561198049039847,"connected_time":4064000000000,"state":"active","ping":75},{"user_id":443,"name":"w00sh","steam_id":76561198179463343,"connected_time":822000000000,"state":"active","ping":47},{"user_id":437,"name":"Sweetcheesus","steam_id":76561198022299033,"connected_time":1119000000000,"state":"active","ping":60},{"user_id":361,"name":"juJu","steam_id":76561198049343793,"connected_time":5137000000000,"state":"active","ping":62},{"user_id":446,"name":"GetExp","steam_id":76561198410131881,"connected_time":722000000000,"state":"active","ping":72},{"user_id":447,"name":"tmac","steam_id":76561198047685716,"connected_time":684000000000,"state":"active","ping":46},{"user_id":449,"name":"Yxel","steam_id":76561198123982890,"connected_time":175000000000,"state":"active","ping":63},{"user_id":445,"name":"Piter","steam_id":76561198160592010,"connected_time":735000000000,"state":"active","ping":91},{"user_id":388,"name":"Clown","steam_id":76561199063268772,"connected_time":3962000000000,"state":"active","ping":66},{"user_id":448,"name":"SuperBob103","steam_id":76561199175360012,"connected_time":208000000000,"state":"active","ping":56},{"user_id":450,"name":"TSAR FACE","steam_id":76561198822725169,"connected_time":154000000000,"state":"active","ping":42},{"user_id":439,"name":"partizan","steam_id":76561198440837262,"connected_time":1050000000000,"state":"active","ping":47},{"user_id":440,"name":"viora ✨","steam_id":76561198054979849,"connected_time":997000000000,"state":"active","ping":47}]},{"server_id":114,"name":"Uncletopia | London | 2 | All Maps","name_short":"lon-2","host":"lon-1.uk.uncletopia.com","port":27025,"enabled":true,"region":"eu","cc":"gb","latitude":51.509865,"longitude":-0.118092,"reserved":0,"last_update":"0001-01-01T00:00:00Z","name_a2s":"Uncletopia | London | 2 | All Maps","protocol":17,"map":"pl_pier","folder":"tf","game":"Team Fortress","app_id":440,"player_count":22,"max_players":24,"Bots":0,"server_type":"Dedicated","server_os":"Linux","password":true,"vac":true,"version":"7701286","steam_id":85568392924470941,"keywords":["nocrits","nodmgspread","payload","uncletopia"],"game_id":440,"stv_port":27026,"stv_name":"Uncletopia | London | 2 | All Maps | STV","players":[{"user_id":421,"name":"VolcanicArts","steam_id":76561198063453246,"connected_time":1717000000000,"state":"active","ping":51},{"user_id":434,"name":"Mr_Pulse_","steam_id":76561198095001602,"connected_time":816000000000,"state":"active","ping":94},{"user_id":442,"name":"Xariklhs Kolimpithras","steam_id":76561198165584544,"connected_time":55000000000,"state":"active","ping":111},{"user_id":438,"name":"oh hi mark","steam_id":76561197971981807,"connected_time":289000000000,"state":"active","ping":78},{"user_id":443,"name":"Pesky Plumber","steam_id":76561198241999094,"connected_time":40000000000,"state":"active","ping":42},{"user_id":419,"name":"lowcostfish.co.uk","steam_id":76561198126022039,"connected_time":1795000000000,"state":"active","ping":49},{"user_id":437,"name":"jankomit","steam_id":76561198043024857,"connected_time":365000000000,"state":"active","ping":79},{"user_id":433,"name":"Toaster1337","steam_id":76561198103706881,"connected_time":840000000000,"state":"active","ping":62},{"user_id":363,"name":"Noob_with_source","steam_id":76561198870362103,"connected_time":5926000000000,"state":"active","ping":59},{"user_id":435,"name":"fat croc | Hyvää Suomi","steam_id":76561198159172495,"connected_time":736000000000,"state":"active","ping":66},{"user_id":405,"name":"Cosmonaut","steam_id":76561198239514504,"connected_time":3102000000000,"state":"active","ping":78},{"user_id":444,"name":"Cardjitsu Blackbelt","steam_id":76561199099203623,"connected_time":27000000000,"state":"active","ping":191},{"user_id":445,"name":"Dakkafex","steam_id":76561198020254869,"connected_time":11000000000,"state":"spawning","ping":64},{"user_id":446,"name":"nyanezt","steam_id":76561198253734265,"connected_time":9000000000,"state":"spawning","ping":105},{"user_id":439,"name":"Terrarian Outlaw","steam_id":76561198068315549,"connected_time":240000000000,"state":"active","ping":45},{"user_id":447,"name":"lanzer","steam_id":76561198049983016,"connected_time":4000000000,"state":"spawning","ping":133},{"user_id":416,"name":"Houdiiiz","steam_id":76561198132295158,"connected_time":1903000000000,"state":"active","ping":67},{"user_id":415,"name":"bubblojoe","steam_id":76561198044534119,"connected_time":1907000000000,"state":"active","ping":52},{"user_id":376,"name":"Jag är ett anka","steam_id":76561198059978438,"connected_time":4243000000000,"state":"active","ping":60},{"user_id":440,"name":"DEMURE","steam_id":76561198263299590,"connected_time":232000000000,"state":"active","ping":64},{"user_id":441,"name":"ball sniffa","steam_id":76561199022705805,"connected_time":169000000000,"state":"active","ping":41},{"user_id":428,"name":"ambatukam!!!","steam_id":76561198197304886,"connected_time":1434000000000,"state":"active","ping":111}]},{"server_id":320,"name":"Uncletopia | London | 3 | All Maps","name_short":"lon-3","host":"lon-1.uk.uncletopia.com","port":27035,"enabled":true,"region":"eu","cc":"gb","latitude":51.509865,"longitude":-0.118092,"reserved":0,"last_update":"0001-01-01T00:00:00Z","name_a2s":"Uncletopia | London | 3 | All Maps","protocol":17,"map":"plr_hightower","folder":"tf","game":"Team Fortress","app_id":440,"player_count":21,"max_players":24,"Bots":0,"server_type":"Dedicated","server_os":"Linux","password":true,"vac":true,"version":"7701286","steam_id":85568392924510192,"keywords":["nocrits","nodmgspread","payload","uncletopia"],"game_id":440,"stv_port":27036,"stv_name":"Uncletopia | London | 3 | All Maps | STV","players":[{"user_id":322,"name":"Teffg","steam_id":76561198274386094,"connected_time":4095000000000,"state":"active","ping":79},{"user_id":323,"name":"JOHN GAMING (based)","steam_id":76561199085822219,"connected_time":3847000000000,"state":"active","ping":83},{"user_id":361,"name":"NO","steam_id":76561198795767535,"connected_time":1420000000000,"state":"active","ping":82},{"user_id":364,"name":"End","steam_id":76561198332429328,"connected_time":1281000000000,"state":"active","ping":31},{"user_id":372,"name":"Baron","steam_id":76561198021901783,"connected_time":775000000000,"state":"active","ping":47},{"user_id":340,"name":"DonnytheDutchman","steam_id":76561198260295055,"connected_time":2787000000000,"state":"active","ping":63},{"user_id":383,"name":"ААААААААААААААА\ufffd","steam_id":76561199137501547,"connected_time":68000000000,"state":"active","ping":97},{"user_id":354,"name":"Random Rock","steam_id":76561199013795985,"connected_time":1898000000000,"state":"active","ping":52},{"user_id":378,"name":"Weeb","steam_id":76561198297928869,"connected_time":489000000000,"state":"active","ping":47},{"user_id":325,"name":"Saken","steam_id":76561198049075295,"connected_time":3688000000000,"state":"active","ping":60},{"user_id":312,"name":"cropping","steam_id":76561198026586456,"connected_time":4552000000000,"state":"active","ping":60},{"user_id":379,"name":"Horo","steam_id":76561198009504508,"connected_time":313000000000,"state":"active","ping":53},{"user_id":298,"name":"lark","steam_id":76561198091724522,"connected_time":4908000000000,"state":"active","ping":51},{"user_id":381,"name":".LasDent.o.O","steam_id":76561198003317740,"connected_time":198000000000,"state":"active","ping":88},{"user_id":330,"name":"artonzhun","steam_id":76561198259104010,"connected_time":3338000000000,"state":"active","ping":68},{"user_id":376,"name":"Le Chevalier Pingouin","steam_id":76561198221355000,"connected_time":600000000000,"state":"active","ping":37},{"user_id":331,"name":"wunderrabbi","steam_id":76561198101210970,"connected_time":3326000000000,"state":"active","ping":77},{"user_id":377,"name":"Him","steam_id":76561198155314925,"connected_time":596000000000,"state":"active","ping":55},{"user_id":370,"name":"Valfezant","steam_id":76561199063983797,"connected_time":982000000000,"state":"active","ping":71},{"user_id":362,"name":"Duarte™","steam_id":76561198131456324,"connected_time":1392000000000,"state":"active","ping":78},{"user_id":332,"name":"BritishBeef","steam_id":76561197971054321,"connected_time":3306000000000,"state":"active","ping":47}]},{"server_id":321,"name":"Uncletopia | London | 4 | All Maps","name_short":"lon-4","host":"lon-1.uk.uncletopia.com","port":27045,"enabled":true,"region":"eu","cc":"gb","latitude":51.509865,"longitude":-0.118092,"reserved":0,"last_update":"0001-01-01T00:00:00Z","name_a2s":"Uncletopia | London | 4 | All Maps","protocol":17,"map":"pl_frontier_final","folder":"tf","game":"Team Fortress","app_id":440,"player_count":22,"max_players":24,"Bots":0,"server_type":"Dedicated","server_os":"Linux","password":true,"vac":true,"version":"7701286","steam_id":85568392924510193,"keywords":["nocrits","nodmgspread","payload","uncletopia"],"game_id":440,"stv_port":27046,"stv_name":"Uncletopia | London | 4 | All Maps | STV","players":[{"user_id":282,"name":"i am bread","steam_id":76561199180277321,"connected_time":3042000000000,"state":"active","ping":43},{"user_id":283,"name":"jacob?","steam_id":76561199025525354,"connected_time":3034000000000,"state":"active","ping":64},{"user_id":294,"name":"Quaker Yotes","steam_id":76561198083068263,"connected_time":2563000000000,"state":"active","ping":83},{"user_id":284,"name":"r06u3","steam_id":76561198254099253,"connected_time":3009000000000,"state":"active","ping":180},{"user_id":323,"name":"Joseph Stalin LFT","steam_id":76561198033199746,"connected_time":678000000000,"state":"active","ping":49},{"user_id":317,"name":"osaki gaming","steam_id":76561198325980914,"connected_time":869000000000,"state":"active","ping":176},{"user_id":332,"name":"rummy","steam_id":76561197997573379,"connected_time":72000000000,"state":"active","ping":42},{"user_id":333,"name":"Wlkr","steam_id":76561197990117572,"connected_time":57000000000,"state":"active","ping":49},{"user_id":314,"name":"FeeXy","steam_id":76561198028633251,"connected_time":1609000000000,"state":"active","ping":55},{"user_id":295,"name":"Venus⚢","steam_id":76561198018602969,"connected_time":2550000000000,"state":"active","ping":48},{"user_id":316,"name":"Saul Bonsex","steam_id":76561198173218318,"connected_time":938000000000,"state":"active","ping":45},{"user_id":296,"name":"glyph","steam_id":76561197980736364,"connected_time":2454000000000,"state":"active","ping":86},{"user_id":329,"name":"skull","steam_id":76561198269491159,"connected_time":203000000000,"state":"active","ping":48},{"user_id":322,"name":"hipster_doofus","steam_id":76561197970902697,"connected_time":699000000000,"state":"active","ping":45},{"user_id":319,"name":"sam","steam_id":76561198274236638,"connected_time":843000000000,"state":"active","ping":66},{"user_id":320,"name":"Carol Olston","steam_id":76561198080257273,"connected_time":837000000000,"state":"active","ping":41},{"user_id":327,"name":"20000 bpm music gaming","steam_id":76561199400809482,"connected_time":285000000000,"state":"active","ping":57},{"user_id":311,"name":"D_Ink","steam_id":76561198267716662,"connected_time":2006000000000,"state":"active","ping":35},{"user_id":308,"name":"Sloppyspider","steam_id":76561198178869441,"connected_time":2132000000000,"state":"active","ping":48},{"user_id":330,"name":"Mr. Ruckus","steam_id":76561198339566190,"connected_time":201000000000,"state":"active","ping":165},{"user_id":305,"name":"ducks","steam_id":76561198166148685,"connected_time":2295000000000,"state":"active","ping":32},{"user_id":306,"name":"X45Y","steam_id":76561198112534025,"connected_time":2291000000000,"state":"active","ping":60}]},{"server_id":21,"name":"Uncletopia | London | 5 | All Maps","name_short":"lon-5","host":"lon-1.uk.uncletopia.com","port":27055,"enabled":true,"region":"eu","cc":"gb","latitude":51.509865,"longitude":-0.118092,"reserved":0,"last_update":"0001-01-01T00:00:00Z","name_a2s":"Uncletopia | London | 5 | All Maps","protocol":17,"map":"koth_cascade","folder":"tf","game":"Team Fortress","app_id":440,"player_count":0,"max_players":24,"Bots":0,"server_type":"Dedicated","server_os":"Linux","password":true,"vac":true,"version":"7701286","steam_id":85568392924742829,"keywords":["cp","nocrits","nodmgspread","uncletopia"],"game_id":440,"stv_port":27056,"stv_name":"Uncletopia | London | 5 | All Maps | STV","players":null},{"server_id":22,"name":"Uncletopia | London | 6 | All Maps","name_short":"lon-6","host":"lon-1.uk.uncletopia.com","port":27065,"enabled":true,"region":"eu","cc":"gb","latitude":51.509865,"longitude":-0.118092,"reserved":0,"last_update":"0001-01-01T00:00:00Z","name_a2s":"Uncletopia | London | 6 | All Maps","protocol":17,"map":"cp_altitude","folder":"tf","game":"Team Fortress","app_id":440,"player_count":0,"max_players":24,"Bots":0,"server_type":"Dedicated","server_os":"Linux","password":true,"vac":true,"version":"7701286","steam_id":85568392924742830,"keywords":["cp","nocrits","nodmgspread","uncletopia"],"game_id":440,"stv_port":27066,"stv_name":"Uncletopia | London | 6 | All Maps | STV","players":null},{"server_id":40,"name":"Uncletopia | London | 7 | No Payload","name_short":"lon-7","host":"lon-1.uk.uncletopia.com","port":27075,"enabled":true,"region":"eu","cc":"gb","latitude":51.509865,"longitude":-0.118092,"reserved":0,"last_update":"0001-01-01T00:00:00Z","name_a2s":"Uncletopia | London | 7 | No Payload","protocol":17,"map":"koth_highpass","folder":"tf","game":"Team Fortress","app_id":440,"player_count":8,"max_players":24,"Bots":0,"server_type":"Dedicated","server_os":"Linux","password":true,"vac":true,"version":"7701286","steam_id":85568392924964314,"keywords":["cp","nocrits","nodmgspread","uncletopia"],"game_id":440,"stv_port":27076,"stv_name":"Uncletopia | London | 7 | No Payload | STV","players":[{"user_id":525,"name":"Tresthebest360","steam_id":76561198965347175,"connected_time":916000000000,"state":"active","ping":129},{"user_id":526,"name":"Garden Freeman","steam_id":76561199073314677,"connected_time":662000000000,"state":"active","ping":70},{"user_id":519,"name":"Gobbi Primus","steam_id":76561198372256154,"connected_time":1830000000000,"state":"active","ping":77},{"user_id":520,"name":"bugger7","steam_id":76561198295967237,"connected_time":1815000000000,"state":"active","ping":71},{"user_id":528,"name":"Flipo","steam_id":76561198969667571,"connected_time":398000000000,"state":"active","ping":61},{"user_id":527,"name":"Joskaloy","steam_id":76561198234328512,"connected_time":445000000000,"state":"active","ping":73},{"user_id":529,"name":"rcoirtd","steam_id":76561199202490267,"connected_time":396000000000,"state":"active","ping":79},{"user_id":530,"name":"moki","steam_id":76561198314358032,"connected_time":0,"state":"spawning","ping":22}]},{"server_id":41,"name":"Uncletopia | London | 8 | Community","name_short":"lon-8","host":"lon-1.uk.uncletopia.com","port":27085,"enabled":true,"region":"eu","cc":"gb","latitude":51.509865,"longitude":-0.118092,"reserved":0,"last_update":"0001-01-01T00:00:00Z","name_a2s":"Uncletopia | London | 8 | Community","protocol":17,"map":"workshop/koth_ramjam_v2_b2.ugc2865676487","folder":"tf","game":"Team Fortress","app_id":440,"player_count":0,"max_players":24,"Bots":0,"server_type":"Dedicated","server_os":"Linux","password":true,"vac":true,"version":"7701286","steam_id":85568392924964315,"keywords":["cp","nocrits","nodmgspread","uncletopia"],"game_id":440,"stv_port":27086,"stv_name":"Uncletopia | London | 8 | Community | STV","players":null},{"server_id":300,"name":"Uncletopia | Montréal | 1 | All Maps","name_short":"mtl-1","host":"mtl-1.ca.uncletopia.com","port":27015,"enabled":true,"region":"us-east","cc":"ca","latitude":45.50889,"longitude":-73.56167,"reserved":0,"last_update":"0001-01-01T00:00:00Z","name_a2s":"Uncletopia | Montréal | 1 | All Maps","protocol":17,"map":"koth_lakeside_final","folder":"tf","game":"Team Fortress","app_id":440,"player_count":0,"max_players":24,"Bots":0,"server_type":"Dedicated","server_os":"Linux","password":true,"vac":true,"version":"7701286","steam_id":85568392924500087,"keywords":["cp","nocrits","nodmgspread","uncletopia"],"game_id":440,"stv_port":0,"stv_name":"","players":null},{"server_id":301,"name":"Uncletopia | Montréal | 2 | All Maps","name_short":"mtl-2","host":"mtl-1.ca.uncletopia.com","port":27025,"enabled":true,"region":"us-east","cc":"ca","latitude":45.50889,"longitude":-73.56167,"reserved":0,"last_update":"0001-01-01T00:00:00Z","name_a2s":"Uncletopia | Montréal | 2 | All Maps","protocol":17,"map":"pl_barnblitz","folder":"tf","game":"Team Fortress","app_id":440,"player_count":0,"max_players":24,"Bots":0,"server_type":"Dedicated","server_os":"Linux","password":true,"vac":true,"version":"7701286","steam_id":85568392924500088,"keywords":["nocrits","nodmgspread","payload","uncletopia"],"game_id":440,"stv_port":27026,"stv_name":"Uncletopia | Montréal | 2 | All Maps | STV","players":null},{"server_id":302,"name":"Uncletopia | Montréal | 3 | All Maps","name_short":"mtl-3","host":"mtl-1.ca.uncletopia.com","port":27035,"enabled":true,"region":"us-east","cc":"ca","latitude":45.50889,"longitude":-73.56167,"reserved":0,"last_update":"0001-01-01T00:00:00Z","name_a2s":"Uncletopia | Montréal | 3 | All Maps","protocol":17,"map":"pl_pier","folder":"tf","game":"Team Fortress","app_id":440,"player_count":0,"max_players":24,"Bots":0,"server_type":"Dedicated","server_os":"Linux","password":true,"vac":true,"version":"7701286","steam_id":85568392924500089,"keywords":["nocrits","nodmgspread","payload","uncletopia"],"game_id":440,"stv_port":0,"stv_name":"","players":null},{"server_id":303,"name":"Uncletopia | Montréal | 4 | No Payload","name_short":"mtl-4","host":"mtl-1.ca.uncletopia.com","port":27045,"enabled":true,"region":"us-east","cc":"ca","latitude":45.50889,"longitude":-73.56167,"reserved":0,"last_update":"0001-01-01T00:00:00Z","name_a2s":"Uncletopia | Montréal | 4 | No Payload","protocol":17,"map":"cp_badlands","folder":"tf","game":"Team Fortress","app_id":440,"player_count":0,"max_players":24,"Bots":0,"server_type":"Dedicated","server_os":"Linux","password":true,"vac":true,"version":"7701286","steam_id":85568392924500090,"keywords":["cp","nocrits","nodmgspread","uncletopia"],"game_id":440,"stv_port":27046,"stv_name":"Uncletopia | Montréal | 4 | No Payload | STV","players":null},{"server_id":13,"name":"Uncletopia | New York City | 1 | All Maps","name_short":"nyc-1","host":"nyc-1.us.uncletopia.com","port":27015,"enabled":true,"region":"us-east","cc":"us","latitude":40.73061,"longitude":-73.93524,"reserved":0,"last_update":"0001-01-01T00:00:00Z","name_a2s":"Uncletopia | New York City | 1 | All Maps","protocol":17,"map":"cp_process_final","folder":"tf","game":"Team Fortress","app_id":440,"player_count":0,"max_players":24,"Bots":0,"server_type":"Dedicated","server_os":"Linux","password":true,"vac":true,"version":"7701286","steam_id":85568392924469993,"keywords":["cp","nocrits","nodmgspread","uncletopia"],"game_id":440,"stv_port":27016,"stv_name":"Uncletopia | New York City | 1 | All Maps | STV","players":null},{"server_id":14,"name":"Uncletopia | New York City | 2 | All Maps","name_short":"nyc-2","host":"nyc-1.us.uncletopia.com","port":27025,"enabled":true,"region":"us-east","cc":"us","latitude":40.73061,"longitude":-73.93524,"reserved":0,"last_update":"0001-01-01T00:00:00Z","name_a2s":"Uncletopia | New York City | 2 | All Maps","protocol":17,"map":"pl_frontier_final","folder":"tf","game":"Team Fortress","app_id":440,"player_count":24,"max_players":24,"Bots":0,"server_type":"Dedicated","server_os":"Linux","password":true,"vac":true,"version":"7701286","steam_id":85568392924469994,"keywords":["nocrits","nodmgspread","payload","uncletopia"],"game_id":440,"stv_port":27026,"stv_name":"Uncletopia | New York City | 2 | All Maps | STV","players":[{"user_id":164,"name":"Fantastibad","steam_id":76561199087329262,"connected_time":743000000000,"state":"active","ping":71},{"user_id":154,"name":"KoolSurfDude","steam_id":76561198979809684,"connected_time":1321000000000,"state":"active","ping":57},{"user_id":142,"name":"Muffin","steam_id":76561198199495369,"connected_time":2402000000000,"state":"active","ping":124},{"user_id":148,"name":"eldritchsigns","steam_id":76561198380930571,"connected_time":2135000000000,"state":"active","ping":77},{"user_id":168,"name":"ShaqtusHD","steam_id":76561199138286233,"connected_time":439000000000,"state":"active","ping":54},{"user_id":167,"name":"Leagueminer6446","steam_id":76561198170661038,"connected_time":532000000000,"state":"active","ping":56},{"user_id":120,"name":"Tay1Qr","steam_id":76561198082809935,"connected_time":3607000000000,"state":"active","ping":52},{"user_id":93,"name":"Wolbey","steam_id":76561198042148095,"connected_time":6103000000000,"state":"active","ping":97},{"user_id":126,"name":"Kritzburgh","steam_id":76561198149466938,"connected_time":3400000000000,"state":"active","ping":50},{"user_id":160,"name":"Ursus Ludius","steam_id":76561198025470722,"connected_time":979000000000,"state":"active","ping":51},{"user_id":114,"name":"randomperson88","steam_id":76561199228822173,"connected_time":4005000000000,"state":"active","ping":67},{"user_id":156,"name":"Le","steam_id":76561198817754233,"connected_time":1109000000000,"state":"active","ping":65},{"user_id":134,"name":"Wrenchfury","steam_id":76561198064122524,"connected_time":2672000000000,"state":"active","ping":81},{"user_id":147,"name":"K3_Ironside","steam_id":76561198075458738,"connected_time":2144000000000,"state":"active","ping":93},{"user_id":158,"name":"4Lukaska","steam_id":76561198083515060,"connected_time":1024000000000,"state":"active","ping":51},{"user_id":159,"name":"a mcflurry of blows to the head","steam_id":76561198107343544,"connected_time":1000000000000,"state":"active","ping":62},{"user_id":163,"name":"Guh","steam_id":76561198253462393,"connected_time":814000000000,"state":"active","ping":66},{"user_id":149,"name":"TheEmeraldDuck","steam_id":76561197999692032,"connected_time":2108000000000,"state":"active","ping":51},{"user_id":145,"name":"boot","steam_id":76561198806968845,"connected_time":2317000000000,"state":"active","ping":40},{"user_id":111,"name":"stop","steam_id":76561198268686419,"connected_time":4298000000000,"state":"active","ping":75},{"user_id":169,"name":"Hugh G Rection","steam_id":76561198117404218,"connected_time":349000000000,"state":"active","ping":74},{"user_id":165,"name":"Raincool","steam_id":76561198042953645,"connected_time":580000000000,"state":"active","ping":49},{"user_id":151,"name":"Otak-Cool","steam_id":76561198127427743,"connected_time":1697000000000,"state":"active","ping":75},{"user_id":125,"name":"Crit@29fps","steam_id":76561198051201606,"connected_time":3526000000000,"state":"active","ping":77}]},{"server_id":15,"name":"Uncletopia | New York City | 3 | All Maps","name_short":"nyc-3","host":"nyc-1.us.uncletopia.com","port":27035,"enabled":true,"region":"us-east","cc":"us","latitude":40.73061,"longitude":-73.93524,"reserved":0,"last_update":"0001-01-01T00:00:00Z","name_a2s":"Uncletopia | New York City | 3 | All Maps","protocol":17,"map":"cp_snakewater_final1","folder":"tf","game":"Team Fortress","app_id":440,"player_count":0,"max_players":24,"Bots":0,"server_type":"Dedicated","server_os":"Linux","password":true,"vac":true,"version":"7701286","steam_id":85568392924742820,"keywords":["cp","nocrits","nodmgspread","uncletopia"],"game_id":440,"stv_port":27036,"stv_name":"Uncletopia | New York City | 3 | All Maps | STV","players":null},{"server_id":16,"name":"Uncletopia | New York City | 4 | Community","name_short":"nyc-4","host":"nyc-1.us.uncletopia.com","port":27045,"enabled":true,"region":"us-east","cc":"us","latitude":40.73061,"longitude":-73.93524,"reserved":0,"last_update":"0001-01-01T00:00:00Z","name_a2s":"Uncletopia | New York City | 4 | Community","protocol":17,"map":"workshop/koth_ramjam_v2_b2.ugc2865676487","folder":"tf","game":"Team Fortress","app_id":440,"player_count":0,"max_players":24,"Bots":0,"server_type":"Dedicated","server_os":"Linux","password":true,"vac":true,"version":"7701286","steam_id":85568392924742821,"keywords":["cp","nocrits","nodmgspread","uncletopia"],"game_id":440,"stv_port":27046,"stv_name":"Uncletopia | New York City | 4 | Community | STV","players":null},{"server_id":142,"name":"Uncletopia | São Paulo | 1 | All Maps","name_short":"sao-1","host":"sao-1.br.uncletopia.com","port":27015,"enabled":true,"region":"sa","cc":"br","latitude":-23.533773,"longitude":-46.62529,"reserved":0,"last_update":"0001-01-01T00:00:00Z","name_a2s":"Uncletopia | São Paulo | 1 | All Maps","protocol":17,"map":"pl_barnblitz","folder":"tf","game":"Team Fortress","app_id":440,"player_count":24,"max_players":24,"Bots":0,"server_type":"Dedicated","server_os":"Linux","password":true,"vac":true,"version":"7701286","steam_id":85568392924469996,"keywords":["nocrits","nodmgspread","payload","uncletopia"],"game_id":440,"stv_port":27016,"stv_name":"Uncletopia | São Paulo | 1 | All Maps | STV","players":[{"user_id":40,"name":"palmeri","steam_id":76561198276113571,"connected_time":2081000000000,"state":"active","ping":37},{"user_id":52,"name":"Sentry-gun","steam_id":76561198895061602,"connected_time":1432000000000,"state":"active","ping":120},{"user_id":30,"name":"Appollo","steam_id":76561199441662625,"connected_time":2629000000000,"state":"active","ping":65},{"user_id":49,"name":"yrk","steam_id":76561198332577325,"connected_time":1660000000000,"state":"active","ping":48},{"user_id":43,"name":"Stalin","steam_id":76561198073356694,"connected_time":1888000000000,"state":"active","ping":63},{"user_id":60,"name":"thiago","steam_id":76561198218914455,"connected_time":729000000000,"state":"active","ping":45},{"user_id":33,"name":"NenF | Yatosemtato","steam_id":76561199066360306,"connected_time":2590000000000,"state":"active","ping":77},{"user_id":34,"name":"Momo","steam_id":76561198143438576,"connected_time":2530000000000,"state":"active","ping":40},{"user_id":61,"name":"mimimito","steam_id":76561198002565927,"connected_time":710000000000,"state":"active","ping":42},{"user_id":37,"name":"ortipianinho","steam_id":76561199053319260,"connected_time":2314000000000,"state":"active","ping":60},{"user_id":38,"name":"Ice Whallow Come","steam_id":76561198063668057,"connected_time":2182000000000,"state":"active","ping":49},{"user_id":46,"name":"LordDoSUS","steam_id":76561198406317878,"connected_time":1740000000000,"state":"active","ping":91},{"user_id":47,"name":"URINATE!!","steam_id":76561198380824431,"connected_time":1722000000000,"state":"active","ping":54},{"user_id":57,"name":"Daelm","steam_id":76561198063381258,"connected_time":1138000000000,"state":"active","ping":39},{"user_id":62,"name":"siq","steam_id":76561198112913690,"connected_time":704000000000,"state":"active","ping":35},{"user_id":55,"name":"kayky21","steam_id":76561198330638899,"connected_time":1290000000000,"state":"active","ping":75},{"user_id":63,"name":"Herbie","steam_id":76561198830543464,"connected_time":619000000000,"state":"active","ping":81},{"user_id":64,"name":"Besteirol Coruscant","steam_id":76561198354898457,"connected_time":598000000000,"state":"active","ping":40},{"user_id":65,"name":"engenheiroquimico","steam_id":76561199013593144,"connected_time":597000000000,"state":"active","ping":46},{"user_id":69,"name":"CHAOSzeraas","steam_id":76561198045068934,"connected_time":220000000000,"state":"active","ping":46},{"user_id":70,"name":"Peace","steam_id":76561197995330004,"connected_time":218000000000,"state":"active","ping":56},{"user_id":68,"name":"Alma Negra","steam_id":76561198044595246,"connected_time":448000000000,"state":"active","ping":45},{"user_id":72,"name":"vinisaurus","steam_id":76561198112127509,"connected_time":99000000000,"state":"active","ping":68},{"user_id":74,"name":"Gogoyle50","steam_id":76561198148524228,"connected_time":24000000000,"state":"active","ping":91}]},{"server_id":143,"name":"Uncletopia | São Paulo | 2 | All Maps","name_short":"sao-2","host":"sao-2.br.uncletopia.com","port":27015,"enabled":true,"region":"sa","cc":"br","latitude":-23.533773,"longitude":-46.62529,"reserved":0,"last_update":"0001-01-01T00:00:00Z","name_a2s":"Uncletopia | São Paulo | 2 | All Maps","protocol":17,"map":"cp_process_final","folder":"tf","game":"Team Fortress","app_id":440,"player_count":0,"max_players":24,"Bots":0,"server_type":"Dedicated","server_os":"Linux","password":true,"vac":true,"version":"7701286","steam_id":85568392924485349,"keywords":["cp","nocrits","nodmgspread","uncletopia"],"game_id":440,"stv_port":27016,"stv_name":"Uncletopia | São Paulo | 2 | All Maps | STV","players":null},{"server_id":7,"name":"Uncletopia | Seattle | 1 | All Maps","name_short":"sea-1","host":"sea-1.us.uncletopia.com","port":27015,"enabled":true,"region":"us-west","cc":"us","latitude":47.608013,"longitude":-122.33517,"reserved":0,"last_update":"0001-01-01T00:00:00Z","name_a2s":"Uncletopia | Seattle | 1 | All Maps","protocol":17,"map":"koth_lakeside_final","folder":"tf","game":"Team Fortress","app_id":440,"player_count":0,"max_players":24,"Bots":0,"server_type":"Dedicated","server_os":"Linux","password":true,"vac":true,"version":"7701286","steam_id":85568392924469997,"keywords":["cp","nocrits","nodmgspread","uncletopia"],"game_id":440,"stv_port":27016,"stv_name":"Uncletopia | Seattle | 1 | All Maps | STV","players":null},{"server_id":119,"name":"Uncletopia | Seattle | 2 | All Maps","name_short":"sea-2","host":"sea-1.us.uncletopia.com","port":27025,"enabled":true,"region":"us-west","cc":"us","latitude":47.608013,"longitude":-122.33517,"reserved":0,"last_update":"0001-01-01T00:00:00Z","name_a2s":"Uncletopia | Seattle | 2 | All Maps","protocol":17,"map":"koth_cascade","folder":"tf","game":"Team Fortress","app_id":440,"player_count":0,"max_players":24,"Bots":0,"server_type":"Dedicated","server_os":"Linux","password":true,"vac":true,"version":"7701286","steam_id":85568392924469998,"keywords":["cp","nocrits","nodmgspread","uncletopia"],"game_id":440,"stv_port":27026,"stv_name":"Uncletopia | Seattle | 2 | All Maps | STV","players":null},{"server_id":17,"name":"Uncletopia | San Francisco | 1 | All Maps","name_short":"sfo-1","host":"sfo-1.us.uncletopia.com","port":27015,"enabled":true,"region":"us-west","cc":"us","latitude":37.77397,"longitude":-122.4313,"reserved":0,"last_update":"0001-01-01T00:00:00Z","name_a2s":"Uncletopia | San Francisco | 1 | All Maps","protocol":17,"map":"cp_gorge","folder":"tf","game":"Team Fortress","app_id":440,"player_count":17,"max_players":24,"Bots":0,"server_type":"Dedicated","server_os":"Linux","password":true,"vac":true,"version":"7701286","steam_id":85568392924469999,"keywords":["cp","nocrits","nodmgspread","uncletopia"],"game_id":440,"stv_port":27016,"stv_name":"Uncletopia | San Francisco | 1 | All Maps | STV","players":[{"user_id":217,"name":"cookiegenius2398.r2","steam_id":76561198970759258,"connected_time":745000000000,"state":"active","ping":45},{"user_id":223,"name":"dust","steam_id":76561198045218909,"connected_time":0,"state":"spawning","ping":28},{"user_id":204,"name":"Frank","steam_id":76561198126681511,"connected_time":2144000000000,"state":"active","ping":58},{"user_id":221,"name":"HolidayHoovy","steam_id":76561198184126361,"connected_time":375000000000,"state":"active","ping":94},{"user_id":207,"name":"✫P∀nck∈✫","steam_id":76561198050163618,"connected_time":2091000000000,"state":"active","ping":45},{"user_id":215,"name":"NotAWeeb","steam_id":76561198165530739,"connected_time":1001000000000,"state":"active","ping":43},{"user_id":123,"name":"VerociousVee","steam_id":76561198289106015,"connected_time":9717000000000,"state":"active","ping":62},{"user_id":193,"name":"Mudkip","steam_id":76561198164192160,"connected_time":3761000000000,"state":"active","ping":45},{"user_id":214,"name":"Boop Master","steam_id":76561198091582046,"connected_time":1245000000000,"state":"active","ping":82},{"user_id":186,"name":"stoned jester","steam_id":76561198079609974,"connected_time":4801000000000,"state":"active","ping":59},{"user_id":156,"name":"noelle","steam_id":76561198386344068,"connected_time":7757000000000,"state":"active","ping":106},{"user_id":170,"name":"Diesel","steam_id":76561198448815852,"connected_time":5991000000000,"state":"active","ping":38},{"user_id":203,"name":"airbudenjoyer2012","steam_id":76561198150428763,"connected_time":2281000000000,"state":"active","ping":49},{"user_id":101,"name":"amagicowl","steam_id":76561199060487814,"connected_time":11681000000000,"state":"active","ping":76},{"user_id":174,"name":"BODIE","steam_id":76561198079474904,"connected_time":5787000000000,"state":"active","ping":74},{"user_id":188,"name":"My Pet Polar Bear","steam_id":76561198052902058,"connected_time":4769000000000,"state":"active","ping":54}]},{"server_id":18,"name":"Uncletopia | San Francisco | 2 | All Maps","name_short":"sfo-2","host":"sfo-1.us.uncletopia.com","port":27025,"enabled":true,"region":"us-west","cc":"us","latitude":37.77397,"longitude":-122.4313,"reserved":0,"last_update":"0001-01-01T00:00:00Z","name_a2s":"Uncletopia | San Francisco | 2 | All Maps","protocol":17,"map":"pl_borneo","folder":"tf","game":"Team Fortress","app_id":440,"player_count":23,"max_players":24,"Bots":0,"server_type":"Dedicated","server_os":"Linux","password":true,"vac":true,"version":"7701286","steam_id":85568392924470000,"keywords":["nocrits","nodmgspread","payload","uncletopia"],"game_id":440,"stv_port":27026,"stv_name":"Uncletopia | San Francisco | 2 | All Maps | STV","players":[{"user_id":148,"name":"Dedlock","steam_id":76561198046290002,"connected_time":523000000000,"state":"active","ping":68},{"user_id":119,"name":"Seriously Bruh","steam_id":76561198070408485,"connected_time":1711000000000,"state":"active","ping":63},{"user_id":156,"name":"cringe","steam_id":76561198104086771,"connected_time":79000000000,"state":"active","ping":57},{"user_id":110,"name":"ʀ.ꕤ｡.","steam_id":76561198029580420,"connected_time":2441000000000,"state":"active","ping":149},{"user_id":136,"name":"jodie.blend","steam_id":76561198140701807,"connected_time":876000000000,"state":"active","ping":85},{"user_id":105,"name":"in the balls (kick)","steam_id":76561199277633460,"connected_time":2761000000000,"state":"active","ping":51},{"user_id":77,"name":"source radio 108.3fm","steam_id":76561198078982907,"connected_time":4760000000000,"state":"active","ping":91},{"user_id":142,"name":"Oxylotl","steam_id":76561198073231526,"connected_time":762000000000,"state":"active","ping":78},{"user_id":113,"name":"MORE BOUNCE TO THE OUNCE","steam_id":76561198243399336,"connected_time":2320000000000,"state":"active","ping":54},{"user_id":157,"name":"8080","steam_id":76561198357393535,"connected_time":64000000000,"state":"active","ping":112},{"user_id":141,"name":"goochi","steam_id":76561198086799316,"connected_time":815000000000,"state":"active","ping":54},{"user_id":15,"name":"仲裁人","steam_id":76561198047166185,"connected_time":10479000000000,"state":"active","ping":74},{"user_id":116,"name":"Testicular Torsion","steam_id":76561197968179862,"connected_time":1984000000000,"state":"active","ping":64},{"user_id":82,"name":"f12","steam_id":76561199245670274,"connected_time":4313000000000,"state":"active","ping":60},{"user_id":158,"name":"Floattube","steam_id":76561198005720144,"connected_time":55000000000,"state":"active","ping":108},{"user_id":139,"name":"fish.","steam_id":76561198401455467,"connected_time":854000000000,"state":"active","ping":58},{"user_id":134,"name":"xxashketchup712","steam_id":76561198067232540,"connected_time":987000000000,"state":"active","ping":113},{"user_id":129,"name":"DMEclipse","steam_id":76561198017600010,"connected_time":1134000000000,"state":"active","ping":66},{"user_id":91,"name":"greydog","steam_id":76561198165934551,"connected_time":3754000000000,"state":"active","ping":107},{"user_id":150,"name":"physical and mental pain","steam_id":76561198092135570,"connected_time":481000000000,"state":"active","ping":75},{"user_id":132,"name":"El wiwi","steam_id":76561198882200272,"connected_time":1007000000000,"state":"active","ping":152},{"user_id":146,"name":"thunderous prophet","steam_id":76561198131166135,"connected_time":611000000000,"state":"active","ping":60},{"user_id":140,"name":"🌸Red🌸","steam_id":76561198037346199,"connected_time":845000000000,"state":"active","ping":150}]},{"server_id":19,"name":"Uncletopia | San Francisco | 3 | No Payload","name_short":"sfo-3","host":"sfo-1.us.uncletopia.com","port":27035,"enabled":true,"region":"us-west","cc":"us","latitude":37.77397,"longitude":-122.4313,"reserved":0,"last_update":"0001-01-01T00:00:00Z","name_a2s":"Uncletopia | San Francisco | 3 | No Payload","protocol":17,"map":"cp_mountainlab","folder":"tf","game":"Team Fortress","app_id":440,"player_count":0,"max_players":24,"Bots":0,"server_type":"Dedicated","server_os":"Linux","password":true,"vac":true,"version":"7701286","steam_id":85568392924742824,"keywords":["cp","nocrits","nodmgspread","uncletopia"],"game_id":440,"stv_port":0,"stv_name":"","players":null},{"server_id":20,"name":"Uncletopia | San Francisco | 4 | Community","name_short":"sfo-4","host":"sfo-1.us.uncletopia.com","port":27045,"enabled":true,"region":"us-west","cc":"us","latitude":37.77397,"longitude":-122.4313,"reserved":0,"last_update":"0001-01-01T00:00:00Z","name_a2s":"Uncletopia | San Francisco | 4 | Community","protocol":17,"map":"cp_altitude","folder":"tf","game":"Team Fortress","app_id":440,"player_count":0,"max_players":24,"Bots":0,"server_type":"Dedicated","server_os":"Linux","password":true,"vac":true,"version":"7701286","steam_id":85568392924742826,"keywords":["cp","nocrits","nodmgspread","uncletopia"],"game_id":440,"stv_port":0,"stv_name":"","players":null},{"server_id":141,"name":"Uncletopia | Sydney | 1 | All Maps","name_short":"syd-1","host":"syd-1.au.uncletopia.com","port":27015,"enabled":true,"region":"au","cc":"au","latitude":-33.865143,"longitude":151.2099,"reserved":0,"last_update":"0001-01-01T00:00:00Z","name_a2s":"Uncletopia | Sydney | 1 | All Maps","protocol":17,"map":"pl_upward","folder":"tf","game":"Team Fortress","app_id":440,"player_count":2,"max_players":24,"Bots":0,"server_type":"Dedicated","server_os":"Linux","password":true,"vac":true,"version":"7701286","steam_id":85568392924470001,"keywords":["nocrits","nodmgspread","payload","uncletopia"],"game_id":440,"stv_port":27016,"stv_name":"Uncletopia | Sydney | 1 | All Maps | STV","players":[{"user_id":4,"name":"hawk","steam_id":76561198135164277,"connected_time":444000000000,"state":"active","ping":59},{"user_id":5,"name":"SteelRock","steam_id":76561199181805700,"connected_time":192000000000,"state":"active","ping":70}]},{"server_id":123,"name":"Uncletopia | Sydney | 2 | All Maps","name_short":"syd-2","host":"syd-1.au.uncletopia.com","port":27025,"enabled":true,"region":"au","cc":"au","latitude":-33.865143,"longitude":151.2099,"reserved":0,"last_update":"0001-01-01T00:00:00Z","name_a2s":"Uncletopia | Sydney | 2 | All Maps","protocol":17,"map":"pl_upward","folder":"tf","game":"Team Fortress","app_id":440,"player_count":0,"max_players":24,"Bots":0,"server_type":"Dedicated","server_os":"Linux","password":true,"vac":true,"version":"7701286","steam_id":85568392924470002,"keywords":["nocrits","nodmgspread","payload","uncletopia"],"game_id":440,"stv_port":0,"stv_name":"","players":null},{"server_id":395,"name":"Uncletopia | Sydney | 3 | All Maps","name_short":"syd-3","host":"syd-1.au.uncletopia.com","port":27035,"enabled":true,"region":"au","cc":"au","latitude":-33.865143,"longitude":151.2099,"reserved":0,"last_update":"0001-01-01T00:00:00Z","name_a2s":"Uncletopia | Sydney | 3 | All Maps","protocol":17,"map":"cp_process_final","folder":"tf","game":"Team Fortress","app_id":440,"player_count":0,"max_players":24,"Bots":0,"server_type":"Dedicated","server_os":"Linux","password":true,"vac":true,"version":"7701286","steam_id":85568392925194467,"keywords":["cp","nocrits","nodmgspread","uncletopia"],"game_id":440,"stv_port":0,"stv_name":"","players":null},{"server_id":396,"name":"Uncletopia | Sydney | 4 | All Maps","name_short":"syd-4","host":"syd-1.au.uncletopia.com","port":27045,"enabled":true,"region":"au","cc":"au","latitude":-33.865143,"longitude":151.2099,"reserved":0,"last_update":"0001-01-01T00:00:00Z","name_a2s":"Uncletopia | Sydney | 4 | All Maps","protocol":17,"map":"koth_highpass","folder":"tf","game":"Team Fortress","app_id":440,"player_count":0,"max_players":24,"Bots":0,"server_type":"Dedicated","server_os":"Linux","password":true,"vac":true,"version":"7701286","steam_id":85568392925397958,"keywords":["cp","nocrits","nodmgspread","uncletopia"],"game_id":440,"stv_port":0,"stv_name":"","players":null},{"server_id":58,"name":"Uncletopia | Sydney | 5 | No Payload","name_short":"syd-5","host":"syd-1.au.uncletopia.com","port":27055,"enabled":true,"region":"au","cc":"au","latitude":-33.865143,"longitude":151.2099,"reserved":0,"last_update":"0001-01-01T00:00:00Z","name_a2s":"Uncletopia | Sydney | 5 | No Payload","protocol":17,"map":"pl_swiftwater_final1","folder":"tf","game":"Team Fortress","app_id":440,"player_count":0,"max_players":24,"Bots":0,"server_type":"Dedicated","server_os":"Linux","password":true,"vac":true,"version":"7701286","steam_id":85568392925397959,"keywords":["nocrits","nodmgspread","payload","uncletopia"],"game_id":440,"stv_port":0,"stv_name":"","players":null},{"server_id":59,"name":"Uncletopia | Sydney | 6 | Community","name_short":"syd-6","host":"syd-1.au.uncletopia.com","port":27065,"enabled":true,"region":"au","cc":"au","latitude":-33.865143,"longitude":151.2099,"reserved":0,"last_update":"0001-01-01T00:00:00Z","name_a2s":"Uncletopia | Sydney | 6 | Community","protocol":17,"map":"workshop/rd_asteroid_redux_rc9.ugc2154902912","folder":"tf","game":"Team Fortress","app_id":440,"player_count":0,"max_players":24,"Bots":0,"server_type":"Dedicated","server_os":"Linux","password":true,"vac":true,"version":"7701286","steam_id":85568392925397960,"keywords":["beta","nocrits","nodmgspread","rd","uncletopia"],"game_id":440,"stv_port":27066,"stv_name":"Uncletopia | Sydney | 6 | Community | STV","players":null},{"server_id":49,"name":"Uncletopia | Warsaw | 1 | All Maps","name_short":"waw-1","host":"waw-1.pl.uncletopia.com","port":27015,"enabled":true,"region":"eu","cc":"pl","latitude":52.2297,"longitude":21.017532,"reserved":0,"last_update":"0001-01-01T00:00:00Z","name_a2s":"Uncletopia | Warsaw | 1 | All Maps","protocol":17,"map":"koth_lakeside_final","folder":"tf","game":"Team Fortress","app_id":440,"player_count":0,"max_players":24,"Bots":0,"server_type":"Dedicated","server_os":"Linux","password":true,"vac":true,"version":"7701286","steam_id":85568392925397850,"keywords":["cp","nocrits","nodmgspread","uncletopia"],"game_id":440,"stv_port":27016,"stv_name":"Uncletopia | Warsaw | 1 | All Maps | STV","players":null},{"server_id":50,"name":"Uncletopia | Warsaw | 2 | All Maps","name_short":"waw-2","host":"waw-1.pl.uncletopia.com","port":27025,"enabled":true,"region":"eu","cc":"pl","latitude":52.2297,"longitude":21.017532,"reserved":0,"last_update":"0001-01-01T00:00:00Z","name_a2s":"Uncletopia | Warsaw | 2 | All Maps","protocol":17,"map":"koth_harvest_final","folder":"tf","game":"Team Fortress","app_id":440,"player_count":0,"max_players":24,"Bots":0,"server_type":"Dedicated","server_os":"Linux","password":true,"vac":true,"version":"7701286","steam_id":85568392925397851,"keywords":["cp","nocrits","nodmgspread","uncletopia"],"game_id":440,"stv_port":27026,"stv_name":"Uncletopia | Warsaw | 2 | All Maps | STV","players":null},{"server_id":51,"name":"Uncletopia | Warsaw | 3 | All Maps","name_short":"waw-3","host":"waw-1.pl.uncletopia.com","port":27035,"enabled":true,"region":"eu","cc":"pl","latitude":52.2297,"longitude":21.017532,"reserved":0,"last_update":"0001-01-01T00:00:00Z","name_a2s":"Uncletopia | Warsaw | 3 | All Maps","protocol":17,"map":"koth_highpass","folder":"tf","game":"Team Fortress","app_id":440,"player_count":0,"max_players":24,"Bots":0,"server_type":"Dedicated","server_os":"Linux","password":true,"vac":true,"version":"7701286","steam_id":85568392925397852,"keywords":["cp","nocrits","nodmgspread","uncletopia"],"game_id":440,"stv_port":27036,"stv_name":"Uncletopia | Warsaw | 3 | All Maps | STV","players":null},{"server_id":52,"name":"Uncletopia | Warsaw | 4 | All Maps","name_short":"waw-4","host":"waw-1.pl.uncletopia.com","port":27045,"enabled":true,"region":"eu","cc":"pl","latitude":52.2297,"longitude":21.017532,"reserved":0,"last_update":"0001-01-01T00:00:00Z","name_a2s":"Uncletopia | Warsaw | 4 | All Maps","protocol":17,"map":"cp_dustbowl","folder":"tf","game":"Team Fortress","app_id":440,"player_count":0,"max_players":24,"Bots":0,"server_type":"Dedicated","server_os":"Linux","password":true,"vac":true,"version":"7701286","steam_id":85568392925397853,"keywords":["cp","nocrits","nodmgspread","uncletopia"],"game_id":440,"stv_port":27046,"stv_name":"Uncletopia | Warsaw | 4 | All Maps | STV","players":null},{"server_id":53,"name":"Uncletopia | Warsaw | 5 | No Payload","name_short":"waw-5","host":"waw-1.pl.uncletopia.com","port":27055,"enabled":true,"region":"eu","cc":"pl","latitude":52.2297,"longitude":21.017532,"reserved":0,"last_update":"0001-01-01T00:00:00Z","name_a2s":"Uncletopia | Warsaw | 5 | No Payload","protocol":17,"map":"koth_badlands","folder":"tf","game":"Team Fortress","app_id":440,"player_count":0,"max_players":24,"Bots":0,"server_type":"Dedicated","server_os":"Linux","password":true,"vac":true,"version":"7701286","steam_id":85568392925397854,"keywords":["cp","nocrits","nodmgspread","uncletopia"],"game_id":440,"stv_port":27056,"stv_name":"Uncletopia | Warsaw | 5 | No Payload | STV","players":null},{"server_id":54,"name":"Uncletopia | Warsaw | 6 | Community","name_short":"waw-6","host":"waw-1.pl.uncletopia.com","port":27065,"enabled":true,"region":"eu","cc":"pl","latitude":52.2297,"longitude":21.017532,"reserved":0,"last_update":"0001-01-01T00:00:00Z","name_a2s":"Uncletopia | Warsaw | 6 | Community","protocol":17,"map":"workshop/koth_synthetic_rc6a.ugc1549817316","folder":"tf","game":"Team Fortress","app_id":440,"player_count":0,"max_players":24,"Bots":0,"server_type":"Dedicated","server_os":"Linux","password":true,"vac":true,"version":"7701286","steam_id":85568392925397856,"keywords":["cp","nocrits","nodmgspread","uncletopia"],"game_id":440,"stv_port":27066,"stv_name":"Uncletopia | Warsaw | 6 | Community | STV","players":null}]}