{"status":true,"message":"","result":[{"server_id":9,"name":"Uncletopia | Atlanta | 1 | All Maps","name_short":"atl-1","host":"atl-1.us.uncletopia.com","port":27015,"enabled":true,"region":"us-east","cc":"us","latitude":33.753746,"longitude":-84.38633,"reserved":0,"last_update":"0001-01-01T00:00:00Z","name_a2s":"Uncletopia | Atlanta | 1 | All Maps","protocol":17,"map":"pl_frontier_final","folder":"tf","game":"Team Fortress","app_id":440,"player_count":23,"max_players":24,"Bots":0,"server_type":"Dedicated","server_os":"Linux","password":true,"vac":true,"version":"7882260","steam_id":85568392924469982,"keywords":["nocrits","nodmgspread","payload","uncletopia"],"game_id":440,"stv_port":27016,"stv_name":"Uncletopia | Atlanta | 1 | All Maps | STV","players":[{"user_id":4,"name":"DiGiorno's Pizza","steam_id":76561198142244035,"connected_time":7477000000000,"state":"active","ping":67},{"user_id":5,"name":"Greasy Goblin","steam_id":76561198078789869,"connected_time":7468000000000,"state":"active","ping":60},{"user_id":65,"name":"B.","steam_id":76561198040445907,"connected_time":1847000000000,"state":"active","ping":61},{"user_id":80,"name":"yomommasabitch","steam_id":76561198323217150,"connected_time":53000000000,"state":"active","ping":57},{"user_id":76,"name":"Toxic Medic Main (he/they)","steam_id":76561198009314845,"connected_time":237000000000,"state":"active","ping":117},{"user_id":69,"name":"blobb","steam_id":76561198950448488,"connected_time":1555000000000,"state":"active","ping":69},{"user_id":74,"name":"Skinny pete","steam_id":76561198801608576,"connected_time":821000000000,"state":"active","ping":68},{"user_id":78,"name":"potatotomato","steam_id":76561199092769902,"connected_time":194000000000,"state":"active","ping":69},{"user_id":52,"name":"Redninka","steam_id":76561198426721366,"connected_time":3764000000000,"state":"active","ping":61},{"user_id":70,"name":"Œõlxium","steam_id":76561198131272900,"connected_time":1546000000000,"state":"active","ping":71},{"user_id":60,"name":"troll","steam_id":76561198040890252,"connected_time":2875000000000,"state":"active","ping":57},{"user_id":54,"name":"Kiel","steam_id":76561198315109194,"connected_time":3722000000000,"state":"active","ping":61},{"user_id":75,"name":"Definitely Cheats (misses shot)","steam_id":76561198079509146,"connected_time":262000000000,"state":"active","ping":72},{"user_id":55,"name":"I play Rust","steam_id":76561198406141504,"connected_time":3699000000000,"state":"active","ping":66},{"user_id":22,"name":"jay","steam_id":76561199474493516,"connected_time":5693000000000,"state":"active","ping":105},{"user_id":72,"name":"g00bur","steam_id":76561197993622520,"connected_time":1404000000000,"state":"active","ping":66},{"user_id":57,"name":"Cool Ranch Buddha","steam_id":76561197982863756,"connected_time":3561000000000,"state":"active","ping":76},{"user_id":71,"name":"t.tv/ibbKitty‚àë:3","steam_id":76561198110858518,"connected_time":1540000000000,"state":"active","ping":75},{"user_id":35,"name":"spiderguy","steam_id":76561198412074955,"connected_time":5045000000000,"state":"active","ping":84},{"user_id":62,"name":"mineblast99","steam_id":76561199065648954,"connected_time":2505000000000,"state":"active","ping":61},{"user_id":42,"name":"BuncusBeffer","steam_id":76561198285936616,"connected_time":4971000000000,"state":"active","ping":116},{"user_id":44,"name":"highschool drop-out","steam_id":76561198366299848,"connected_time":4876000000000,"state":"active","ping":54},{"user_id":64,"name":"jackhillard83","steam_id":76561199057098390,"connected_time":2011000000000,"state":"active","ping":99}]},{"server_id":104,"name":"Uncletopia | Atlanta | 2 | All Maps","name_short":"atl-2","host":"atl-1.us.uncletopia.com","port":27025,"enabled":true,"region":"us-east","cc":"us","latitude":33.753746,"longitude":-84.38633,"reserved":0,"last_update":"0001-01-01T00:00:00Z","name_a2s":"Uncletopia | Atlanta | 2 | All Maps","protocol":17,"map":"pl_frontier_final","folder":"tf","game":"Team Fortress","app_id":440,"player_count":0,"max_players":24,"Bots":0,"server_type":"Dedicated","server_os":"Linux","password":true,"vac":true,"version":"7882260","steam_id":85568392924469983,"keywords":["nocrits","nodmgspread","payload","uncletopia"],"game_id":440,"stv_port":27026,"stv_name":"Uncletopia | Atlanta | 2 | All Maps | STV","players":null},{"server_id":400,"name":"Uncletopia | Atlanta | 3 | Community","name_short":"atl-3","host":"atl-1.us.uncletopia.com","port":27035,"enabled":true,"region":"us-east","cc":"us","latitude":33.753746,"longitude":-84.38633,"reserved":0,"last_update":"0001-01-01T00:00:00Z","name_a2s":"Uncletopia | Atlanta | 3 | Community","protocol":17,"map":"pl_borneo","folder":"tf","game":"Team Fortress","app_id":440,"player_count":0,"max_players":24,"Bots":0,"server_type":"Dedicated","server_os":"Linux","password":true,"vac":true,"version":"7882260","steam_id":85568392924515187,"keywords":["nocrits","nodmgspread","payload","uncletopia"],"game_id":440,"stv_port":27036,"stv_name":"Uncletopia | Atlanta | 3 | Community | STV","players":null},{"server_id":401,"name":"Uncletopia | Atlanta | 4 | No Payload","name_short":"atl-4","host":"atl-1.us.uncletopia.com","port":27045,"enabled":true,"region":"us-east","cc":"us","latitude":33.753746,"longitude":-84.38633,"reserved":0,"last_update":"0001-01-01T00:00:00Z","name_a2s":"","protocol":0,"map":"","folder":"","game":"","app_id":0,"player_count":0,"max_players":0,"Bots":0,"server_type":"","server_os":"","password":false,"vac":false,"version":"","steam_id":0,"keywords":null,"game_id":0,"stv_port":0,"stv_name":"","players":null},{"server_id":2,"name":"Uncletopia | Chicago | 1 | All Maps","name_short":"chi-1","host":"chi-1.us.uncletopia.com","port":27015,"enabled":true,"region":"us-central","cc":"us","latitude":41.881832,"longitude":-87.62318,"reserved":0,"last_update":"0001-01-01T00:00:00Z","name_a2s":"Uncletopia | Chicago | 1 | All Maps","protocol":17,"map":"pl_borneo","folder":"tf","game":"Team Fortress","app_id":440,"player_count":24,"max_players":24,"Bots":0,"server_type":"Dedicated","server_os":"Linux","password":true,"vac":true,"version":"7882260","steam_id":85568392924469984,"keywords":["nocrits","nodmgspread","payload","uncletopia"],"game_id":440,"stv_port":27016,"stv_name":"Uncletopia | Chicago | 1 | All Maps | STV","players":[{"user_id":115,"name":"viagra addict","steam_id":76561198017705248,"connected_time":1420000000000,"state":"active","ping":45},{"user_id":117,"name":"Jo","steam_id":76561198060447015,"connected_time":987000000000,"state":"active","ping":76},{"user_id":5,"name":"blossom","steam_id":76561198042735130,"connected_time":11590000000000,"state":"active","ping":109},{"user_id":126,"name":"BIGGEST MAC","steam_id":76561198847517098,"connected_time":324000000000,"state":"active","ping":87},{"user_id":121,"name":"20 miles for a Quaalude","steam_id":76561198042579477,"connected_time":663000000000,"state":"active","ping":67},{"user_id":122,"name":"Maxx","steam_id":76561198045405304,"connected_time":493000000000,"state":"active","ping":87},{"user_id":127,"name":"elyktsorb","steam_id":76561198158964488,"connected_time":320000000000,"state":"active","ping":57},{"user_id":93,"name":"Hope","steam_id":76561199201900779,"connected_time":3897000000000,"state":"active","ping":74},{"user_id":128,"name":"[„èà] Bumpercars","steam_id":76561198061591743,"connected_time":207000000000,"state":"active","ping":65},{"user_id":125,"name":"Krusty Nut","steam_id":76561198120637924,"connected_time":385000000000,"state":"active","ping":60},{"user_id":129,"name":"deeter","steam_id":76561199124943003,"connected_time":192000000000,"state":"active","ping":95},{"user_id":130,"name":"OneTrueCorvid","steam_id":76561199012953221,"connected_time":164000000000,"state":"active","ping":84},{"user_id":75,"name":"twin say","steam_id":76561198143132686,"connected_time":5326000000000,"state":"active","ping":88},{"user_id":97,"name":"Admiral Desto","steam_id":76561198301585815,"connected_time":3552000000000,"state":"active","ping":60},{"user_id":111,"name":"asbestos","steam_id":76561198079178866,"connected_time":1884000000000,"state":"active","ping":68},{"user_id":131,"name":"WONDER.","steam_id":76561198092527854,"connected_time":153000000000,"state":"active","ping":106},{"user_id":124,"name":"King De","steam_id":76561198194427422,"connected_time":422000000000,"state":"active","ping":75},{"user_id":114,"name":"Joshua31704","steam_id":76561198125898714,"connected_time":1748000000000,"state":"active","ping":77},{"user_id":82,"name":"Ph0s4","steam_id":76561198802476057,"connected_time":4840000000000,"state":"active","ping":93},{"user_id":112,"name":"kibble","steam_id":76561198077083011,"connected_time":1884000000000,"state":"active","ping":88},{"user_id":105,"name":"Honolulu","steam_id":76561198106381764,"connected_time":2376000000000,"state":"active","ping":59},{"user_id":118,"name":"firstlastmcgee","steam_id":76561198170187989,"connected_time":975000000000,"state":"active","ping":69},{"user_id":70,"name":"Tyler\u0026Fingers","steam_id":76561198085154485,"connected_time":6321000000000,"state":"active","ping":86},{"user_id":71,"name":"Goldoche","steam_id":76561197995065045,"connected_time":6159000000000,"state":"active","ping":81}]},{"server_id":106,"name":"Uncletopia | Chicago | 2 | All Maps","name_short":"chi-2","host":"chi-1.us.uncletopia.com","port":27025,"enabled":true,"region":"us-central","cc":"us","latitude":41.881832,"longitude":-87.62318,"reserved":0,"last_update":"0001-01-01T00:00:00Z","name_a2s":"Uncletopia | Chicago | 2 | All Maps","protocol":17,"map":"koth_lakeside_final","folder":"tf","game":"Team Fortress","app_id":440,"player_count":0,"max_players":24,"Bots":0,"server_type":"Dedicated","server_os":"Linux","password":true,"vac":true,"version":"7882260","steam_id":85568392924469985,"keywords":["cp","nocrits","nodmgspread","uncletopia"],"game_id":440,"stv_port":27026,"stv_name":"Uncletopia | Chicago | 2 | All Maps | STV","players":null},{"server_id":402,"name":"Uncletopia | Chicago | 3 | All Maps","name_short":"chi-3","host":"chi-1.us.uncletopia.com","port":27035,"enabled":true,"region":"us-central","cc":"us","latitude":41.881832,"longitude":-87.62318,"reserved":0,"last_update":"0001-01-01T00:00:00Z","name_a2s":"Uncletopia | Chicago | 3 | All Maps","protocol":17,"map":"cp_sunshine","folder":"tf","game":"Team Fortress","app_id":440,"player_count":20,"max_players":24,"Bots":0,"server_type":"Dedicated","server_os":"Linux","password":true,"vac":true,"version":"7882260","steam_id":85568392924515191,"keywords":["cp","nocrits","nodmgspread","uncletopia"],"game_id":440,"stv_port":27036,"stv_name":"Uncletopia | Chicago | 3 | All Maps | STV","players":[{"user_id":21,"name":"zzzPoison","steam_id":76561198302928116,"connected_time":1723000000000,"state":"active","ping":46},{"user_id":25,"name":"xX420SWAG69Xx","steam_id":76561198114345274,"connected_time":1178000000000,"state":"active","ping":82},{"user_id":51,"name":"Begrip","steam_id":76561198091990094,"connected_time":200000000000,"state":"active","ping":67},{"user_id":19,"name":"Goose of Wisdom","steam_id":76561198233465044,"connected_time":1832000000000,"state":"active","ping":67},{"user_id":30,"name":"TheGaming13","steam_id":76561199239498966,"connected_time":929000000000,"state":"active","ping":86},{"user_id":49,"name":"ü§®","steam_id":76561199365672047,"connected_time":519000000000,"state":"active","ping":75},{"user_id":23,"name":"Cursed","steam_id":76561198381491880,"connected_time":1457000000000,"state":"active","ping":182},{"user_id":24,"name":"aisu","steam_id":76561198043768507,"connected_time":1441000000000,"state":"active","ping":60},{"user_id":28,"name":"Drewey","steam_id":76561199258609863,"connected_time":1058000000000,"state":"active","ping":46},{"user_id":46,"name":"brain_damage","steam_id":76561199381954163,"connected_time":570000000000,"state":"active","ping":101},{"user_id":31,"name":"kab789","steam_id":76561198069842202,"connected_time":916000000000,"state":"active","ping":56},{"user_id":52,"name":"Crunchy","steam_id":76561198240523882,"connected_time":94000000000,"state":"active","ping":92},{"user_id":35,"name":"Squifyz","steam_id":76561199405650048,"connected_time":780000000000,"state":"active","ping":112},{"user_id":50,"name":"fuckwit","steam_id":76561198342160837,"connected_time":306000000000,"state":"active","ping":60},{"user_id":44,"name":"Jelqing Table","steam_id":76561198051373750,"connected_time":640000000000,"state":"active","ping":71},{"user_id":45,"name":"Spanky","steam_id":76561198037780636,"connected_time":633000000000,"state":"active","ping":68},{"user_id":40,"name":"creeeeeee","steam_id":76561198392539722,"connected_time":720000000000,"state":"active","ping":80},{"user_id":41,"name":"JoJoJo","steam_id":76561198067153390,"connected_time":706000000000,"state":"active","ping":48},{"user_id":42,"name":"Playing from TempleOS","steam_id":76561199144640325,"connected_time":694000000000,"state":"active","ping":67},{"user_id":43,"name":"Pong","steam_id":76561198006340067,"connected_time":686000000000,"state":"active","ping":74}]},{"server_id":403,"name":"Uncletopia | Chicago | 4 | All Maps","name_short":"chi-4","host":"chi-1.us.uncletopia.com","port":27045,"enabled":true,"region":"us-central","cc":"us","latitude":41.881832,"longitude":-87.62318,"reserved":0,"last_update":"0001-01-01T00:00:00Z","name_a2s":"Uncletopia | Chicago | 4 | All Maps","protocol":17,"map":"koth_lakeside_final","folder":"tf","game":"Team Fortress","app_id":440,"player_count":0,"max_players":24,"Bots":0,"server_type":"Dedicated","server_os":"Linux","password":true,"vac":true,"version":"7882260","steam_id":85568392924515193,"keywords":["cp","nocrits","nodmgspread","uncletopia"],"game_id":440,"stv_port":27046,"stv_name":"Uncletopia | Chicago | 4 | All Maps | STV","players":null},{"server_id":36,"name":"Uncletopia | Chicago | 5 | All Maps","name_short":"chi-5","host":"chi-2.us.uncletopia.com","port":27015,"enabled":true,"region":"us-central","cc":"us","latitude":41.881832,"longitude":-87.62318,"reserved":0,"last_update":"0001-01-01T00:00:00Z","name_a2s":"Uncletopia | Chicago | 5 | All Maps","protocol":17,"map":"cp_dustbowl","folder":"tf","game":"Team Fortress","app_id":440,"player_count":0,"max_players":24,"Bots":0,"server_type":"Dedicated","server_os":"Linux","password":true,"vac":true,"version":"7882260","steam_id":85568392924866362,"keywords":["cp","nocrits","nodmgspread","uncletopia"],"game_id":440,"stv_port":27016,"stv_name":"Uncletopia | Chicago | 5 | All Maps | STV","players":null},{"server_id":37,"name":"Uncletopia | Chicago | 6 | All Maps","name_short":"chi-6","host":"chi-2.us.uncletopia.com","port":27025,"enabled":true,"region":"us-central","cc":"us","latitude":41.881832,"longitude":-87.62318,"reserved":0,"last_update":"0001-01-01T00:00:00Z","name_a2s":"Uncletopia | Chicago | 6 | All Maps","protocol":17,"map":"cp_altitude","folder":"tf","game":"Team Fortress","app_id":440,"player_count":0,"max_players":24,"Bots":0,"server_type":"Dedicated","server_os":"Linux","password":true,"vac":true,"version":"7882260","steam_id":85568392924866363,"keywords":["cp","nocrits","nodmgspread","uncletopia"],"game_id":440,"stv_port":27026,"stv_name":"Uncletopia | Chicago | 6 | All Maps | STV","players":null},{"server_id":38,"name":"Uncletopia | Chicago | 7 | Stopwatch Beta","name_short":"chi-7","host":"chi-2.us.uncletopia.com","port":27035,"enabled":true,"region":"us-central","cc":"us","latitude":41.881832,"longitude":-87.62318,"reserved":0,"last_update":"0001-01-01T00:00:00Z","name_a2s":"Uncletopia | Chicago | 7 | Stopwatch Beta","protocol":17,"map":"pl_upward","folder":"tf","game":"Team Fortress","app_id":440,"player_count":0,"max_players":24,"Bots":0,"server_type":"Dedicated","server_os":"Linux","password":true,"vac":true,"version":"7882260","steam_id":85568392924866364,"keywords":["nocrits","nodmgspread","payload","uncletopia"],"game_id":440,"stv_port":27036,"stv_name":"Uncletopia | Chicago | 7 | Stopwatch Beta | STV","players":null},{"server_id":39,"name":"Uncletopia | Chicago | 8 | Community","name_short":"chi-8","host":"chi-2.us.uncletopia.com","port":27045,"enabled":true,"region":"us-central","cc":"us","latitude":41.881832,"longitude":-87.62318,"reserved":0,"last_update":"0001-01-01T00:00:00Z","name_a2s":"Uncletopia | Chicago | 8 | Community","protocol":17,"map":"workshop/cp_sulfur_rc2.ugc619869471","folder":"tf","game":"Team Fortress","app_id":440,"player_count":0,"max_players":24,"Bots":0,"server_type":"Dedicated","server_os":"Linux","password":true,"vac":true,"version":"7882260","steam_id":85568392924866365,"keywords":["cp","nocrits","nodmgspread","uncletopia"],"game_id":440,"stv_port":27046,"stv_name":"Uncletopia | Chicago | 8 | Community | STV","players":null},{"server_id":8,"name":"Uncletopia | Dallas | 1 | All Maps","name_short":"dal-1","host":"dal-1.us.uncletopia.com","port":27015,"enabled":true,"region":"us-central","cc":"us","latitude":32.779167,"longitude":-96.80889,"reserved":0,"last_update":"0001-01-01T00:00:00Z","name_a2s":"Uncletopia | Dallas | 1 | All Maps","protocol":17,"map":"koth_viaduct","folder":"tf","game":"Team Fortress","app_id":440,"player_count":1,"max_players":24,"Bots":0,"server_type":"Dedicated","server_os":"Linux","password":true,"vac":true,"version":"7882260","steam_id":85568392924469986,"keywords":["cp","nocrits","nodmgspread","uncletopia"],"game_id":440,"stv_port":27016,"stv_name":"Uncletopia | Dallas | 1 | All Maps | STV","players":[{"user_id":7,"name":"ducky","steam_id":76561198007764271,"connected_time":238000000000,"state":"active","ping":53}]},{"server_id":108,"name":"Uncletopia | Dallas | 2 | All Maps","name_short":"dal-2","host":"dal-1.us.uncletopia.com","port":27025,"enabled":true,"region":"us-central","cc":"us","latitude":32.779167,"longitude":-96.80889,"reserved":0,"last_update":"0001-01-01T00:00:00Z","name_a2s":"Uncletopia | Dallas | 2 | All Maps","protocol":17,"map":"cp_snakewater_final1","folder":"tf","game":"Team Fortress","app_id":440,"player_count":0,"max_players":24,"Bots":0,"server_type":"Dedicated","server_os":"Linux","password":true,"vac":true,"version":"7882260","steam_id":85568392924469988,"keywords":["cp","nocrits","nodmgspread","uncletopia"],"game_id":440,"stv_port":27026,"stv_name":"Uncletopia | Dallas | 2 | All Maps | STV","players":null},{"server_id":5,"name":"Uncletopia | Frankfurt | 1 | All Maps","name_short":"frk-1","host":"frk-1.de.uncletopia.com","port":27015,"enabled":true,"region":"eu","cc":"de","latitude":50.110924,"longitude":8.682127,"reserved":0,"last_update":"0001-01-01T00:00:00Z","name_a2s":"Uncletopia | Frankfurt | 1 | All Maps","protocol":17,"map":"pl_badwater","folder":"tf","game":"Team Fortress","app_id":440,"player_count":24,"max_players":24,"Bots":0,"server_type":"Dedicated","server_os":"Linux","password":true,"vac":true,"version":"7882260","steam_id":85568392924469989,"keywords":["nocrits","nodmgspread","payload","uncletopia"],"game_id":440,"stv_port":27016,"stv_name":"Uncletopia | Frankfurt | 1 | All Maps | STV","players":[{"user_id":110,"name":"KenPendersOfficial","steam_id":76561198065112022,"connected_time":1167000000000,"state":"active","ping":106},{"user_id":107,"name":"aavikkorotta420","steam_id":76561199429407130,"connected_time":1277000000000,"state":"active","ping":85},{"user_id":122,"name":"Chambersite","steam_id":76561198197022399,"connected_time":617000000000,"state":"active","ping":63},{"user_id":101,"name":"Huru_mies30","steam_id":76561199240991587,"connected_time":2065000000000,"state":"active","ping":62},{"user_id":91,"name":"GroGroudonDu31","steam_id":76561198155106297,"connected_time":3212000000000,"state":"active","ping":60},{"user_id":109,"name":"Anti-Drip-Hazard","steam_id":76561199038566105,"connected_time":1193000000000,"state":"active","ping":165},{"user_id":56,"name":"h","steam_id":76561198273551016,"connected_time":5572000000000,"state":"active","ping":62},{"user_id":54,"name":"Yuval","steam_id":76561198241802390,"connected_time":5663000000000,"state":"active","ping":100},{"user_id":105,"name":"Luxotrics","steam_id":76561198053455161,"connected_time":1588000000000,"state":"active","ping":71},{"user_id":124,"name":"Frylock","steam_id":76561198050292560,"connected_time":508000000000,"state":"active","ping":45},{"user_id":76,"name":"vdl","steam_id":76561198044583116,"connected_time":4340000000000,"state":"active","ping":91},{"user_id":84,"name":"Lightboom","steam_id":76561198104645103,"connected_time":3702000000000,"state":"active","ping":81},{"user_id":125,"name":"Tea guy","steam_id":76561198797847641,"connected_time":153000000000,"state":"active","ping":77},{"user_id":113,"name":"Heisenburger","steam_id":76561199009677881,"connected_time":1052000000000,"state":"active","ping":78},{"user_id":126,"name":"DarkSoulBG24","steam_id":76561198273701478,"connected_time":129000000000,"state":"active","ping":71},{"user_id":119,"name":"Cars","steam_id":76561198173329977,"connected_time":814000000000,"state":"active","ping":62},{"user_id":123,"name":"Philosophos_Alpha","steam_id":76561198951264580,"connected_time":534000000000,"state":"active","ping":98},{"user_id":99,"name":"modavak","steam_id":76561198946290908,"connected_time":2203000000000,"state":"active","ping":90},{"user_id":90,"name":"Racco Slava Ukraina","steam_id":76561198198855238,"connected_time":3324000000000,"state":"active","ping":53},{"user_id":117,"name":"The Entire Population of Canada","steam_id":76561198090187112,"connected_time":868000000000,"state":"active","ping":150},{"user_id":48,"name":"Zaanx","steam_id":76561199125603907,"connected_time":6270000000000,"state":"active","ping":76},{"user_id":121,"name":"SCRAMMMBLED","steam_id":76561197998307746,"connected_time":662000000000,"state":"active","ping":72},{"user_id":93,"name":"kyuta","steam_id":76561198382281653,"connected_time":2867000000000,"state":"active","ping":89},{"user_id":118,"name":"mook","steam_id":76561198175543442,"connected_time":862000000000,"state":"active","ping":65}]},{"server_id":110,"name":"Uncletopia | Frankfurt | 2 | All Maps","name_short":"frk-2","host":"frk-1.de.uncletopia.com","port":27025,"enabled":true,"region":"eu","cc":"de","latitude":50.110924,"longitude":8.682127,"reserved":0,"last_update":"0001-01-01T00:00:00Z","name_a2s":"Uncletopia | Frankfurt | 2 | All Maps","protocol":17,"map":"pl_frontier_final","folder":"tf","game":"Team Fortress","app_id":440,"player_count":0,"max_players":24,"Bots":0,"server_type":"Dedicated","server_os":"Linux","password":true,"vac":true,"version":"7882260","steam_id":85568392924469990,"keywords":["nocrits","nodmgspread","payload","uncletopia"],"game_id":440,"stv_port":27026,"stv_name":"Uncletopia | Frankfurt | 2 | All Maps | STV","players":null},{"server_id":308,"name":"Uncletopia | Frankfurt | 3 | All Maps","name_short":"frk-3","host":"frk-1.de.uncletopia.com","port":27035,"enabled":true,"region":"eu","cc":"de","latitude":50.110924,"longitude":8.682127,"reserved":0,"last_update":"0001-01-01T00:00:00Z","name_a2s":"Uncletopia | Frankfurt | 3 | All Maps","protocol":17,"map":"koth_viaduct","folder":"tf","game":"Team Fortress","app_id":440,"player_count":0,"max_players":24,"Bots":0,"server_type":"Dedicated","server_os":"Linux","password":true,"vac":true,"version":"7882260","steam_id":85568392924504274,"keywords":["cp","nocrits","nodmgspread","uncletopia"],"game_id":440,"stv_port":27036,"stv_name":"Uncletopia | Frankfurt | 3 | All Maps | STV","players":null},{"server_id":309,"name":"Uncletopia | Frankfurt | 4 | All Maps","name_short":"frk-4","host":"frk-1.de.uncletopia.com","port":27045,"enabled":true,"region":"eu","cc":"de","latitude":50.110924,"longitude":8.682127,"reserved":0,"last_update":"0001-01-01T00:00:00Z","name_a2s":"Uncletopia | Frankfurt | 4 | All Maps","protocol":17,"map":"pl_swiftwater_final1","folder":"tf","game":"Team Fortress","app_id":440,"player_count":0,"max_players":24,"Bots":0,"server_type":"Dedicated","server_os":"Linux","password":true,"vac":true,"version":"7882260","steam_id":85568392924504275,"keywords":["nocrits","nodmgspread","payload","uncletopia"],"game_id":440,"stv_port":27046,"stv_name":"Uncletopia | Frankfurt | 4 | All Maps | STV","players":null},{"server_id":310,"name":"Uncletopia | Frankfurt | 5 | All Maps","name_short":"frk-5","host":"frk-1.de.uncletopia.com","port":27055,"enabled":true,"region":"eu","cc":"de","latitude":50.110924,"longitude":8.682127,"reserved":0,"last_update":"0001-01-01T00:00:00Z","name_a2s":"Uncletopia | Frankfurt | 5 | All Maps","protocol":17,"map":"cp_snakewater_final1","folder":"tf","game":"Team Fortress","app_id":440,"player_count":0,"max_players":24,"Bots":0,"server_type":"Dedicated","server_os":"Linux","password":true,"vac":true,"version":"7882260","steam_id":85568392924504277,"keywords":["cp","nocrits","nodmgspread","uncletopia"],"game_id":440,"stv_port":27056,"stv_name":"Uncletopia | Frankfurt | 5 | All Maps | STV","players":null},{"server_id":311,"name":"Uncletopia | Frankfurt | 6 | All Maps","name_short":"frk-6","host":"frk-1.de.uncletopia.com","port":27065,"enabled":true,"region":"eu","cc":"de","latitude":50.110924,"longitude":8.682127,"reserved":0,"last_update":"0001-01-01T00:00:00Z","name_a2s":"Uncletopia | Frankfurt | 6 | All Maps","protocol":17,"map":"cp_mountainlab","folder":"tf","game":"Team Fortress","app_id":440,"player_count":0,"max_players":24,"Bots":0,"server_type":"Dedicated","server_os":"Linux","password":true,"vac":true,"version":"7882260","steam_id":85568392924504278,"keywords":["cp","nocrits","nodmgspread","uncletopia"],"game_id":440,"stv_port":27066,"stv_name":"Uncletopia | Frankfurt | 6 | All Maps | STV","players":null},{"server_id":23,"name":"Uncletopia | Frankfurt | 7 | Stopwatch Beta","name_short":"frk-7","host":"frk-1.de.uncletopia.com","port":27075,"enabled":true,"region":"eu","cc":"de","latitude":50.110924,"longitude":8.682127,"reserved":0,"last_update":"0001-01-01T00:00:00Z","name_a2s":"Uncletopia | Frankfurt | 7 | Stopwatch Beta","protocol":17,"map":"workshop/pl_barnblitz_pro7.ugc582280235","folder":"tf","game":"Team Fortress","app_id":440,"player_count":5,"max_players":24,"Bots":0,"server_type":"Dedicated","server_os":"Linux","password":true,"vac":true,"version":"7882260","steam_id":85568392924742827,"keywords":["nocrits","nodmgspread","payload","uncletopia"],"game_id":440,"stv_port":27076,"stv_name":"Uncletopia | Frankfurt | 7 | Stopwatch Beta | STV","players":[{"user_id":15,"name":"Evoxyre","steam_id":76561198382531285,"connected_time":2409000000000,"state":"active","ping":53},{"user_id":7,"name":"Dragon's Fury \u003e You","steam_id":76561198799097492,"connected_time":2871000000000,"state":"active","ping":52},{"user_id":20,"name":"bunaire","steam_id":76561198050694264,"connected_time":2013000000000,"state":"spawning","ping":149},{"user_id":18,"name":"Von Leining","steam_id":76561198859983504,"connected_time":2225000000000,"state":"active","ping":54},{"user_id":14,"name":"nemelex","steam_id":76561198958005865,"connected_time":2546000000000,"state":"active","ping":58}]},{"server_id":24,"name":"Uncletopia | Frankfurt | 8 | Community","name_short":"frk-8","host":"frk-1.de.uncletopia.com","port":27085,"enabled":true,"region":"eu","cc":"de","latitude":50.110924,"longitude":8.682127,"reserved":0,"last_update":"0001-01-01T00:00:00Z","name_a2s":"Uncletopia | Frankfurt | 8 | Community","protocol":17,"map":"cp_mountainlab","folder":"tf","game":"Team Fortress","app_id":440,"player_count":0,"max_players":24,"Bots":0,"server_type":"Dedicated","server_os":"Linux","password":true,"vac":true,"version":"7882260","steam_id":85568392924742828,"keywords":["cp","nocrits","nodmgspread","uncletopia"],"game_id":440,"stv_port":27086,"stv_name":"Uncletopia | Frankfurt | 8 | Community | STV","players":null},{"server_id":202,"name":"Uncletopia | Hong Kong | 1 | All Maps","name_short":"hgk-1","host":"hgk-1.hk.uncletopia.com","port":27015,"enabled":true,"region":"asia","cc":"hk","latitude":22.302711,"longitude":114.177216,"reserved":0,"last_update":"0001-01-01T00:00:00Z","name_a2s":"Uncletopia | Hong Kong | 1 | All Maps","protocol":17,"map":"pl_pier","folder":"tf","game":"Team Fortress","app_id":440,"player_count":23,"max_players":24,"Bots":0,"server_type":"Dedicated","server_os":"Linux","password":true,"vac":true,"version":"7882260","steam_id":85568392924494504,"keywords":["nocrits","nodmgspread","payload","uncletopia"],"game_id":440,"stv_port":27016,"stv_name":"Uncletopia | Hong Kong | 1 | All Maps | STV","players":[{"user_id":380,"name":"s1nner","steam_id":76561198225715416,"connected_time":2412000000000,"state":"active","ping":37},{"user_id":385,"name":"Duck with a knife (what he gonn","steam_id":76561199092409364,"connected_time":2387000000000,"state":"active","ping":103},{"user_id":205,"name":"Core19","steam_id":76561198318126190,"connected_time":8287000000000,"state":"active","ping":106},{"user_id":296,"name":"Heavy Fingers Guy","steam_id":76561199016545154,"connected_time":3794000000000,"state":"active","ping":39},{"user_id":460,"name":"GAMA","steam_id":76561198049755630,"connected_time":248000000000,"state":"active","ping":92},{"user_id":408,"name":"cstr","steam_id":76561198125946388,"connected_time":1883000000000,"state":"active","ping":91},{"user_id":428,"name":"Ïø†ÌÇ§","steam_id":76561197997220367,"connected_time":1458000000000,"state":"active","ping":46},{"user_id":383,"name":"Samoyed","steam_id":76561198299150410,"connected_time":2398000000000,"state":"active","ping":103},{"user_id":429,"name":"tiden2000","steam_id":76561198092969425,"connected_time":1419000000000,"state":"active","ping":110},{"user_id":311,"name":"Milf (The fan O'Milk)","steam_id":76561198213031155,"connected_time":3481000000000,"state":"active","ping":91},{"user_id":434,"name":"3wfFbdrjEze5d2G","steam_id":76561198435900451,"connected_time":1368000000000,"state":"active","ping":121},{"user_id":386,"name":"TomCat","steam_id":76561198133744053,"connected_time":2379000000000,"state":"active","ping":115},{"user_id":461,"name":"DoctorGG","steam_id":76561198260042648,"connected_time":113000000000,"state":"active","ping":59},{"user_id":202,"name":"ArcticDolphin","steam_id":76561198203626319,"connected_time":8566000000000,"state":"active","ping":121},{"user_id":459,"name":"RogueBanana","steam_id":76561199040745239,"connected_time":340000000000,"state":"active","ping":151},{"user_id":404,"name":"nyakky","steam_id":76561198927779787,"connected_time":2001000000000,"state":"active","ping":89},{"user_id":437,"name":"silverhouse7","steam_id":76561198349634906,"connected_time":1333000000000,"state":"active","ping":90},{"user_id":421,"name":"Headmouth","steam_id":76561198019789855,"connected_time":1561000000000,"state":"active","ping":138},{"user_id":427,"name":"Lelouch","steam_id":76561198828840546,"connected_time":1493000000000,"state":"active","ping":74},{"user_id":382,"name":"dax.","steam_id":76561198321885643,"connected_time":2405000000000,"state":"active","ping":64},{"user_id":442,"name":"Cornelius Cuntwad","steam_id":76561199122491157,"connected_time":792000000000,"state":"spawning","ping":148},{"user_id":435,"name":"nanau","steam_id":76561199166938276,"connected_time":1354000000000,"state":"spawning","ping":146},{"user_id":454,"name":"Crazywayne","steam_id":76561198056504010,"connected_time":520000000000,"state":"connecting","ping":159}]},{"server_id":1,"name":"Uncletopia | Los Angeles | 1 | All Maps","name_short":"lax-1","host":"lax-1.us.uncletopia.com","port":27015,"enabled":true,"region":"us-west","cc":"us","latitude":33.94279,"longitude":-118.41004,"reserved":0,"last_update":"0001-01-01T00:00:00Z","name_a2s":"Uncletopia | Los Angeles | 1 | All Maps","protocol":17,"map":"pl_badwater","folder":"tf","game":"Team Fortress","app_id":440,"player_count":0,"max_players":24,"Bots":0,"server_type":"Dedicated","server_os":"Linux","password":true,"vac":true,"version":"7882260","steam_id":85568392924469991,"keywords":["nocrits","nodmgspread","payload","uncletopia"],"game_id":440,"stv_port":27016,"stv_name":"Uncletopia | Los Angeles | 1 | All Maps | STV","players":null},{"server_id":112,"name":"Uncletopia | Los Angeles | 2 | All Maps","name_short":"lax-2","host":"lax-1.us.uncletopia.com","port":27025,"enabled":true,"region":"us-west","cc":"us","latitude":33.94279,"longitude":-118.41004,"reserved":0,"last_update":"0001-01-01T00:00:00Z","name_a2s":"Uncletopia | Los Angeles | 2 | All Maps","protocol":17,"map":"koth_viaduct","folder":"tf","game":"Team Fortress","app_id":440,"player_count":17,"max_players":24,"Bots":0,"server_type":"Dedicated","server_os":"Linux","password":true,"vac":true,"version":"7882260","steam_id":85568392924469992,"keywords":["cp","nocrits","nodmgspread","uncletopia"],"game_id":440,"stv_port":27026,"stv_name":"Uncletopia | Los Angeles | 2 | All Maps | STV","players":[{"user_id":67,"name":"trapped under the denver airpor","steam_id":76561198261007627,"connected_time":372000000000,"state":"active","ping":91},{"user_id":4,"name":"Ant","steam_id":76561198253062337,"connected_time":4423000000000,"state":"active","ping":90},{"user_id":55,"name":"lil cock ass","steam_id":76561198242842394,"connected_time":1255000000000,"state":"active","ping":76},{"user_id":57,"name":"StopDrop\u0026Glockit","steam_id":76561198108915051,"connected_time":1075000000000,"state":"active","ping":82},{"user_id":49,"name":"Highground","steam_id":76561199197544789,"connected_time":1957000000000,"state":"active","ping":155},{"user_id":68,"name":"thisbbqsucks","steam_id":76561199309411202,"connected_time":41000000000,"state":"active","ping":63},{"user_id":69,"name":"OR10N Cozz","steam_id":76561198959786961,"connected_time":7000000000,"state":"spawning","ping":115},{"user_id":64,"name":"MonteJT","steam_id":76561198055409360,"connected_time":442000000000,"state":"active","ping":70},{"user_id":17,"name":"blozet","steam_id":76561199120161035,"connected_time":3223000000000,"state":"active","ping":104},{"user_id":56,"name":"noblewolf16","steam_id":76561198085885383,"connected_time":1180000000000,"state":"active","ping":111},{"user_id":61,"name":"Many Bees' Chilling","steam_id":76561198079641282,"connected_time":605000000000,"state":"active","ping":90},{"user_id":54,"name":"Sprit ‚ô•","steam_id":76561198268780781,"connected_time":1285000000000,"state":"active","ping":102},{"user_id":50,"name":"Boone","steam_id":76561198398931575,"connected_time":1716000000000,"state":"active","ping":57},{"user_id":63,"name":"Cooki","steam_id":76561198051705314,"connected_time":534000000000,"state":"active","ping":123},{"user_id":65,"name":"magicuserleo","steam_id":76561198418859223,"connected_time":436000000000,"state":"active","ping":174},{"user_id":39,"name":"Hvedrunger","steam_id":76561198001658152,"connected_time":2399000000000,"state":"active","ping":84},{"user_id":41,"name":"Carnamate","steam_id":76561198138077990,"connected_time":2344000000000,"state":"active","ping":81}]},{"server_id":324,"name":"Uncletopia | Los Angeles | 3 | All Maps","name_short":"lax-3","host":"lax-1.us.uncletopia.com","port":27035,"enabled":true,"region":"us-west","cc":"us","latitude":33.94279,"longitude":-118.41004,"reserved":0,"last_update":"0001-01-01T00:00:00Z","name_a2s":"Uncletopia | Los Angeles | 3 | All Maps","protocol":17,"map":"pl_swiftwater_final1","folder":"tf","game":"Team Fortress","app_id":440,"player_count":0,"max_players":24,"Bots":0,"server_type":"Dedicated","server_os":"Linux","password":true,"vac":true,"version":"7882260","steam_id":85568392924510198,"keywords":["nocrits","nodmgspread","payload","uncletopia"],"game_id":440,"stv_port":27036,"stv_name":"Uncletopia | Los Angeles | 3 | All Maps | STV","players":null},{"server_id":25,"name":"Uncletopia | Los Angeles | 4 | Stopwatch Beta","name_short":"lax-4","host":"lax-1.us.uncletopia.com","port":27045,"enabled":true,"region":"us-west","cc":"us","latitude":33.94279,"longitude":-118.41004,"reserved":0,"last_update":"0001-01-01T00:00:00Z","name_a2s":"Uncletopia | Los Angeles | 4 | Stopwatch Beta","protocol":17,"map":"koth_viaduct","folder":"tf","game":"Team Fortress","app_id":440,"player_count":0,"max_players":24,"Bots":0,"server_type":"Dedicated","server_os":"Linux","password":true,"vac":true,"version":"7882260","steam_id":85568392924510199,"keywords":["cp","nocrits","nodmgspread","uncletopia"],"game_id":440,"stv_port":27046,"stv_name":"Uncletopia | Los Angeles | 4 | Stopwatch Beta | STV","players":null},{"server_id":11,"name":"Uncletopia | London | 1 | All Maps","name_short":"lon-1","host":"lon-1.uk.uncletopia.com","port":27015,"enabled":true,"region":"eu","cc":"gb","latitude":51.509865,"longitude":-0.118092,"reserved":0,"last_update":"0001-01-01T00:00:00Z","name_a2s":"Uncletopia | London | 1 | All Maps","protocol":17,"map":"pl_upward","folder":"tf","game":"Team Fortress","app_id":440,"player_count":10,"max_players":24,"Bots":0,"server_type":"Dedicated","server_os":"Linux","password":true,"vac":true,"version":"7882260","steam_id":85568392924367362,"keywords":["nocrits","nodmgspread","payload","uncletopia"],"game_id":440,"stv_port":27016,"stv_name":"Uncletopia | London | 1 | All Maps | STV","players":[{"user_id":13,"name":"Jackie Chan","steam_id":76561199378865926,"connected_time":1730000000000,"state":"active","ping":72},{"user_id":24,"name":"Mich_Pl B)","steam_id":76561199034055259,"connected_time":220000000000,"state":"active","ping":90},{"user_id":23,"name":"kowack","steam_id":76561198256838417,"connected_time":486000000000,"state":"active","ping":85},{"user_id":20,"name":"antnt","steam_id":76561198112546748,"connected_time":826000000000,"state":"active","ping":47},{"user_id":18,"name":"Nyhde","steam_id":76561198012771416,"connected_time":1219000000000,"state":"active","ping":105},{"user_id":22,"name":"Hayds Gaming [TER]","steam_id":76561199461851882,"connected_time":552000000000,"state":"active","ping":57},{"user_id":25,"name":"Mauve","steam_id":76561198371121377,"connected_time":194000000000,"state":"active","ping":52},{"user_id":26,"name":"Mr Gnash","steam_id":76561198007410990,"connected_time":178000000000,"state":"active","ping":70},{"user_id":27,"name":"Flying skyhigh","steam_id":76561198372971096,"connected_time":35000000000,"state":"active","ping":56},{"user_id":28,"name":"Joipoi","steam_id":76561198042915122,"connected_time":16000000000,"state":"spawning","ping":60}]},{"server_id":114,"name":"Uncletopia | London | 2 | All Maps","name_short":"lon-2","host":"lon-1.uk.uncletopia.com","port":27025,"enabled":true,"region":"eu","cc":"gb","latitude":51.509865,"longitude":-0.118092,"reserved":0,"last_update":"0001-01-01T00:00:00Z","name_a2s":"Uncletopia | London | 2 | All Maps","protocol":17,"map":"pl_upward","folder":"tf","game":"Team Fortress","app_id":440,"player_count":24,"max_players":24,"Bots":0,"server_type":"Dedicated","server_os":"Linux","password":true,"vac":true,"version":"7882260","steam_id":85568392924470941,"keywords":["nocrits","nodmgspread","payload","uncletopia"],"game_id":440,"stv_port":27026,"stv_name":"Uncletopia | London | 2 | All Maps | STV","players":[{"user_id":205,"name":"Purps","steam_id":76561198053886680,"connected_time":3249000000000,"state":"active","ping":46},{"user_id":224,"name":"shadow wizard money gang","steam_id":76561199244678611,"connected_time":2246000000000,"state":"active","ping":94},{"user_id":247,"name":"Dollar","steam_id":76561199250808808,"connected_time":720000000000,"state":"active","ping":77},{"user_id":246,"name":"cornelius","steam_id":76561198066156069,"connected_time":765000000000,"state":"active","ping":60},{"user_id":177,"name":"RedFog","steam_id":76561198284713081,"connected_time":6171000000000,"state":"active","ping":46},{"user_id":199,"name":"PrimeTarget","steam_id":76561198046409289,"connected_time":3685000000000,"state":"active","ping":71},{"user_id":235,"name":"BatemanPatrick","steam_id":76561198393691611,"connected_time":1439000000000,"state":"active","ping":65},{"user_id":194,"name":"shankz","steam_id":76561198128803260,"connected_time":3985000000000,"state":"active","ping":45},{"user_id":234,"name":"Jonathan","steam_id":76561198087988880,"connected_time":1447000000000,"state":"active","ping":52},{"user_id":236,"name":"Gorilla_800lbs","steam_id":76561198030256322,"connected_time":1438000000000,"state":"active","ping":101},{"user_id":248,"name":"Eggman (Full Power)","steam_id":76561199042470246,"connected_time":683000000000,"state":"active","ping":60},{"user_id":237,"name":"dinorno","steam_id":76561198146276830,"connected_time":1436000000000,"state":"active","ping":75},{"user_id":238,"name":"Loot Rat","steam_id":76561198154304193,"connected_time":1395000000000,"state":"active","ping":88},{"user_id":249,"name":"Marky","steam_id":76561199474556920,"connected_time":641000000000,"state":"active","ping":117},{"user_id":253,"name":"GreemBeans","steam_id":76561198069648014,"connected_time":148000000000,"state":"active","ping":123},{"user_id":239,"name":"goofster","steam_id":76561199052275857,"connected_time":1393000000000,"state":"active","ping":110},{"user_id":252,"name":"BRM","steam_id":76561198453041505,"connected_time":265000000000,"state":"active","ping":84},{"user_id":240,"name":"Kaule goede gamer (leugen)","steam_id":76561198051685232,"connected_time":1346000000000,"state":"active","ping":45},{"user_id":250,"name":"Taxer","steam_id":76561199075287508,"connected_time":456000000000,"state":"active","ping":71},{"user_id":254,"name":"Chopper","steam_id":76561199013212815,"connected_time":35000000000,"state":"active","ping":75},{"user_id":242,"name":"Flare","steam_id":76561198039098320,"connected_time":1321000000000,"state":"active","ping":54},{"user_id":251,"name":"Amon Gus","steam_id":76561199094540960,"connected_time":376000000000,"state":"active","ping":68},{"user_id":211,"name":"Max Power","steam_id":76561198019269089,"connected_time":3156000000000,"state":"active","ping":60},{"user_id":230,"name":"Kernkraft","steam_id":76561198093458326,"connected_time":1921000000000,"state":"active","ping":73}]},{"server_id":320,"name":"Uncletopia | London | 3 | All Maps","name_short":"lon-3","host":"lon-1.uk.uncletopia.com","port":27035,"enabled":true,"region":"eu","cc":"gb","latitude":51.509865,"longitude":-0.118092,"reserved":0,"last_update":"0001-01-01T00:00:00Z","name_a2s":"Uncletopia | London | 3 | All Maps","protocol":17,"map":"cp_yukon_final","folder":"tf","game":"Team Fortress","app_id":440,"player_count":24,"max_players":24,"Bots":0,"server_type":"Dedicated","server_os":"Linux","password":true,"vac":true,"version":"7882260","steam_id":85568392924510192,"keywords":["cp","nocrits","nodmgspread","uncletopia"],"game_id":440,"stv_port":27036,"stv_name":"Uncletopia | London | 3 | All Maps | STV","players":[{"user_id":281,"name":"Refre35","steam_id":76561198971840738,"connected_time":414000000000,"state":"active","ping":81},{"user_id":272,"name":"RiX","steam_id":76561197969053733,"connected_time":831000000000,"state":"active","ping":64},{"user_id":288,"name":"icy_spicy","steam_id":76561199481524657,"connected_time":203000000000,"state":"active","ping":60},{"user_id":267,"name":"Excessive Clownery","steam_id":76561198130404188,"connected_time":992000000000,"state":"active","ping":54},{"user_id":286,"name":"1 kill a day","steam_id":76561198059674196,"connected_time":327000000000,"state":"active","ping":43},{"user_id":254,"name":"ƒÜpunTaBaLuga","steam_id":76561198843629649,"connected_time":1985000000000,"state":"active","ping":72},{"user_id":266,"name":"Parasitic_Gas","steam_id":76561199191581845,"connected_time":1024000000000,"state":"active","ping":67},{"user_id":287,"name":"another day of gaming","steam_id":76561198278967055,"connected_time":315000000000,"state":"active","ping":60},{"user_id":273,"name":"Tj0ckis","steam_id":76561198108854226,"connected_time":829000000000,"state":"active","ping":79},{"user_id":265,"name":"Miss.Sparklez","steam_id":76561198101745576,"connected_time":1102000000000,"state":"active","ping":79},{"user_id":250,"name":"Scobra [FR]","steam_id":76561198000734400,"connected_time":2599000000000,"state":"active","ping":111},{"user_id":274,"name":"KnugenIV","steam_id":76561198127091993,"connected_time":684000000000,"state":"active","ping":61},{"user_id":268,"name":"DaiDaiMu :3","steam_id":76561198052794823,"connected_time":983000000000,"state":"active","ping":60},{"user_id":279,"name":"CEO of Pen Island","steam_id":76561198037212191,"connected_time":445000000000,"state":"active","ping":62},{"user_id":275,"name":"lobzade","steam_id":76561198195685370,"connected_time":669000000000,"state":"active","ping":50},{"user_id":256,"name":"Sammy","steam_id":76561197977379410,"connected_time":1973000000000,"state":"active","ping":99},{"user_id":289,"name":"Snaky","steam_id":76561199000954430,"connected_time":116000000000,"state":"active","ping":104},{"user_id":290,"name":"Izzie","steam_id":76561198090287325,"connected_time":97000000000,"state":"active","ping":63},{"user_id":277,"name":"SODA!!!!!!!","steam_id":76561198107362485,"connected_time":595000000000,"state":"active","ping":117},{"user_id":258,"name":"LoneStarGtx76","steam_id":76561197983273601,"connected_time":1946000000000,"state":"active","ping":52},{"user_id":291,"name":"Cookies and Bakies","steam_id":76561198017442928,"connected_time":77000000000,"state":"active","ping":63},{"user_id":292,"name":"Dragon","steam_id":76561198163255365,"connected_time":70000000000,"state":"active","ping":90},{"user_id":249,"name":"M2rtRa","steam_id":76561198111036466,"connected_time":2612000000000,"state":"active","ping":75},{"user_id":270,"name":"The jam star","steam_id":76561198389400433,"connected_time":869000000000,"state":"active","ping":57}]},{"server_id":321,"name":"Uncletopia | London | 4 | All Maps","name_short":"lon-4","host":"lon-1.uk.uncletopia.com","port":27045,"enabled":true,"region":"eu","cc":"gb","latitude":51.509865,"longitude":-0.118092,"reserved":0,"last_update":"0001-01-01T00:00:00Z","name_a2s":"Uncletopia | London | 4 | All Maps","protocol":17,"map":"pl_pier","folder":"tf","game":"Team Fortress","app_id":440,"player_count":24,"max_players":24,"Bots":0,"server_type":"Dedicated","server_os":"Linux","password":true,"vac":true,"version":"7882260","steam_id":85568392924510193,"keywords":["nocrits","nodmgspread","payload","uncletopia"],"game_id":440,"stv_port":27046,"stv_name":"Uncletopia | London | 4 | All Maps | STV","players":[{"user_id":468,"name":"crazycalumrock","steam_id":76561198049890080,"connected_time":517000000000,"state":"active","ping":36},{"user_id":477,"name":"FUKAYU","steam_id":76561198380484033,"connected_time":141000000000,"state":"active","ping":56},{"user_id":464,"name":"Moby Chick (F2P)","steam_id":76561198151152730,"connected_time":776000000000,"state":"active","ping":120},{"user_id":460,"name":"Natpad","steam_id":76561198842124497,"connected_time":1110000000000,"state":"active","ping":64},{"user_id":453,"name":"\u003c blank \u003e","steam_id":76561198059375315,"connected_time":1691000000000,"state":"active","ping":77},{"user_id":479,"name":"Kinda Angry HugeE","steam_id":76561198245495152,"connected_time":32000000000,"state":"active","ping":67},{"user_id":478,"name":"big poo","steam_id":76561198129157178,"connected_time":127000000000,"state":"active","ping":90},{"user_id":445,"name":"The Fabian Strategy","steam_id":76561198052753473,"connected_time":2015000000000,"state":"active","ping":75},{"user_id":463,"name":"Bungus","steam_id":76561198238332624,"connected_time":829000000000,"state":"active","ping":56},{"user_id":467,"name":"keri","steam_id":76561199066513442,"connected_time":751000000000,"state":"active","ping":79},{"user_id":423,"name":"Enraged hbivnm","steam_id":76561197996468677,"connected_time":2518000000000,"state":"active","ping":73},{"user_id":466,"name":"yer_nerd","steam_id":76561199435454093,"connected_time":761000000000,"state":"active","ping":125},{"user_id":446,"name":"That Brown Nerd","steam_id":76561198196685086,"connected_time":2009000000000,"state":"active","ping":66},{"user_id":474,"name":"default","steam_id":76561198186182298,"connected_time":288000000000,"state":"active","ping":53},{"user_id":473,"name":"Antimation","steam_id":76561198125649544,"connected_time":365000000000,"state":"active","ping":49},{"user_id":428,"name":"john fortress","steam_id":76561198013237629,"connected_time":2361000000000,"state":"active","ping":92},{"user_id":455,"name":"ALARM","steam_id":76561198120686521,"connected_time":1556000000000,"state":"active","ping":60},{"user_id":475,"name":"Joejee","steam_id":76561199122423976,"connected_time":258000000000,"state":"active","ping":67},{"user_id":401,"name":"hot guy","steam_id":76561198083063005,"connected_time":4318000000000,"state":"active","ping":32},{"user_id":384,"name":"Alice","steam_id":76561198208927047,"connected_time":5531000000000,"state":"active","ping":70},{"user_id":456,"name":"Itai","steam_id":76561198804555329,"connected_time":1547000000000,"state":"active","ping":115},{"user_id":421,"name":"Carlo","steam_id":76561198276491098,"connected_time":2847000000000,"state":"active","ping":72},{"user_id":418,"name":"d u k k i","steam_id":76561198071807437,"connected_time":3088000000000,"state":"active","ping":90},{"user_id":476,"name":"smokeing we'd","steam_id":76561198088125671,"connected_time":213000000000,"state":"active","ping":61}]},{"server_id":21,"name":"Uncletopia | London | 5 | All Maps","name_short":"lon-5","host":"lon-1.uk.uncletopia.com","port":27055,"enabled":true,"region":"eu","cc":"gb","latitude":51.509865,"longitude":-0.118092,"reserved":0,"last_update":"0001-01-01T00:00:00Z","name_a2s":"Uncletopia | London | 5 | All Maps","protocol":17,"map":"koth_viaduct","folder":"tf","game":"Team Fortress","app_id":440,"player_count":0,"max_players":24,"Bots":0,"server_type":"Dedicated","server_os":"Linux","password":true,"vac":true,"version":"7882260","steam_id":85568392924742829,"keywords":["cp","nocrits","nodmgspread","uncletopia"],"game_id":440,"stv_port":27056,"stv_name":"Uncletopia | London | 5 | All Maps | STV","players":null},{"server_id":22,"name":"Uncletopia | London | 6 | All Maps","name_short":"lon-6","host":"lon-1.uk.uncletopia.com","port":27065,"enabled":true,"region":"eu","cc":"gb","latitude":51.509865,"longitude":-0.118092,"reserved":0,"last_update":"0001-01-01T00:00:00Z","name_a2s":"Uncletopia | London | 6 | All Maps","protocol":17,"map":"koth_lakeside_final","folder":"tf","game":"Team Fortress","app_id":440,"player_count":0,"max_players":24,"Bots":0,"server_type":"Dedicated","server_os":"Linux","password":true,"vac":true,"version":"7882260","steam_id":85568392924742830,"keywords":["cp","nocrits","nodmgspread","uncletopia"],"game_id":440,"stv_port":27066,"stv_name":"Uncletopia | London | 6 | All Maps | STV","players":null},{"server_id":40,"name":"Uncletopia | London | 7 | No Payload","name_short":"lon-7","host":"lon-1.uk.uncletopia.com","port":27075,"enabled":true,"region":"eu","cc":"gb","latitude":51.509865,"longitude":-0.118092,"reserved":0,"last_update":"0001-01-01T00:00:00Z","name_a2s":"Uncletopia | London | 7 | No Payload","protocol":17,"map":"ctf_well","folder":"tf","game":"Team Fortress","app_id":440,"player_count":0,"max_players":24,"Bots":0,"server_type":"Dedicated","server_os":"Linux","password":true,"vac":true,"version":"7882260","steam_id":85568392924964314,"keywords":["ctf","nocrits","nodmgspread","uncletopia"],"game_id":440,"stv_port":27076,"stv_name":"Uncletopia | London | 7 | No Payload | STV","players":null},{"server_id":41,"name":"Uncletopia | London | 8 | Community","name_short":"lon-8","host":"lon-1.uk.uncletopia.com","port":27085,"enabled":true,"region":"eu","cc":"gb","latitude":51.509865,"longitude":-0.118092,"reserved":0,"last_update":"0001-01-01T00:00:00Z","name_a2s":"Uncletopia | London | 8 | Community","protocol":17,"map":"pl_upward","folder":"tf","game":"Team Fortress","app_id":440,"player_count":0,"max_players":24,"Bots":0,"server_type":"Dedicated","server_os":"Linux","password":true,"vac":true,"version":"7882260","steam_id":85568392924964315,"keywords":["nocrits","nodmgspread","payload","uncletopia"],"game_id":440,"stv_port":27086,"stv_name":"Uncletopia | London | 8 | Community | STV","players":null},{"server_id":300,"name":"Uncletopia | Montr√©al | 1 | All Maps","name_short":"mtl-1","host":"mtl-1.ca.uncletopia.com","port":27015,"enabled":true,"region":"us-east","cc":"ca","latitude":45.50889,"longitude":-73.56167,"reserved":0,"last_update":"0001-01-01T00:00:00Z","name_a2s":"Uncletopia | Montr√©al | 1 | All Maps","protocol":17,"map":"cp_dustbowl","folder":"tf","game":"Team Fortress","app_id":440,"player_count":0,"max_players":24,"Bots":0,"server_type":"Dedicated","server_os":"Linux","password":true,"vac":true,"version":"7882260","steam_id":85568392924500087,"keywords":["cp","nocrits","nodmgspread","uncletopia"],"game_id":440,"stv_port":27016,"stv_name":"Uncletopia | Montr√©al | 1 | All Maps | STV","players":null},{"server_id":301,"name":"Uncletopia | Montr√©al | 2 | All Maps","name_short":"mtl-2","host":"mtl-1.ca.uncletopia.com","port":27025,"enabled":true,"region":"us-east","cc":"ca","latitude":45.50889,"longitude":-73.56167,"reserved":0,"last_update":"0001-01-01T00:00:00Z","name_a2s":"Uncletopia | Montr√©al | 2 | All Maps","protocol":17,"map":"pl_swiftwater_final1","folder":"tf","game":"Team Fortress","app_id":440,"player_count":0,"max_players":24,"Bots":0,"server_type":"Dedicated","server_os":"Linux","password":true,"vac":true,"version":"7882260","steam_id":85568392924500088,"keywords":["nocrits","nodmgspread","payload","uncletopia"],"game_id":440,"stv_port":27026,"stv_name":"Uncletopia | Montr√©al | 2 | All Maps | STV","players":null},{"server_id":302,"name":"Uncletopia | Montr√©al | 3 | All Maps","name_short":"mtl-3","host":"mtl-1.ca.uncletopia.com","port":27035,"enabled":true,"region":"us-east","cc":"ca","latitude":45.50889,"longitude":-73.56167,"reserved":0,"last_update":"0001-01-01T00:00:00Z","name_a2s":"Uncletopia | Montr√©al | 3 | All Maps","protocol":17,"map":"koth_highpass","folder":"tf","game":"Team Fortress","app_id":440,"player_count":0,"max_players":24,"Bots":0,"server_type":"Dedicated","server_os":"Linux","password":true,"vac":true,"version":"7882260","steam_id":85568392924500089,"keywords":["cp","nocrits","nodmgspread","uncletopia"],"game_id":440,"stv_port":27036,"stv_name":"Uncletopia | Montr√©al | 3 | All Maps | STV","players":null},{"server_id":303,"name":"Uncletopia | Montr√©al | 4 | No Payload","name_short":"mtl-4","host":"mtl-1.ca.uncletopia.com","port":27045,"enabled":true,"region":"us-east","cc":"ca","latitude":45.50889,"longitude":-73.56167,"reserved":0,"last_update":"0001-01-01T00:00:00Z","name_a2s":"Uncletopia | Montr√©al | 4 | No Payload","protocol":17,"map":"koth_highpass","folder":"tf","game":"Team Fortress","app_id":440,"player_count":0,"max_players":24,"Bots":0,"server_type":"Dedicated","server_os":"Linux","password":true,"vac":true,"version":"7882260","steam_id":85568392924500090,"keywords":["cp","nocrits","nodmgspread","uncletopia"],"game_id":440,"stv_port":27046,"stv_name":"Uncletopia | Montr√©al | 4 | No Payload | STV","players":null},{"server_id":13,"name":"Uncletopia | New York City | 1 | All Maps","name_short":"nyc-1","host":"nyc-1.us.uncletopia.com","port":27015,"enabled":true,"region":"us-east","cc":"us","latitude":40.73061,"longitude":-73.93524,"reserved":0,"last_update":"0001-01-01T00:00:00Z","name_a2s":"Uncletopia | New York City | 1 | All Maps","protocol":17,"map":"pl_frontier_final","folder":"tf","game":"Team Fortress","app_id":440,"player_count":0,"max_players":24,"Bots":0,"server_type":"Dedicated","server_os":"Linux","password":true,"vac":true,"version":"7882260","steam_id":85568392924469993,"keywords":["nocrits","nodmgspread","payload","uncletopia"],"game_id":440,"stv_port":27016,"stv_name":"Uncletopia | New York City | 1 | All Maps | STV","players":null},{"server_id":14,"name":"Uncletopia | New York City | 2 | All Maps","name_short":"nyc-2","host":"nyc-1.us.uncletopia.com","port":27025,"enabled":true,"region":"us-east","cc":"us","latitude":40.73061,"longitude":-73.93524,"reserved":0,"last_update":"0001-01-01T00:00:00Z","name_a2s":"Uncletopia | New York City | 2 | All Maps","protocol":17,"map":"pl_frontier_final","folder":"tf","game":"Team Fortress","app_id":440,"player_count":0,"max_players":24,"Bots":0,"server_type":"Dedicated","server_os":"Linux","password":true,"vac":true,"version":"7882260","steam_id":85568392924469994,"keywords":["nocrits","nodmgspread","payload","uncletopia"],"game_id":440,"stv_port":27026,"stv_name":"Uncletopia | New York City | 2 | All Maps | STV","players":null},{"server_id":15,"name":"Uncletopia | New York City | 3 | Stopwatch Beta","name_short":"nyc-3","host":"nyc-1.us.uncletopia.com","port":27035,"enabled":true,"region":"us-east","cc":"us","latitude":40.73061,"longitude":-73.93524,"reserved":0,"last_update":"0001-01-01T00:00:00Z","name_a2s":"Uncletopia | New York City | 3 | Stopwatch Beta","protocol":17,"map":"pl_borneo","folder":"tf","game":"Team Fortress","app_id":440,"player_count":0,"max_players":24,"Bots":0,"server_type":"Dedicated","server_os":"Linux","password":true,"vac":true,"version":"7882260","steam_id":85568392924742820,"keywords":["nocrits","nodmgspread","payload","uncletopia"],"game_id":440,"stv_port":27036,"stv_name":"Uncletopia | New York City | 3 | Stopwatch Beta | STV","players":null},{"server_id":16,"name":"Uncletopia | New York City | 4 | Community","name_short":"nyc-4","host":"nyc-1.us.uncletopia.com","port":27045,"enabled":true,"region":"us-east","cc":"us","latitude":40.73061,"longitude":-73.93524,"reserved":0,"last_update":"0001-01-01T00:00:00Z","name_a2s":"Uncletopia | New York City | 4 | Community","protocol":17,"map":"cp_altitude","folder":"tf","game":"Team Fortress","app_id":440,"player_count":0,"max_players":24,"Bots":0,"server_type":"Dedicated","server_os":"Linux","password":true,"vac":true,"version":"7882260","steam_id":85568392924742821,"keywords":["cp","nocrits","nodmgspread","uncletopia"],"game_id":440,"stv_port":27046,"stv_name":"Uncletopia | New York City | 4 | Community | STV","players":null},{"server_id":142,"name":"Uncletopia | S√£o Paulo | 1 | All Maps","name_short":"sao-1","host":"sao-1.br.uncletopia.com","port":27015,"enabled":true,"region":"sa","cc":"br","latitude":-23.533773,"longitude":-46.62529,"reserved":0,"last_update":"0001-01-01T00:00:00Z","name_a2s":"Uncletopia | S√£o Paulo | 1 | All Maps","protocol":17,"map":"pl_upward","folder":"tf","game":"Team Fortress","app_id":440,"player_count":2,"max_players":24,"Bots":0,"server_type":"Dedicated","server_os":"Linux","password":true,"vac":true,"version":"7882260","steam_id":85568392924469996,"keywords":["nocrits","nodmgspread","payload","uncletopia"],"game_id":440,"stv_port":27016,"stv_name":"Uncletopia | S√£o Paulo | 1 | All Maps | STV","players":[{"user_id":5,"name":"Mikael_01","steam_id":76561199080253129,"connected_time":2372000000000,"state":"active","ping":49},{"user_id":7,"name":"pog","steam_id":76561198891777705,"connected_time":2001000000000,"state":"active","ping":94}]},{"server_id":143,"name":"Uncletopia | S√£o Paulo | 2 | All Maps","name_short":"sao-2","host":"sao-2.br.uncletopia.com","port":27015,"enabled":true,"region":"sa","cc":"br","latitude":-23.533773,"longitude":-46.62529,"reserved":0,"last_update":"0001-01-01T00:00:00Z","name_a2s":"Uncletopia | S√£o Paulo | 2 | All Maps","protocol":17,"map":"cp_process_final","folder":"tf","game":"Team Fortress","app_id":440,"player_count":0,"max_players":24,"Bots":0,"server_type":"Dedicated","server_os":"Linux","password":true,"vac":true,"version":"7882260","steam_id":85568392924485349,"keywords":["cp","nocrits","nodmgspread","uncletopia"],"game_id":440,"stv_port":27016,"stv_name":"Uncletopia | S√£o Paulo | 2 | All Maps | STV","players":null},{"server_id":7,"name":"Uncletopia | Seattle | 1 | All Maps","name_short":"sea-1","host":"sea-1.us.uncletopia.com","port":27015,"enabled":true,"region":"us-west","cc":"us","latitude":47.608013,"longitude":-122.33517,"reserved":0,"last_update":"0001-01-01T00:00:00Z","name_a2s":"Uncletopia | Seattle | 1 | All Maps","protocol":17,"map":"pl_frontier_final","folder":"tf","game":"Team Fortress","app_id":440,"player_count":6,"max_players":24,"Bots":0,"server_type":"Dedicated","server_os":"Linux","password":true,"vac":true,"version":"7882260","steam_id":85568392924469997,"keywords":["nocrits","nodmgspread","payload","uncletopia"],"game_id":440,"stv_port":27016,"stv_name":"Uncletopia | Seattle | 1 | All Maps | STV","players":[{"user_id":4,"name":"reiidaya","steam_id":76561198325306660,"connected_time":3291000000000,"state":"active","ping":50},{"user_id":12,"name":"\u003c3Elise\u003c3","steam_id":76561198146435005,"connected_time":482000000000,"state":"active","ping":70},{"user_id":13,"name":"Bee_Pirate","steam_id":76561199000599111,"connected_time":339000000000,"state":"active","ping":106},{"user_id":9,"name":"snorpus","steam_id":76561198420683272,"connected_time":1900000000000,"state":"active","ping":46},{"user_id":14,"name":"Fergus","steam_id":76561198828018167,"connected_time":332000000000,"state":"active","ping":168},{"user_id":16,"name":"BossSimba","steam_id":76561199027058357,"connected_time":216000000000,"state":"active","ping":213}]},{"server_id":119,"name":"Uncletopia | Seattle | 2 | All Maps","name_short":"sea-2","host":"sea-1.us.uncletopia.com","port":27025,"enabled":true,"region":"us-west","cc":"us","latitude":47.608013,"longitude":-122.33517,"reserved":0,"last_update":"0001-01-01T00:00:00Z","name_a2s":"Uncletopia | Seattle | 2 | All Maps","protocol":17,"map":"pl_barnblitz","folder":"tf","game":"Team Fortress","app_id":440,"player_count":0,"max_players":24,"Bots":0,"server_type":"Dedicated","server_os":"Linux","password":true,"vac":true,"version":"7882260","steam_id":85568392924469998,"keywords":["nocrits","nodmgspread","payload","uncletopia"],"game_id":440,"stv_port":27026,"stv_name":"Uncletopia | Seattle | 2 | All Maps | STV","players":null},{"server_id":406,"name":"Uncletopia | Seattle | 3 | Stopwatch Beta","name_short":"sea-3","host":"sea-1.us.uncletopia.com","port":27035,"enabled":true,"region":"us-west","cc":"us","latitude":47.608013,"longitude":-122.33517,"reserved":0,"last_update":"0001-01-01T00:00:00Z","name_a2s":"Uncletopia | Seattle | 3 | Stopwatch Beta","protocol":17,"map":"koth_viaduct","folder":"tf","game":"Team Fortress","app_id":440,"player_count":0,"max_players":24,"Bots":0,"server_type":"Dedicated","server_os":"Linux","password":true,"vac":true,"version":"7882260","steam_id":85568392924515217,"keywords":["cp","nocrits","nodmgspread","uncletopia"],"game_id":440,"stv_port":27036,"stv_name":"Uncletopia | Seattle | 3 | Stopwatch Beta | STV","players":null},{"server_id":17,"name":"Uncletopia | San Francisco | 1 | All Maps","name_short":"sfo-1","host":"sfo-1.us.uncletopia.com","port":27015,"enabled":true,"region":"us-west","cc":"us","latitude":37.77397,"longitude":-122.4313,"reserved":0,"last_update":"0001-01-01T00:00:00Z","name_a2s":"Uncletopia | San Francisco | 1 | All Maps","protocol":17,"map":"pl_pier","folder":"tf","game":"Team Fortress","app_id":440,"player_count":0,"max_players":24,"Bots":0,"server_type":"Dedicated","server_os":"Linux","password":true,"vac":true,"version":"7882260","steam_id":85568392924469999,"keywords":["nocrits","nodmgspread","payload","uncletopia"],"game_id":440,"stv_port":27016,"stv_name":"Uncletopia | San Francisco | 1 | All Maps | STV","players":null},{"server_id":18,"name":"Uncletopia | San Francisco | 2 | All Maps","name_short":"sfo-2","host":"sfo-1.us.uncletopia.com","port":27025,"enabled":true,"region":"us-west","cc":"us","latitude":37.77397,"longitude":-122.4313,"reserved":0,"last_update":"0001-01-01T00:00:00Z","name_a2s":"Uncletopia | San Francisco | 2 | All Maps","protocol":17,"map":"cp_sunshine","folder":"tf","game":"Team Fortress","app_id":440,"player_count":0,"max_players":24,"Bots":0,"server_type":"Dedicated","server_os":"Linux","password":true,"vac":true,"version":"7882260","steam_id":85568392924470000,"keywords":["cp","nocrits","nodmgspread","uncletopia"],"game_id":440,"stv_port":27026,"stv_name":"Uncletopia | San Francisco | 2 | All Maps | STV","players":null},{"server_id":19,"name":"Uncletopia | San Francisco | 3 | Stopwatch Beta","name_short":"sfo-3","host":"sfo-1.us.uncletopia.com","port":27035,"enabled":true,"region":"us-west","cc":"us","latitude":37.77397,"longitude":-122.4313,"reserved":0,"last_update":"0001-01-01T00:00:00Z","name_a2s":"Uncletopia | San Francisco | 3 | Stopwatch Beta","protocol":17,"map":"pl_snowycoast","folder":"tf","game":"Team Fortress","app_id":440,"player_count":0,"max_players":24,"Bots":0,"server_type":"Dedicated","server_os":"Linux","password":true,"vac":true,"version":"7882260","steam_id":85568392924742824,"keywords":["nocrits","nodmgspread","payload","uncletopia"],"game_id":440,"stv_port":27036,"stv_name":"Uncletopia | San Francisco | 3 | Stopwatch Beta | STV","players":null},{"server_id":20,"name":"Uncletopia | San Francisco | 4 | Community","name_short":"sfo-4","host":"sfo-1.us.uncletopia.com","port":27045,"enabled":true,"region":"us-west","cc":"us","latitude":37.77397,"longitude":-122.4313,"reserved":0,"last_update":"0001-01-01T00:00:00Z","name_a2s":"Uncletopia | San Francisco | 4 | Community","protocol":17,"map":"pl_swiftwater_final1","folder":"tf","game":"Team Fortress","app_id":440,"player_count":0,"max_players":24,"Bots":0,"server_type":"Dedicated","server_os":"Linux","password":true,"vac":true,"version":"7882260","steam_id":85568392924742826,"keywords":["nocrits","nodmgspread","payload","uncletopia"],"game_id":440,"stv_port":27046,"stv_name":"Uncletopia | San Francisco | 4 | Community | STV","players":null},{"server_id":141,"name":"Uncletopia | Sydney | 1 | All Maps","name_short":"syd-1","host":"syd-1.au.uncletopia.com","port":27015,"enabled":true,"region":"au","cc":"au","latitude":-33.865143,"longitude":151.2099,"reserved":0,"last_update":"0001-01-01T00:00:00Z","name_a2s":"Uncletopia | Sydney | 1 | All Maps","protocol":17,"map":"koth_viaduct","folder":"tf","game":"Team Fortress","app_id":440,"player_count":0,"max_players":24,"Bots":0,"server_type":"Dedicated","server_os":"Linux","password":true,"vac":true,"version":"7882260","steam_id":85568392924470001,"keywords":["cp","nocrits","nodmgspread","uncletopia"],"game_id":440,"stv_port":27016,"stv_name":"Uncletopia | Sydney | 1 | All Maps | STV","players":null},{"server_id":123,"name":"Uncletopia | Sydney | 2 | All Maps","name_short":"syd-2","host":"syd-1.au.uncletopia.com","port":27025,"enabled":true,"region":"au","cc":"au","latitude":-33.865143,"longitude":151.2099,"reserved":0,"last_update":"0001-01-01T00:00:00Z","name_a2s":"Uncletopia | Sydney | 2 | All Maps","protocol":17,"map":"cp_process_final","folder":"tf","game":"Team Fortress","app_id":440,"player_count":4,"max_players":24,"Bots":0,"server_type":"Dedicated","server_os":"Linux","password":true,"vac":true,"version":"7882260","steam_id":85568392924470002,"keywords":["cp","nocrits","nodmgspread","uncletopia"],"game_id":440,"stv_port":27026,"stv_name":"Uncletopia | Sydney | 2 | All Maps | STV","players":[{"user_id":396,"name":"Husveq","steam_id":76561197977121241,"connected_time":538000000000,"state":"active","ping":51},{"user_id":397,"name":"happy spider ::)","steam_id":76561198238031616,"connected_time":498000000000,"state":"active","ping":80},{"user_id":399,"name":"ELDER GOD HEAVY","steam_id":76561198280237790,"connected_time":476000000000,"state":"active","ping":69},{"user_id":395,"name":"Frosty","steam_id":76561198077266076,"connected_time":994000000000,"state":"active","ping":62}]},{"server_id":395,"name":"Uncletopia | Sydney | 3 | All Maps","name_short":"syd-3","host":"syd-1.au.uncletopia.com","port":27035,"enabled":true,"region":"au","cc":"au","latitude":-33.865143,"longitude":151.2099,"reserved":0,"last_update":"0001-01-01T00:00:00Z","name_a2s":"Uncletopia | Sydney | 3 | All Maps","protocol":17,"map":"koth_viaduct","folder":"tf","game":"Team Fortress","app_id":440,"player_count":0,"max_players":24,"Bots":0,"server_type":"Dedicated","server_os":"Linux","password":true,"vac":true,"version":"7882260","steam_id":85568392925194467,"keywords":["cp","nocrits","nodmgspread","uncletopia"],"game_id":440,"stv_port":27036,"stv_name":"Uncletopia | Sydney | 3 | All Maps | STV","players":null},{"server_id":396,"name":"Uncletopia | Sydney | 4 | All Maps","name_short":"syd-4","host":"syd-1.au.uncletopia.com","port":27045,"enabled":true,"region":"au","cc":"au","latitude":-33.865143,"longitude":151.2099,"reserved":0,"last_update":"0001-01-01T00:00:00Z","name_a2s":"Uncletopia | Sydney | 4 | All Maps","protocol":17,"map":"cp_snakewater_final1","folder":"tf","game":"Team Fortress","app_id":440,"player_count":0,"max_players":24,"Bots":0,"server_type":"Dedicated","server_os":"Linux","password":true,"vac":true,"version":"7882260","steam_id":85568392925397958,"keywords":["cp","nocrits","nodmgspread","uncletopia"],"game_id":440,"stv_port":27046,"stv_name":"Uncletopia | Sydney | 4 | All Maps | STV","players":null},{"server_id":58,"name":"Uncletopia | Sydney | 5 | Stopwatch Beta","name_short":"syd-5","host":"syd-1.au.uncletopia.com","port":27055,"enabled":true,"region":"au","cc":"au","latitude":-33.865143,"longitude":151.2099,"reserved":0,"last_update":"0001-01-01T00:00:00Z","name_a2s":"Uncletopia | Sydney | 5 | Stopwatch Beta","protocol":17,"map":"koth_viaduct","folder":"tf","game":"Team Fortress","app_id":440,"player_count":0,"max_players":24,"Bots":0,"server_type":"Dedicated","server_os":"Linux","password":true,"vac":true,"version":"7882260","steam_id":85568392925397959,"keywords":["cp","nocrits","nodmgspread","uncletopia"],"game_id":440,"stv_port":27056,"stv_name":"Uncletopia | Sydney | 5 | Stopwatch Beta | STV","players":null},{"server_id":59,"name":"Uncletopia | Sydney | 6 | Community","name_short":"syd-6","host":"syd-1.au.uncletopia.com","port":27065,"enabled":true,"region":"au","cc":"au","latitude":-33.865143,"longitude":151.2099,"reserved":0,"last_update":"0001-01-01T00:00:00Z","name_a2s":"Uncletopia | Sydney | 6 | Community","protocol":17,"map":"workshop/koth_ashville_final.ugc2130459942","folder":"tf","game":"Team Fortress","app_id":440,"player_count":0,"max_players":24,"Bots":0,"server_type":"Dedicated","server_os":"Linux","password":true,"vac":true,"version":"7882260","steam_id":85568392925397960,"keywords":["cp","nocrits","nodmgspread","uncletopia"],"game_id":440,"stv_port":27066,"stv_name":"Uncletopia | Sydney | 6 | Community | STV","players":null},{"server_id":49,"name":"Uncletopia | Warsaw | 1 | All Maps","name_short":"waw-1","host":"waw-1.pl.uncletopia.com","port":27015,"enabled":true,"region":"eu","cc":"pl","latitude":52.2297,"longitude":21.017532,"reserved":0,"last_update":"0001-01-01T00:00:00Z","name_a2s":"","protocol":0,"map":"","folder":"","game":"","app_id":0,"player_count":0,"max_players":0,"Bots":0,"server_type":"","server_os":"","password":false,"vac":false,"version":"","steam_id":0,"keywords":null,"game_id":0,"stv_port":0,"stv_name":"","players":null},{"server_id":50,"name":"Uncletopia | Warsaw | 2 | All Maps","name_short":"waw-2","host":"waw-1.pl.uncletopia.com","port":27025,"enabled":true,"region":"eu","cc":"pl","latitude":52.2297,"longitude":21.017532,"reserved":0,"last_update":"0001-01-01T00:00:00Z","name_a2s":"Uncletopia | Warsaw | 2 | All Maps","protocol":17,"map":"koth_viaduct","folder":"tf","game":"Team Fortress","app_id":440,"player_count":0,"max_players":24,"Bots":0,"server_type":"Dedicated","server_os":"Linux","password":true,"vac":true,"version":"7882260","steam_id":85568392925397851,"keywords":["cp","nocrits","nodmgspread","uncletopia"],"game_id":440,"stv_port":27026,"stv_name":"Uncletopia | Warsaw | 2 | All Maps | STV","players":null},{"server_id":51,"name":"Uncletopia | Warsaw | 3 | All Maps","name_short":"waw-3","host":"waw-1.pl.uncletopia.com","port":27035,"enabled":true,"region":"eu","cc":"pl","latitude":52.2297,"longitude":21.017532,"reserved":0,"last_update":"0001-01-01T00:00:00Z","name_a2s":"Uncletopia | Warsaw | 3 | All Maps","protocol":17,"map":"pl_badwater","folder":"tf","game":"Team Fortress","app_id":440,"player_count":0,"max_players":24,"Bots":0,"server_type":"Dedicated","server_os":"Linux","password":true,"vac":true,"version":"7882260","steam_id":85568392925397852,"keywords":["nocrits","nodmgspread","payload","uncletopia"],"game_id":440,"stv_port":27036,"stv_name":"Uncletopia | Warsaw | 3 | All Maps | STV","players":null},{"server_id":52,"name":"Uncletopia | Warsaw | 4 | All Maps","name_short":"waw-4","host":"waw-1.pl.uncletopia.com","port":27045,"enabled":true,"region":"eu","cc":"pl","latitude":52.2297,"longitude":21.017532,"reserved":0,"last_update":"0001-01-01T00:00:00Z","name_a2s":"Uncletopia | Warsaw | 4 | All Maps","protocol":17,"map":"koth_cascade","folder":"tf","game":"Team Fortress","app_id":440,"player_count":0,"max_players":24,"Bots":0,"server_type":"Dedicated","server_os":"Linux","password":true,"vac":true,"version":"7882260","steam_id":85568392925397853,"keywords":["cp","nocrits","nodmgspread","uncletopia"],"game_id":440,"stv_port":27046,"stv_name":"Uncletopia | Warsaw | 4 | All Maps | STV","players":null},{"server_id":53,"name":"Uncletopia | Warsaw | 5 | Stopwatch Beta","name_short":"waw-5","host":"waw-1.pl.uncletopia.com","port":27055,"enabled":true,"region":"eu","cc":"pl","latitude":52.2297,"longitude":21.017532,"reserved":0,"last_update":"0001-01-01T00:00:00Z","name_a2s":"Uncletopia | Warsaw | 5 | Stopwatch Beta","protocol":17,"map":"cp_dustbowl","folder":"tf","game":"Team Fortress","app_id":440,"player_count":0,"max_players":24,"Bots":0,"server_type":"Dedicated","server_os":"Linux","password":true,"vac":true,"version":"7882260","steam_id":85568392925397854,"keywords":["cp","nocrits","nodmgspread","uncletopia"],"game_id":440,"stv_port":27056,"stv_name":"Uncletopia | Warsaw | 5 | Stopwatch Beta | STV","players":null},{"server_id":54,"name":"Uncletopia | Warsaw | 6 | Community","name_short":"waw-6","host":"waw-1.pl.uncletopia.com","port":27065,"enabled":true,"region":"eu","cc":"pl","latitude":52.2297,"longitude":21.017532,"reserved":0,"last_update":"0001-01-01T00:00:00Z","name_a2s":"Uncletopia | Warsaw | 6 | Community","protocol":17,"map":"cp_dustbowl","folder":"tf","game":"Team Fortress","app_id":440,"player_count":0,"max_players":24,"Bots":0,"server_type":"Dedicated","server_os":"Linux","password":true,"vac":true,"version":"7882260","steam_id":85568392925397856,"keywords":["cp","nocrits","nodmgspread","uncletopia"],"game_id":440,"stv_port":27066,"stv_name":"Uncletopia | Warsaw | 6 | Community | STV","players":null}]}