{"status":true,"message":"","result":[{"server_id":9,"name":"Uncletopia | Atlanta | 1 | All Maps","name_short":"atl-1","host":"atl-1.us.uncletopia.com","port":27015,"enabled":true,"region":"us-east","cc":"us","latitude":33.753746,"longitude":-84.38633,"reserved":0,"last_update":"0001-01-01T00:00:00Z","name_a2s":"Uncletopia | Atlanta | 1 | All Maps","protocol":17,"map":"pl_swiftwater_final1","folder":"tf","game":"Team Fortress","app_id":440,"player_count":19,"max_players":24,"Bots":0,"server_type":"Dedicated","server_os":"Linux","password":true,"vac":true,"version":"7961495","steam_id":85568392924469982,"keywords":["nocrits","nodmgspread","payload","uncletopia"],"game_id":440,"stv_port":27016,"stv_name":"Uncletopia | Atlanta | 1 | All Maps | STV","players":[{"user_id":435,"name":"Yetsko","steam_id":76561198072917024,"connected_time":1123000000000,"state":"active","ping":75},{"user_id":448,"name":"paetho YT","steam_id":76561198152690003,"connected_time":142000000000,"state":"active","ping":44},{"user_id":449,"name":"Normal_game","steam_id":76561199447211407,"connected_time":34000000000,"state":"active","ping":291},{"user_id":417,"name":"substance","steam_id":76561198050103868,"connected_time":3127000000000,"state":"active","ping":104},{"user_id":433,"name":"The Builder","steam_id":76561198093432863,"connected_time":1798000000000,"state":"active","ping":69},{"user_id":450,"name":"ham gaming","steam_id":76561199047228098,"connected_time":24000000000,"state":"active","ping":144},{"user_id":434,"name":"Lefty [Gentlemen of Leisure]","steam_id":76561197980825914,"connected_time":1475000000000,"state":"active","ping":79},{"user_id":390,"name":"oppenheimer style","steam_id":76561198026664629,"connected_time":5976000000000,"state":"active","ping":48},{"user_id":446,"name":"williammmeachimp","steam_id":76561198321521917,"connected_time":187000000000,"state":"active","ping":112},{"user_id":409,"name":"Sett Flash Ult Her Into A Wall","steam_id":76561198314656600,"connected_time":3864000000000,"state":"active","ping":67},{"user_id":416,"name":"Platypuspenguin","steam_id":76561198212228081,"connected_time":3384000000000,"state":"active","ping":70},{"user_id":401,"name":"punk cock","steam_id":76561198418182764,"connected_time":4519000000000,"state":"active","ping":60},{"user_id":451,"name":"howtobepker","steam_id":76561198115053865,"connected_time":7000000000,"state":"spawning","ping":270},{"user_id":436,"name":"Onyx","steam_id":76561198275349640,"connected_time":1083000000000,"state":"active","ping":100},{"user_id":437,"name":"Starseeing Oracle","steam_id":76561198097720124,"connected_time":1078000000000,"state":"active","ping":71},{"user_id":438,"name":"gotten lft","steam_id":76561198033033884,"connected_time":989000000000,"state":"active","ping":74},{"user_id":442,"name":"Worst Scenario","steam_id":76561199052130229,"connected_time":702000000000,"state":"active","ping":71},{"user_id":404,"name":"Miramar","steam_id":76561198022057653,"connected_time":3987000000000,"state":"active","ping":66},{"user_id":415,"name":"Thug shaker","steam_id":76561198840484105,"connected_time":3467000000000,"state":"active","ping":66}]},{"server_id":104,"name":"Uncletopia | Atlanta | 2 | All Maps","name_short":"atl-2","host":"atl-1.us.uncletopia.com","port":27025,"enabled":true,"region":"us-east","cc":"us","latitude":33.753746,"longitude":-84.38633,"reserved":0,"last_update":"0001-01-01T00:00:00Z","name_a2s":"Uncletopia | Atlanta | 2 | All Maps","protocol":17,"map":"pl_badwater","folder":"tf","game":"Team Fortress","app_id":440,"player_count":22,"max_players":24,"Bots":0,"server_type":"Dedicated","server_os":"Linux","password":true,"vac":true,"version":"7961495","steam_id":85568392924469983,"keywords":["nocrits","nodmgspread","payload","uncletopia"],"game_id":440,"stv_port":27026,"stv_name":"Uncletopia | Atlanta | 2 | All Maps | STV","players":[{"user_id":16,"name":"tac","steam_id":76561198408477421,"connected_time":17866000000000,"state":"active","ping":84},{"user_id":199,"name":"ravN :)","steam_id":76561198272366231,"connected_time":5340000000000,"state":"active","ping":69},{"user_id":253,"name":"Archie?!","steam_id":76561197998807293,"connected_time":1331000000000,"state":"active","ping":64},{"user_id":246,"name":"Asanez3","steam_id":76561198037381436,"connected_time":1788000000000,"state":"active","ping":71},{"user_id":215,"name":"rattlin' bog","steam_id":76561198224551028,"connected_time":4293000000000,"state":"active","ping":70},{"user_id":182,"name":"cwnz2","steam_id":76561198418170535,"connected_time":6494000000000,"state":"active","ping":89},{"user_id":249,"name":"Ơ̷͘n̶̨̡ ̵́͘G͢҉ơ̛","steam_id":76561198072089706,"connected_time":1758000000000,"state":"active","ping":98},{"user_id":241,"name":"Buddyram5","steam_id":76561198409858620,"connected_time":2388000000000,"state":"active","ping":41},{"user_id":260,"name":"Facehurt","steam_id":76561198028504034,"connected_time":572000000000,"state":"active","ping":114},{"user_id":148,"name":"Fart Huffer","steam_id":76561198094125834,"connected_time":8556000000000,"state":"active","ping":84},{"user_id":240,"name":"C4K3","steam_id":76561197996963285,"connected_time":2423000000000,"state":"active","ping":70},{"user_id":251,"name":"Official Ton a'Pup","steam_id":76561198023110308,"connected_time":1680000000000,"state":"active","ping":86},{"user_id":261,"name":"Kdash","steam_id":76561198043829155,"connected_time":414000000000,"state":"active","ping":75},{"user_id":244,"name":"doughboy","steam_id":76561198219012928,"connected_time":2097000000000,"state":"active","ping":96},{"user_id":250,"name":"Muro_Mayo","steam_id":76561198329023209,"connected_time":1750000000000,"state":"active","ping":170},{"user_id":239,"name":"Who's Joe","steam_id":76561198023936091,"connected_time":2690000000000,"state":"active","ping":64},{"user_id":252,"name":"on that zaza?","steam_id":76561198038713198,"connected_time":1668000000000,"state":"active","ping":72},{"user_id":259,"name":"The Assistant Regional Manager","steam_id":76561199221484936,"connected_time":598000000000,"state":"active","ping":118},{"user_id":258,"name":"Rasin (return to silly)","steam_id":76561198829131627,"connected_time":716000000000,"state":"active","ping":84},{"user_id":231,"name":"Napoleon Dynamite","steam_id":76561198068064706,"connected_time":3549000000000,"state":"active","ping":67},{"user_id":254,"name":"A Powerful Rat","steam_id":76561198010496776,"connected_time":1278000000000,"state":"active","ping":98},{"user_id":206,"name":"Jack Meehoff","steam_id":76561199246237446,"connected_time":5231000000000,"state":"active","ping":78}]},{"server_id":400,"name":"Uncletopia | Atlanta | 3 | Stopwatch","name_short":"atl-3","host":"atl-1.us.uncletopia.com","port":27035,"enabled":true,"region":"us-east","cc":"us","latitude":33.753746,"longitude":-84.38633,"reserved":0,"last_update":"0001-01-01T00:00:00Z","name_a2s":"Uncletopia | Atlanta | 3 | Stopwatch","protocol":17,"map":"workshop/koth_clearcut_b15.ugc2107050255","folder":"tf","game":"Team Fortress","app_id":440,"player_count":24,"max_players":24,"Bots":0,"server_type":"Dedicated","server_os":"Linux","password":true,"vac":true,"version":"7961495","steam_id":85568392924515187,"keywords":["cp","nocrits","nodmgspread","uncletopia"],"game_id":440,"stv_port":27036,"stv_name":"Uncletopia | Atlanta | 3 | Stopwatch | STV","players":[{"user_id":402,"name":"JayDuh","steam_id":76561198396293109,"connected_time":2648000000000,"state":"active","ping":84},{"user_id":430,"name":"Generic Name","steam_id":76561198094225684,"connected_time":288000000000,"state":"active","ping":97},{"user_id":426,"name":"cajun thotsauce","steam_id":76561198101636066,"connected_time":435000000000,"state":"active","ping":95},{"user_id":418,"name":"lew","steam_id":76561198088682495,"connected_time":824000000000,"state":"active","ping":130},{"user_id":419,"name":"joyeuxnoelle","steam_id":76561198062423120,"connected_time":810000000000,"state":"active","ping":93},{"user_id":427,"name":"Capitán Äxis-Flores Kuroki","steam_id":76561198353865006,"connected_time":414000000000,"state":"active","ping":59},{"user_id":412,"name":"U ω U","steam_id":76561198118802562,"connected_time":1559000000000,"state":"active","ping":121},{"user_id":428,"name":"tubby","steam_id":76561198174982661,"connected_time":375000000000,"state":"active","ping":70},{"user_id":385,"name":"sam","steam_id":76561198088504281,"connected_time":3654000000000,"state":"active","ping":84},{"user_id":397,"name":"raccocooon","steam_id":76561199138602425,"connected_time":3095000000000,"state":"active","ping":71},{"user_id":429,"name":"Bagging some Percs","steam_id":76561198336551859,"connected_time":361000000000,"state":"active","ping":99},{"user_id":365,"name":"Peepster","steam_id":76561198297854733,"connected_time":4643000000000,"state":"active","ping":92},{"user_id":431,"name":"-BRH- Tangled up in Bluegrass","steam_id":76561197987181139,"connected_time":252000000000,"state":"active","ping":72},{"user_id":392,"name":"CreateADebate","steam_id":76561198115760035,"connected_time":3437000000000,"state":"active","ping":47},{"user_id":401,"name":"Decapitation Station","steam_id":76561198201796098,"connected_time":2660000000000,"state":"active","ping":78},{"user_id":159,"name":"Elijah123","steam_id":76561199037648021,"connected_time":17037000000000,"state":"active","ping":75},{"user_id":417,"name":"TF2C | fac -AA-","steam_id":76561198009818412,"connected_time":1340000000000,"state":"active","ping":68},{"user_id":407,"name":"dave :3","steam_id":76561198135961731,"connected_time":1913000000000,"state":"active","ping":72},{"user_id":422,"name":"Magician Wen-li","steam_id":76561198189688217,"connected_time":734000000000,"state":"active","ping":62},{"user_id":403,"name":"MLG_Doge","steam_id":76561198106449532,"connected_time":2634000000000,"state":"active","ping":69},{"user_id":432,"name":"Sqooky","steam_id":76561198838054669,"connected_time":224000000000,"state":"active","ping":75},{"user_id":433,"name":"Ellis McGruber","steam_id":76561198060739536,"connected_time":181000000000,"state":"active","ping":70},{"user_id":434,"name":"Umbra","steam_id":76561198122650609,"connected_time":51000000000,"state":"active","ping":74},{"user_id":423,"name":"Nepthys","steam_id":76561198010248321,"connected_time":641000000000,"state":"active","ping":55}]},{"server_id":401,"name":"Uncletopia | Atlanta | 4 | Community","name_short":"atl-4","host":"atl-1.us.uncletopia.com","port":27045,"enabled":true,"region":"us-east","cc":"us","latitude":33.753746,"longitude":-84.38633,"reserved":0,"last_update":"0001-01-01T00:00:00Z","name_a2s":"Uncletopia | Atlanta | 4 | Community","protocol":17,"map":"workshop/koth_product_final.ugc454272353","folder":"tf","game":"Team Fortress","app_id":440,"player_count":0,"max_players":24,"Bots":0,"server_type":"Dedicated","server_os":"Linux","password":true,"vac":true,"version":"7961495","steam_id":85568392924515188,"keywords":["cp","nocrits","nodmgspread","uncletopia"],"game_id":440,"stv_port":27046,"stv_name":"Uncletopia | Atlanta | 4 | Community | STV","players":null},{"server_id":2,"name":"Uncletopia | Chicago | 1 | All Maps","name_short":"chi-1","host":"chi-1.us.uncletopia.com","port":27015,"enabled":true,"region":"us-central","cc":"us","latitude":41.881832,"longitude":-87.62318,"reserved":0,"last_update":"0001-01-01T00:00:00Z","name_a2s":"Uncletopia | Chicago | 1 | All Maps","protocol":17,"map":"pl_upward","folder":"tf","game":"Team Fortress","app_id":440,"player_count":25,"max_players":24,"Bots":0,"server_type":"Dedicated","server_os":"Linux","password":true,"vac":true,"version":"7961495","steam_id":85568392924469984,"keywords":["nocrits","nodmgspread","payload","uncletopia"],"game_id":440,"stv_port":27016,"stv_name":"Uncletopia | Chicago | 1 | All Maps | STV","players":[{"user_id":752,"name":"Ms Twig","steam_id":76561198144111736,"connected_time":2035000000000,"state":"active","ping":53},{"user_id":761,"name":"el soprano forma ultra instinct","steam_id":76561198058469527,"connected_time":1521000000000,"state":"active","ping":59},{"user_id":773,"name":"Lane","steam_id":76561197965828506,"connected_time":552000000000,"state":"active","ping":45},{"user_id":727,"name":"Vibe Check","steam_id":76561198087326826,"connected_time":3309000000000,"state":"active","ping":70},{"user_id":762,"name":"Juke Skywalker","steam_id":76561198060296782,"connected_time":1516000000000,"state":"active","ping":106},{"user_id":767,"name":"whitr","steam_id":76561198043981478,"connected_time":1076000000000,"state":"active","ping":88},{"user_id":772,"name":"roman","steam_id":76561198170066797,"connected_time":579000000000,"state":"active","ping":65},{"user_id":779,"name":"Laventhey","steam_id":76561198977523626,"connected_time":94000000000,"state":"active","ping":67},{"user_id":763,"name":"Sergeant Snowflake","steam_id":76561198041474489,"connected_time":1502000000000,"state":"active","ping":57},{"user_id":757,"name":"Waffle","steam_id":76561199000034608,"connected_time":1739000000000,"state":"active","ping":58},{"user_id":749,"name":"Your Local Queer Librarian","steam_id":76561198013077080,"connected_time":2755000000000,"state":"active","ping":55},{"user_id":753,"name":"totally not a pile of beans","steam_id":76561198119851931,"connected_time":1774000000000,"state":"active","ping":82},{"user_id":774,"name":"Herdez Hot Salsa","steam_id":76561197991740906,"connected_time":329000000000,"state":"active","ping":72},{"user_id":738,"name":"oyasumi","steam_id":76561198128614882,"connected_time":3163000000000,"state":"active","ping":82},{"user_id":780,"name":"ProbiusSC","steam_id":76561198379167322,"connected_time":65000000000,"state":"connecting","ping":0},{"user_id":729,"name":"Spy Gaming","steam_id":76561198453295613,"connected_time":3298000000000,"state":"active","ping":113},{"user_id":768,"name":"TonesMcGroans","steam_id":76561197996691606,"connected_time":1002000000000,"state":"active","ping":68},{"user_id":776,"name":"sack","steam_id":76561198215813163,"connected_time":304000000000,"state":"active","ping":99},{"user_id":756,"name":"flamingcookies","steam_id":76561198280864779,"connected_time":1760000000000,"state":"active","ping":61},{"user_id":766,"name":"Scurvpup","steam_id":76561198090484962,"connected_time":1348000000000,"state":"active","ping":94},{"user_id":724,"name":"Siz","steam_id":76561198072962154,"connected_time":3857000000000,"state":"active","ping":63},{"user_id":769,"name":"shoobs","steam_id":76561198042507255,"connected_time":956000000000,"state":"active","ping":88},{"user_id":777,"name":"for the king","steam_id":76561197973488858,"connected_time":301000000000,"state":"active","ping":60},{"user_id":764,"name":"Albundy","steam_id":76561198075394127,"connected_time":1434000000000,"state":"active","ping":75},{"user_id":781,"name":"1st place love live fan","steam_id":76561198037951506,"connected_time":43000000000,"state":"active","ping":61}]},{"server_id":106,"name":"Uncletopia | Chicago | 2 | All Maps","name_short":"chi-2","host":"chi-1.us.uncletopia.com","port":27025,"enabled":true,"region":"us-central","cc":"us","latitude":41.881832,"longitude":-87.62318,"reserved":0,"last_update":"0001-01-01T00:00:00Z","name_a2s":"Uncletopia | Chicago | 2 | All Maps","protocol":17,"map":"pl_borneo","folder":"tf","game":"Team Fortress","app_id":440,"player_count":24,"max_players":24,"Bots":0,"server_type":"Dedicated","server_os":"Linux","password":true,"vac":true,"version":"7961495","steam_id":85568392924469985,"keywords":["nocrits","nodmgspread","payload","uncletopia"],"game_id":440,"stv_port":27026,"stv_name":"Uncletopia | Chicago | 2 | All Maps | STV","players":[{"user_id":548,"name":"AlecTheNefarious","steam_id":76561198035291230,"connected_time":530000000000,"state":"active","ping":59},{"user_id":529,"name":"Owls = Government Drones","steam_id":76561198439793697,"connected_time":1614000000000,"state":"active","ping":74},{"user_id":543,"name":"ChiMaTa","steam_id":76561198067166198,"connected_time":919000000000,"state":"active","ping":59},{"user_id":516,"name":"sadako","steam_id":76561198170642407,"connected_time":3252000000000,"state":"active","ping":75},{"user_id":515,"name":"just call me joe","steam_id":76561198043911582,"connected_time":3269000000000,"state":"active","ping":61},{"user_id":531,"name":"Mithrildo","steam_id":76561198000564263,"connected_time":1605000000000,"state":"active","ping":80},{"user_id":526,"name":"OH BOY","steam_id":76561199052273428,"connected_time":2139000000000,"state":"active","ping":49},{"user_id":525,"name":"m4xzo","steam_id":76561198073176682,"connected_time":2520000000000,"state":"active","ping":60},{"user_id":556,"name":"My heart is COLD","steam_id":76561198046895822,"connected_time":217000000000,"state":"active","ping":75},{"user_id":521,"name":"Scoot the Burbs","steam_id":76561198079507179,"connected_time":2933000000000,"state":"active","ping":75},{"user_id":532,"name":"V_","steam_id":76561198147577835,"connected_time":1603000000000,"state":"active","ping":210},{"user_id":533,"name":"lanoc","steam_id":76561198055415367,"connected_time":1603000000000,"state":"active","ping":61},{"user_id":558,"name":"aversa","steam_id":76561198840460101,"connected_time":128000000000,"state":"active","ping":75},{"user_id":554,"name":"bingus","steam_id":76561198110046630,"connected_time":265000000000,"state":"active","ping":53},{"user_id":550,"name":"All Tomorrow's Parties","steam_id":76561197995936212,"connected_time":503000000000,"state":"active","ping":45},{"user_id":551,"name":"java","steam_id":76561198030276792,"connected_time":478000000000,"state":"active","ping":56},{"user_id":560,"name":"GimliLOTR","steam_id":76561198163746000,"connected_time":41000000000,"state":"spawning","ping":299},{"user_id":559,"name":"Five","steam_id":76561198026640473,"connected_time":96000000000,"state":"active","ping":60},{"user_id":504,"name":"MONKEY | videogamer1002","steam_id":76561198157110599,"connected_time":4906000000000,"state":"active","ping":113},{"user_id":520,"name":"im mr war","steam_id":76561198131467867,"connected_time":3012000000000,"state":"active","ping":78},{"user_id":546,"name":"FireQuiz","steam_id":76561198107357249,"connected_time":630000000000,"state":"active","ping":107},{"user_id":406,"name":"Yarman53","steam_id":76561198099889202,"connected_time":14543000000000,"state":"active","ping":38},{"user_id":557,"name":"Lemonaded","steam_id":76561198079961670,"connected_time":182000000000,"state":"active","ping":94},{"user_id":397,"name":"Beebo, Son of Beebo","steam_id":76561198055948497,"connected_time":14684000000000,"state":"active","ping":59}]},{"server_id":402,"name":"Uncletopia | Chicago | 3 | All Maps","name_short":"chi-3","host":"chi-1.us.uncletopia.com","port":27035,"enabled":true,"region":"us-central","cc":"us","latitude":41.881832,"longitude":-87.62318,"reserved":0,"last_update":"0001-01-01T00:00:00Z","name_a2s":"Uncletopia | Chicago | 3 | All Maps","protocol":17,"map":"cp_mountainlab","folder":"tf","game":"Team Fortress","app_id":440,"player_count":19,"max_players":24,"Bots":0,"server_type":"Dedicated","server_os":"Linux","password":true,"vac":true,"version":"7961495","steam_id":85568392924515191,"keywords":["cp","nocrits","nodmgspread","uncletopia"],"game_id":440,"stv_port":27036,"stv_name":"Uncletopia | Chicago | 3 | All Maps | STV","players":[{"user_id":518,"name":"Mikke","steam_id":76561198170234003,"connected_time":171000000000,"state":"active","ping":121},{"user_id":503,"name":"backshot overlord","steam_id":76561198984612489,"connected_time":1280000000000,"state":"active","ping":92},{"user_id":516,"name":"󠀡󠀡","steam_id":76561198348035053,"connected_time":486000000000,"state":"active","ping":120},{"user_id":519,"name":"vepis","steam_id":76561198015884720,"connected_time":155000000000,"state":"active","ping":61},{"user_id":520,"name":"Voodo133","steam_id":76561198042670351,"connected_time":116000000000,"state":"active","ping":85},{"user_id":505,"name":"moonboy","steam_id":76561198172113657,"connected_time":1264000000000,"state":"active","ping":91},{"user_id":506,"name":"Skip Hop Doo Bop","steam_id":76561199161571849,"connected_time":1256000000000,"state":"active","ping":92},{"user_id":510,"name":"|MT|","steam_id":76561199052865451,"connected_time":1197000000000,"state":"active","ping":51},{"user_id":441,"name":"Coffee Instant Type 2","steam_id":76561198307845869,"connected_time":5624000000000,"state":"active","ping":70},{"user_id":499,"name":"The Caretaker","steam_id":76561198125241411,"connected_time":1534000000000,"state":"active","ping":210},{"user_id":464,"name":"Fly Man","steam_id":76561198201036790,"connected_time":3995000000000,"state":"active","ping":86},{"user_id":492,"name":"imagine no burger","steam_id":76561198149666258,"connected_time":1718000000000,"state":"active","ping":63},{"user_id":500,"name":"mild","steam_id":76561198082470182,"connected_time":1531000000000,"state":"active","ping":90},{"user_id":443,"name":"Dad","steam_id":76561198089213897,"connected_time":5369000000000,"state":"active","ping":97},{"user_id":496,"name":"Simone Viles","steam_id":76561198090954218,"connected_time":1622000000000,"state":"active","ping":82},{"user_id":501,"name":"the fungus","steam_id":76561198271721689,"connected_time":1529000000000,"state":"active","ping":35},{"user_id":468,"name":"Mom","steam_id":76561198356812251,"connected_time":3746000000000,"state":"active","ping":66},{"user_id":515,"name":"Captain Buggy","steam_id":76561198024444448,"connected_time":808000000000,"state":"active","ping":96},{"user_id":502,"name":"FRANKY!!!","steam_id":76561199211305343,"connected_time":1490000000000,"state":"active","ping":98}]},{"server_id":403,"name":"Uncletopia | Chicago | 4 | All Maps","name_short":"chi-4","host":"chi-1.us.uncletopia.com","port":27045,"enabled":true,"region":"us-central","cc":"us","latitude":41.881832,"longitude":-87.62318,"reserved":0,"last_update":"0001-01-01T00:00:00Z","name_a2s":"Uncletopia | Chicago | 4 | All Maps","protocol":17,"map":"pl_snowycoast","folder":"tf","game":"Team Fortress","app_id":440,"player_count":0,"max_players":24,"Bots":0,"server_type":"Dedicated","server_os":"Linux","password":true,"vac":true,"version":"7961495","steam_id":85568392924515193,"keywords":["nocrits","nodmgspread","payload","uncletopia"],"game_id":440,"stv_port":27046,"stv_name":"Uncletopia | Chicago | 4 | All Maps | STV","players":null},{"server_id":36,"name":"Uncletopia | Chicago | 5 | All Maps","name_short":"chi-5","host":"chi-2.us.uncletopia.com","port":27015,"enabled":true,"region":"us-central","cc":"us","latitude":41.881832,"longitude":-87.62318,"reserved":0,"last_update":"0001-01-01T00:00:00Z","name_a2s":"Uncletopia | Chicago | 5 | All Maps","protocol":17,"map":"pl_borneo","folder":"tf","game":"Team Fortress","app_id":440,"player_count":10,"max_players":24,"Bots":0,"server_type":"Dedicated","server_os":"Linux","password":true,"vac":true,"version":"7961495","steam_id":85568392924866362,"keywords":["nocrits","nodmgspread","payload","uncletopia"],"game_id":440,"stv_port":27016,"stv_name":"Uncletopia | Chicago | 5 | All Maps | STV","players":[{"user_id":477,"name":"Fiendish Frog","steam_id":76561198029478821,"connected_time":731000000000,"state":"active","ping":65},{"user_id":463,"name":"❤Addy❤","steam_id":76561199153405603,"connected_time":1999000000000,"state":"active","ping":61},{"user_id":475,"name":"Meskoozy","steam_id":76561198102394479,"connected_time":803000000000,"state":"active","ping":57},{"user_id":465,"name":"flame","steam_id":76561198079321914,"connected_time":1966000000000,"state":"active","ping":89},{"user_id":467,"name":"Lore","steam_id":76561198098407538,"connected_time":1926000000000,"state":"active","ping":44},{"user_id":394,"name":"Wunderpicka","steam_id":76561198049846440,"connected_time":7327000000000,"state":"active","ping":112},{"user_id":450,"name":"The Professor","steam_id":76561198113760863,"connected_time":3019000000000,"state":"active","ping":52},{"user_id":396,"name":"Aieykins","steam_id":76561199036575278,"connected_time":7320000000000,"state":"active","ping":103},{"user_id":468,"name":"Camper","steam_id":76561198972004586,"connected_time":1924000000000,"state":"active","ping":69},{"user_id":473,"name":"Thingy","steam_id":76561198140161202,"connected_time":1100000000000,"state":"active","ping":64}]},{"server_id":37,"name":"Uncletopia | Chicago | 6 | All Maps","name_short":"chi-6","host":"chi-2.us.uncletopia.com","port":27025,"enabled":true,"region":"us-central","cc":"us","latitude":41.881832,"longitude":-87.62318,"reserved":0,"last_update":"0001-01-01T00:00:00Z","name_a2s":"Uncletopia | Chicago | 6 | All Maps","protocol":17,"map":"koth_suijin","folder":"tf","game":"Team Fortress","app_id":440,"player_count":1,"max_players":24,"Bots":0,"server_type":"Dedicated","server_os":"Linux","password":true,"vac":true,"version":"7961495","steam_id":85568392924866363,"keywords":["cp","nocrits","nodmgspread","uncletopia"],"game_id":440,"stv_port":27026,"stv_name":"Uncletopia | Chicago | 6 | All Maps | STV","players":[{"user_id":468,"name":"FROGGY","steam_id":76561199196374308,"connected_time":43000000000,"state":"active","ping":65}]},{"server_id":38,"name":"Uncletopia | Chicago | 7 | Stopwatch","name_short":"chi-7","host":"chi-2.us.uncletopia.com","port":27035,"enabled":true,"region":"us-central","cc":"us","latitude":41.881832,"longitude":-87.62318,"reserved":0,"last_update":"0001-01-01T00:00:00Z","name_a2s":"Uncletopia | Chicago | 7 | Stopwatch","protocol":17,"map":"workshop/koth_product_final.ugc454272353","folder":"tf","game":"Team Fortress","app_id":440,"player_count":4,"max_players":24,"Bots":0,"server_type":"Dedicated","server_os":"Linux","password":true,"vac":true,"version":"7961495","steam_id":85568392924866364,"keywords":["cp","nocrits","nodmgspread","uncletopia"],"game_id":440,"stv_port":27036,"stv_name":"Uncletopia | Chicago | 7 | Stopwatch | STV","players":[{"user_id":341,"name":"deathangle9001","steam_id":76561198413635773,"connected_time":1578000000000,"state":"active","ping":70},{"user_id":339,"name":"Good Carpet","steam_id":76561198051582569,"connected_time":1718000000000,"state":"active","ping":71},{"user_id":342,"name":"Terratrox","steam_id":76561198207115731,"connected_time":213000000000,"state":"active","ping":70},{"user_id":317,"name":"1998 Summer Tax Fraud","steam_id":76561198096366496,"connected_time":4299000000000,"state":"active","ping":44}]},{"server_id":39,"name":"Uncletopia | Chicago | 8 | Community","name_short":"chi-8","host":"chi-2.us.uncletopia.com","port":27045,"enabled":true,"region":"us-central","cc":"us","latitude":41.881832,"longitude":-87.62318,"reserved":0,"last_update":"0001-01-01T00:00:00Z","name_a2s":"Uncletopia | Chicago | 8 | Community","protocol":17,"map":"workshop/koth_ramjam_rc1.ugc459778887","folder":"tf","game":"Team Fortress","app_id":440,"player_count":0,"max_players":24,"Bots":0,"server_type":"Dedicated","server_os":"Linux","password":true,"vac":true,"version":"7961495","steam_id":85568392924866365,"keywords":["cp","nocrits","nodmgspread","uncletopia"],"game_id":440,"stv_port":27046,"stv_name":"Uncletopia | Chicago | 8 | Community | STV","players":null},{"server_id":8,"name":"Uncletopia | Dallas | 1 | All Maps","name_short":"dal-1","host":"dal-1.us.uncletopia.com","port":27015,"enabled":true,"region":"us-central","cc":"us","latitude":32.779167,"longitude":-96.80889,"reserved":0,"last_update":"0001-01-01T00:00:00Z","name_a2s":"Uncletopia | Dallas | 1 | All Maps","protocol":17,"map":"pl_frontier_final","folder":"tf","game":"Team Fortress","app_id":440,"player_count":23,"max_players":24,"Bots":0,"server_type":"Dedicated","server_os":"Linux","password":true,"vac":true,"version":"7961495","steam_id":85568392924469986,"keywords":["nocrits","nodmgspread","payload","uncletopia"],"game_id":440,"stv_port":27016,"stv_name":"Uncletopia | Dallas | 1 | All Maps | STV","players":[{"user_id":339,"name":"qwalt","steam_id":76561197995233566,"connected_time":1776000000000,"state":"active","ping":86},{"user_id":310,"name":"KennytheHedgehog","steam_id":76561198094607721,"connected_time":2624000000000,"state":"active","ping":47},{"user_id":362,"name":"Ben-Riley_","steam_id":76561198073169199,"connected_time":578000000000,"state":"active","ping":87},{"user_id":354,"name":"gooch_masta","steam_id":76561198151578423,"connected_time":803000000000,"state":"active","ping":63},{"user_id":366,"name":"A Straw","steam_id":76561199367935846,"connected_time":116000000000,"state":"active","ping":69},{"user_id":334,"name":"Unlimited_Trees","steam_id":76561198299141443,"connected_time":1791000000000,"state":"active","ping":123},{"user_id":355,"name":"DeftlyDyl","steam_id":76561198098986187,"connected_time":714000000000,"state":"active","ping":86},{"user_id":363,"name":"Bert","steam_id":76561198850421867,"connected_time":480000000000,"state":"active","ping":107},{"user_id":357,"name":"FeetLackingShoes","steam_id":76561198374532787,"connected_time":689000000000,"state":"active","ping":89},{"user_id":342,"name":"AttackCommander","steam_id":76561198111522679,"connected_time":1708000000000,"state":"active","ping":59},{"user_id":364,"name":"Greasy_Grime","steam_id":76561199014724973,"connected_time":380000000000,"state":"active","ping":127},{"user_id":358,"name":"FEESH EGG","steam_id":76561198164699517,"connected_time":687000000000,"state":"active","ping":88},{"user_id":343,"name":"yeeye","steam_id":76561198094306054,"connected_time":1682000000000,"state":"active","ping":60},{"user_id":359,"name":"tesa","steam_id":76561198154546773,"connected_time":683000000000,"state":"active","ping":60},{"user_id":352,"name":"Wahaha hee","steam_id":76561198098017157,"connected_time":1175000000000,"state":"active","ping":56},{"user_id":347,"name":"Cahootles","steam_id":76561198056407485,"connected_time":1568000000000,"state":"active","ping":55},{"user_id":360,"name":"blekk","steam_id":76561198000082101,"connected_time":682000000000,"state":"active","ping":60},{"user_id":365,"name":"Go find God","steam_id":76561198242227952,"connected_time":364000000000,"state":"active","ping":71},{"user_id":318,"name":"Groovitude","steam_id":76561198269289716,"connected_time":2396000000000,"state":"active","ping":33},{"user_id":331,"name":"OG Skywalker","steam_id":76561198236729420,"connected_time":1920000000000,"state":"active","ping":86},{"user_id":321,"name":"Yodie","steam_id":76561198152474661,"connected_time":2334000000000,"state":"active","ping":93},{"user_id":361,"name":"Satori Komeiji","steam_id":76561198158211423,"connected_time":671000000000,"state":"active","ping":81},{"user_id":351,"name":"StudioMania (#SAVETF2)","steam_id":76561198211315795,"connected_time":1239000000000,"state":"active","ping":78}]},{"server_id":108,"name":"Uncletopia | Dallas | 2 | All Maps","name_short":"dal-2","host":"dal-1.us.uncletopia.com","port":27025,"enabled":true,"region":"us-central","cc":"us","latitude":32.779167,"longitude":-96.80889,"reserved":0,"last_update":"0001-01-01T00:00:00Z","name_a2s":"Uncletopia | Dallas | 2 | All Maps","protocol":17,"map":"koth_viaduct","folder":"tf","game":"Team Fortress","app_id":440,"player_count":24,"max_players":24,"Bots":0,"server_type":"Dedicated","server_os":"Linux","password":true,"vac":true,"version":"7961495","steam_id":85568392924469988,"keywords":["cp","nocrits","nodmgspread","uncletopia"],"game_id":440,"stv_port":27026,"stv_name":"Uncletopia | Dallas | 2 | All Maps | STV","players":[{"user_id":772,"name":"menonamed","steam_id":76561198199564382,"connected_time":3078000000000,"state":"active","ping":84},{"user_id":777,"name":"LaChancla","steam_id":76561198971528917,"connected_time":1179000000000,"state":"active","ping":51},{"user_id":779,"name":"Bankito","steam_id":76561198972260865,"connected_time":1124000000000,"state":"active","ping":89},{"user_id":766,"name":"Lichey","steam_id":76561198345670004,"connected_time":4770000000000,"state":"active","ping":193},{"user_id":791,"name":"kittysilliam2001","steam_id":76561198251483266,"connected_time":542000000000,"state":"active","ping":63},{"user_id":792,"name":"the munch","steam_id":76561199164347838,"connected_time":471000000000,"state":"active","ping":69},{"user_id":797,"name":"g0nk","steam_id":76561198838309024,"connected_time":169000000000,"state":"active","ping":73},{"user_id":786,"name":"redarcher42","steam_id":76561199027887687,"connected_time":654000000000,"state":"active","ping":71},{"user_id":782,"name":"PhlopyDiskette","steam_id":76561198153349473,"connected_time":983000000000,"state":"active","ping":67},{"user_id":783,"name":"Angel_","steam_id":76561198173721283,"connected_time":909000000000,"state":"active","ping":80},{"user_id":788,"name":"basilberry","steam_id":76561198145275937,"connected_time":648000000000,"state":"active","ping":65},{"user_id":798,"name":"Bravo","steam_id":76561198985135308,"connected_time":168000000000,"state":"active","ping":91},{"user_id":807,"name":"Withered Bonnie (Real)","steam_id":76561198423310113,"connected_time":18000000000,"state":"spawning","ping":42},{"user_id":790,"name":"rocketspires","steam_id":76561198800386026,"connected_time":589000000000,"state":"active","ping":125},{"user_id":795,"name":"sfoster","steam_id":76561197993895857,"connected_time":322000000000,"state":"active","ping":88},{"user_id":796,"name":"Not Giga Chad","steam_id":76561198059785363,"connected_time":305000000000,"state":"active","ping":65},{"user_id":801,"name":"CynForSin","steam_id":76561198094739849,"connected_time":128000000000,"state":"active","ping":67},{"user_id":800,"name":"Brock Obama","steam_id":76561198094643755,"connected_time":147000000000,"state":"active","ping":64},{"user_id":802,"name":"باب","steam_id":76561199056394159,"connected_time":121000000000,"state":"active","ping":73},{"user_id":803,"name":"Bimbes McFly","steam_id":76561197993331182,"connected_time":107000000000,"state":"active","ping":54},{"user_id":804,"name":"Dongus","steam_id":76561197979056451,"connected_time":103000000000,"state":"active","ping":102},{"user_id":805,"name":"Leroy","steam_id":76561199013064727,"connected_time":99000000000,"state":"active","ping":94},{"user_id":806,"name":"Karen Araragi","steam_id":76561198001369054,"connected_time":73000000000,"state":"active","ping":54},{"user_id":808,"name":"Sammich Slinger","steam_id":76561198007644532,"connected_time":18000000000,"state":"spawning","ping":86}]},{"server_id":404,"name":"Uncletopia | Dallas | 3 | All Maps","name_short":"dal-3","host":"dal-1.us.uncletopia.com","port":27035,"enabled":true,"region":"us-central","cc":"us","latitude":32.779167,"longitude":-96.80889,"reserved":0,"last_update":"0001-01-01T00:00:00Z","name_a2s":"Uncletopia | Dallas | 3 | All Maps","protocol":17,"map":"cp_sunshine","folder":"tf","game":"Team Fortress","app_id":440,"player_count":0,"max_players":24,"Bots":0,"server_type":"Dedicated","server_os":"Linux","password":true,"vac":true,"version":"7961495","steam_id":85568392924515219,"keywords":["cp","nocrits","nodmgspread","uncletopia"],"game_id":440,"stv_port":27036,"stv_name":"Uncletopia | Dallas | 3 | All Maps | STV","players":null},{"server_id":405,"name":"Uncletopia | Dallas | 4 | Community","name_short":"dal-4","host":"dal-1.us.uncletopia.com","port":27045,"enabled":true,"region":"us-central","cc":"us","latitude":32.779167,"longitude":-96.80889,"reserved":0,"last_update":"0001-01-01T00:00:00Z","name_a2s":"Uncletopia | Dallas | 4 | Community","protocol":17,"map":"workshop/cp_hazyfort_rc6.ugc1365963729","folder":"tf","game":"Team Fortress","app_id":440,"player_count":0,"max_players":24,"Bots":0,"server_type":"Dedicated","server_os":"Linux","password":true,"vac":true,"version":"7961495","steam_id":85568392924515220,"keywords":["cp","nocrits","nodmgspread","uncletopia"],"game_id":440,"stv_port":27046,"stv_name":"Uncletopia | Dallas | 4 | Community | STV","players":null},{"server_id":5,"name":"Uncletopia | Frankfurt | 1 | All Maps","name_short":"frk-1","host":"frk-1.de.uncletopia.com","port":27015,"enabled":true,"region":"eu","cc":"de","latitude":50.110924,"longitude":8.682127,"reserved":0,"last_update":"0001-01-01T00:00:00Z","name_a2s":"Uncletopia | Frankfurt | 1 | All Maps","protocol":17,"map":"koth_highpass","folder":"tf","game":"Team Fortress","app_id":440,"player_count":0,"max_players":24,"Bots":0,"server_type":"Dedicated","server_os":"Linux","password":true,"vac":true,"version":"7961495","steam_id":85568392924469989,"keywords":["cp","nocrits","nodmgspread","uncletopia"],"game_id":440,"stv_port":27016,"stv_name":"Uncletopia | Frankfurt | 1 | All Maps | STV","players":null},{"server_id":110,"name":"Uncletopia | Frankfurt | 2 | All Maps","name_short":"frk-2","host":"frk-1.de.uncletopia.com","port":27025,"enabled":true,"region":"eu","cc":"de","latitude":50.110924,"longitude":8.682127,"reserved":0,"last_update":"0001-01-01T00:00:00Z","name_a2s":"Uncletopia | Frankfurt | 2 | All Maps","protocol":17,"map":"cp_dustbowl","folder":"tf","game":"Team Fortress","app_id":440,"player_count":0,"max_players":24,"Bots":0,"server_type":"Dedicated","server_os":"Linux","password":true,"vac":true,"version":"7961495","steam_id":85568392924469990,"keywords":["cp","nocrits","nodmgspread","uncletopia"],"game_id":440,"stv_port":27026,"stv_name":"Uncletopia | Frankfurt | 2 | All Maps | STV","players":null},{"server_id":308,"name":"Uncletopia | Frankfurt | 3 | All Maps","name_short":"frk-3","host":"frk-1.de.uncletopia.com","port":27035,"enabled":true,"region":"eu","cc":"de","latitude":50.110924,"longitude":8.682127,"reserved":0,"last_update":"0001-01-01T00:00:00Z","name_a2s":"Uncletopia | Frankfurt | 3 | All Maps","protocol":17,"map":"pl_frontier_final","folder":"tf","game":"Team Fortress","app_id":440,"player_count":0,"max_players":24,"Bots":0,"server_type":"Dedicated","server_os":"Linux","password":true,"vac":true,"version":"7961495","steam_id":85568392924504274,"keywords":["nocrits","nodmgspread","payload","uncletopia"],"game_id":440,"stv_port":27036,"stv_name":"Uncletopia | Frankfurt | 3 | All Maps | STV","players":null},{"server_id":309,"name":"Uncletopia | Frankfurt | 4 | All Maps","name_short":"frk-4","host":"frk-1.de.uncletopia.com","port":27045,"enabled":true,"region":"eu","cc":"de","latitude":50.110924,"longitude":8.682127,"reserved":0,"last_update":"0001-01-01T00:00:00Z","name_a2s":"Uncletopia | Frankfurt | 4 | All Maps","protocol":17,"map":"koth_highpass","folder":"tf","game":"Team Fortress","app_id":440,"player_count":0,"max_players":24,"Bots":0,"server_type":"Dedicated","server_os":"Linux","password":true,"vac":true,"version":"7961495","steam_id":85568392924504275,"keywords":["cp","nocrits","nodmgspread","uncletopia"],"game_id":440,"stv_port":27046,"stv_name":"Uncletopia | Frankfurt | 4 | All Maps | STV","players":null},{"server_id":310,"name":"Uncletopia | Frankfurt | 5 | All Maps","name_short":"frk-5","host":"frk-1.de.uncletopia.com","port":27055,"enabled":true,"region":"eu","cc":"de","latitude":50.110924,"longitude":8.682127,"reserved":0,"last_update":"0001-01-01T00:00:00Z","name_a2s":"Uncletopia | Frankfurt | 5 | All Maps","protocol":17,"map":"pl_badwater","folder":"tf","game":"Team Fortress","app_id":440,"player_count":0,"max_players":24,"Bots":0,"server_type":"Dedicated","server_os":"Linux","password":true,"vac":true,"version":"7961495","steam_id":85568392924504277,"keywords":["nocrits","nodmgspread","payload","uncletopia"],"game_id":440,"stv_port":27056,"stv_name":"Uncletopia | Frankfurt | 5 | All Maps | STV","players":null},{"server_id":311,"name":"Uncletopia | Frankfurt | 6 | All Maps","name_short":"frk-6","host":"frk-1.de.uncletopia.com","port":27065,"enabled":true,"region":"eu","cc":"de","latitude":50.110924,"longitude":8.682127,"reserved":0,"last_update":"0001-01-01T00:00:00Z","name_a2s":"Uncletopia | Frankfurt | 6 | All Maps","protocol":17,"map":"cp_altitude","folder":"tf","game":"Team Fortress","app_id":440,"player_count":0,"max_players":24,"Bots":0,"server_type":"Dedicated","server_os":"Linux","password":true,"vac":true,"version":"7961495","steam_id":85568392924504278,"keywords":["cp","nocrits","nodmgspread","uncletopia"],"game_id":440,"stv_port":27066,"stv_name":"Uncletopia | Frankfurt | 6 | All Maps | STV","players":null},{"server_id":23,"name":"Uncletopia | Frankfurt | 7 | Stopwatch","name_short":"frk-7","host":"frk-1.de.uncletopia.com","port":27075,"enabled":true,"region":"eu","cc":"de","latitude":50.110924,"longitude":8.682127,"reserved":0,"last_update":"0001-01-01T00:00:00Z","name_a2s":"Uncletopia | Frankfurt | 7 | Stopwatch","protocol":17,"map":"pl_frontier_final","folder":"tf","game":"Team Fortress","app_id":440,"player_count":0,"max_players":24,"Bots":0,"server_type":"Dedicated","server_os":"Linux","password":true,"vac":true,"version":"7961495","steam_id":85568392924742827,"keywords":["nocrits","nodmgspread","payload","uncletopia"],"game_id":440,"stv_port":27076,"stv_name":"Uncletopia | Frankfurt | 7 | Stopwatch | STV","players":null},{"server_id":24,"name":"Uncletopia | Frankfurt | 8 | Community","name_short":"frk-8","host":"frk-1.de.uncletopia.com","port":27085,"enabled":true,"region":"eu","cc":"de","latitude":50.110924,"longitude":8.682127,"reserved":0,"last_update":"0001-01-01T00:00:00Z","name_a2s":"Uncletopia | Frankfurt | 8 | Community","protocol":17,"map":"cp_mountainlab","folder":"tf","game":"Team Fortress","app_id":440,"player_count":0,"max_players":24,"Bots":0,"server_type":"Dedicated","server_os":"Linux","password":true,"vac":true,"version":"7961495","steam_id":85568392924742828,"keywords":["cp","nocrits","nodmgspread","uncletopia"],"game_id":440,"stv_port":27086,"stv_name":"Uncletopia | Frankfurt | 8 | Community | STV","players":null},{"server_id":202,"name":"Uncletopia | Hong Kong | 1 | All Maps","name_short":"hgk-1","host":"hgk-1.hk.uncletopia.com","port":27015,"enabled":true,"region":"asia","cc":"hk","latitude":22.302711,"longitude":114.177216,"reserved":0,"last_update":"0001-01-01T00:00:00Z","name_a2s":"Uncletopia | Hong Kong | 1 | All Maps","protocol":17,"map":"cp_altitude","folder":"tf","game":"Team Fortress","app_id":440,"player_count":0,"max_players":24,"Bots":0,"server_type":"Dedicated","server_os":"Linux","password":true,"vac":true,"version":"7961495","steam_id":85568392924494504,"keywords":["cp","nocrits","nodmgspread","uncletopia"],"game_id":440,"stv_port":27016,"stv_name":"Uncletopia | Hong Kong | 1 | All Maps | STV","players":null},{"server_id":1,"name":"Uncletopia | Los Angeles | 1 | All Maps","name_short":"lax-1","host":"lax-1.us.uncletopia.com","port":27015,"enabled":true,"region":"us-west","cc":"us","latitude":33.94279,"longitude":-118.41004,"reserved":0,"last_update":"0001-01-01T00:00:00Z","name_a2s":"Uncletopia | Los Angeles | 1 | All Maps","protocol":17,"map":"pl_upward","folder":"tf","game":"Team Fortress","app_id":440,"player_count":24,"max_players":24,"Bots":0,"server_type":"Dedicated","server_os":"Linux","password":true,"vac":true,"version":"7961495","steam_id":85568392924469991,"keywords":["nocrits","nodmgspread","payload","uncletopia"],"game_id":440,"stv_port":27016,"stv_name":"Uncletopia | Los Angeles | 1 | All Maps | STV","players":[{"user_id":226,"name":"Local Maid","steam_id":76561198143540176,"connected_time":923000000000,"state":"active","ping":58},{"user_id":233,"name":"gabe9230","steam_id":76561198031719993,"connected_time":636000000000,"state":"active","ping":59},{"user_id":204,"name":"Mocha Josie","steam_id":76561198066452726,"connected_time":1635000000000,"state":"active","ping":99},{"user_id":77,"name":"rat","steam_id":76561198130412963,"connected_time":9273000000000,"state":"active","ping":81},{"user_id":236,"name":"Stressmelo","steam_id":76561199204445185,"connected_time":390000000000,"state":"active","ping":120},{"user_id":215,"name":"GrandpappyCripes","steam_id":76561198086994768,"connected_time":1381000000000,"state":"active","ping":46},{"user_id":195,"name":"Malina, The Sour Demon","steam_id":76561198149477443,"connected_time":2270000000000,"state":"active","ping":85},{"user_id":228,"name":"S O U N D W A V E","steam_id":76561198093417449,"connected_time":851000000000,"state":"active","ping":47},{"user_id":193,"name":"BillyKaiju","steam_id":76561198805659769,"connected_time":2450000000000,"state":"active","ping":75},{"user_id":202,"name":"Pixelated Pussy","steam_id":76561198002511088,"connected_time":1770000000000,"state":"active","ping":55},{"user_id":217,"name":"souljaboytellem.com","steam_id":76561198095824426,"connected_time":1279000000000,"state":"active","ping":81},{"user_id":222,"name":"she became a fish","steam_id":76561198062263639,"connected_time":1071000000000,"state":"active","ping":77},{"user_id":185,"name":"Counterpart","steam_id":76561198135030468,"connected_time":2858000000000,"state":"active","ping":47},{"user_id":237,"name":"Tmiracle","steam_id":76561198052375275,"connected_time":359000000000,"state":"active","ping":45},{"user_id":229,"name":"effective. Power لُلُصّب","steam_id":76561198339527138,"connected_time":828000000000,"state":"active","ping":45},{"user_id":235,"name":"cream team","steam_id":76561198139043953,"connected_time":416000000000,"state":"active","ping":80},{"user_id":219,"name":"Mom","steam_id":76561198207936000,"connected_time":1147000000000,"state":"active","ping":48},{"user_id":196,"name":"roach :3","steam_id":76561198354811369,"connected_time":2221000000000,"state":"active","ping":46},{"user_id":231,"name":"Buswolley","steam_id":76561197995205571,"connected_time":758000000000,"state":"active","ping":57},{"user_id":221,"name":"WickedRV","steam_id":76561198889591503,"connected_time":1093000000000,"state":"active","ping":93},{"user_id":232,"name":"tek lintowe fan","steam_id":76561198206177593,"connected_time":688000000000,"state":"active","ping":45},{"user_id":223,"name":"crankshaft","steam_id":76561197992798282,"connected_time":1063000000000,"state":"active","ping":46},{"user_id":191,"name":"Quetzalcoatl","steam_id":76561198094826250,"connected_time":2669000000000,"state":"active","ping":45},{"user_id":224,"name":"shin megami tensei nocturne","steam_id":76561198026563351,"connected_time":1047000000000,"state":"active","ping":43}]},{"server_id":112,"name":"Uncletopia | Los Angeles | 2 | All Maps","name_short":"lax-2","host":"lax-1.us.uncletopia.com","port":27025,"enabled":true,"region":"us-west","cc":"us","latitude":33.94279,"longitude":-118.41004,"reserved":0,"last_update":"0001-01-01T00:00:00Z","name_a2s":"Uncletopia | Los Angeles | 2 | All Maps","protocol":17,"map":"pl_snowycoast","folder":"tf","game":"Team Fortress","app_id":440,"player_count":24,"max_players":24,"Bots":0,"server_type":"Dedicated","server_os":"Linux","password":true,"vac":true,"version":"7961495","steam_id":85568392924469992,"keywords":["nocrits","nodmgspread","payload","uncletopia"],"game_id":440,"stv_port":27026,"stv_name":"Uncletopia | Los Angeles | 2 | All Maps | STV","players":[{"user_id":579,"name":"darkness.danny3481","steam_id":76561198132808002,"connected_time":3632000000000,"state":"active","ping":46},{"user_id":610,"name":"Momiji Pop!","steam_id":76561198039869773,"connected_time":246000000000,"state":"active","ping":46},{"user_id":600,"name":"Alyso","steam_id":76561198151598894,"connected_time":1518000000000,"state":"active","ping":56},{"user_id":586,"name":"nile","steam_id":76561197980035714,"connected_time":3497000000000,"state":"active","ping":89},{"user_id":594,"name":"MoriMorzilla","steam_id":76561198272609196,"connected_time":2702000000000,"state":"active","ping":96},{"user_id":602,"name":"c0ck d1ck ballin","steam_id":76561198095121758,"connected_time":945000000000,"state":"active","ping":56},{"user_id":536,"name":"nym","steam_id":76561198444633925,"connected_time":5866000000000,"state":"active","ping":51},{"user_id":569,"name":"Trevmon90","steam_id":76561198138941667,"connected_time":3922000000000,"state":"active","ping":85},{"user_id":595,"name":"zztempo314","steam_id":76561198202057550,"connected_time":2090000000000,"state":"active","ping":47},{"user_id":609,"name":"Keamy","steam_id":76561199471434875,"connected_time":744000000000,"state":"active","ping":69},{"user_id":599,"name":"bump in the night","steam_id":76561199498563597,"connected_time":1727000000000,"state":"active","ping":111},{"user_id":598,"name":"triph","steam_id":76561198067196509,"connected_time":1894000000000,"state":"active","ping":31},{"user_id":572,"name":"SwitchBlade","steam_id":76561198317730680,"connected_time":3827000000000,"state":"active","ping":87},{"user_id":607,"name":"Scam Likely","steam_id":76561198064154773,"connected_time":882000000000,"state":"active","ping":91},{"user_id":583,"name":"SoCal Kaizer","steam_id":76561198334361081,"connected_time":3609000000000,"state":"active","ping":66},{"user_id":587,"name":"LiquidChicken","steam_id":76561199033828218,"connected_time":3471000000000,"state":"active","ping":82},{"user_id":588,"name":"Spybusters","steam_id":76561198951505681,"connected_time":3457000000000,"state":"active","ping":58},{"user_id":608,"name":"Mayor McCheese","steam_id":76561198073200504,"connected_time":861000000000,"state":"active","ping":63},{"user_id":574,"name":"mercury in my cart","steam_id":76561198357132470,"connected_time":3791000000000,"state":"active","ping":62},{"user_id":545,"name":"HopeTheNeko","steam_id":76561199159285465,"connected_time":5648000000000,"state":"active","ping":61},{"user_id":589,"name":"BoxCann0n","steam_id":76561199153390130,"connected_time":3424000000000,"state":"active","ping":170},{"user_id":606,"name":"Kngiht","steam_id":76561198362220895,"connected_time":912000000000,"state":"active","ping":111},{"user_id":566,"name":"stubowden","steam_id":76561198421175184,"connected_time":4054000000000,"state":"active","ping":70},{"user_id":593,"name":"FROYO b4nny","steam_id":76561197970669109,"connected_time":2890000000000,"state":"active","ping":49}]},{"server_id":324,"name":"Uncletopia | Los Angeles | 3 | All Maps","name_short":"lax-3","host":"lax-1.us.uncletopia.com","port":27035,"enabled":true,"region":"us-west","cc":"us","latitude":33.94279,"longitude":-118.41004,"reserved":0,"last_update":"0001-01-01T00:00:00Z","name_a2s":"Uncletopia | Los Angeles | 3 | All Maps","protocol":17,"map":"pl_frontier_final","folder":"tf","game":"Team Fortress","app_id":440,"player_count":24,"max_players":24,"Bots":0,"server_type":"Dedicated","server_os":"Linux","password":true,"vac":true,"version":"7961495","steam_id":85568392924510198,"keywords":["nocrits","nodmgspread","payload","uncletopia"],"game_id":440,"stv_port":27036,"stv_name":"Uncletopia | Los Angeles | 3 | All Maps | STV","players":[{"user_id":154,"name":"Shabooyaroll-call","steam_id":76561198112306237,"connected_time":577000000000,"state":"active","ping":57},{"user_id":105,"name":"SanitysEdge","steam_id":76561198130732813,"connected_time":4197000000000,"state":"active","ping":45},{"user_id":132,"name":"Phlog Roach","steam_id":76561198111154662,"connected_time":2585000000000,"state":"active","ping":78},{"user_id":152,"name":"KitKat","steam_id":76561198191536489,"connected_time":629000000000,"state":"active","ping":63},{"user_id":157,"name":"S","steam_id":76561198998440538,"connected_time":512000000000,"state":"active","ping":73},{"user_id":142,"name":"exx","steam_id":76561198090552145,"connected_time":1697000000000,"state":"active","ping":47},{"user_id":131,"name":"carib","steam_id":76561198140956099,"connected_time":2601000000000,"state":"active","ping":51},{"user_id":146,"name":"Birby","steam_id":76561198884009768,"connected_time":1448000000000,"state":"active","ping":74},{"user_id":151,"name":"Ralph Kramden (Slim Charles)","steam_id":76561197981687895,"connected_time":939000000000,"state":"active","ping":60},{"user_id":155,"name":"AST Sir Pantoja","steam_id":76561198118858300,"connected_time":576000000000,"state":"active","ping":73},{"user_id":123,"name":"Loamy","steam_id":76561198064183674,"connected_time":3489000000000,"state":"active","ping":39},{"user_id":111,"name":"Ya_Boi_Clapitao","steam_id":76561198274969584,"connected_time":4033000000000,"state":"active","ping":63},{"user_id":102,"name":"Lee?","steam_id":76561199060892634,"connected_time":4817000000000,"state":"active","ping":95},{"user_id":156,"name":"MaDeuce","steam_id":76561198110732835,"connected_time":567000000000,"state":"active","ping":90},{"user_id":138,"name":"Chauncey von Snuffles III","steam_id":76561198021784746,"connected_time":1740000000000,"state":"active","ping":90},{"user_id":149,"name":"The Comedian","steam_id":76561198037780226,"connected_time":1215000000000,"state":"active","ping":45},{"user_id":147,"name":"Milkman Ed","steam_id":76561198386946717,"connected_time":1421000000000,"state":"active","ping":51},{"user_id":113,"name":"Grand Theft Hobby Lobby","steam_id":76561198306384449,"connected_time":3973000000000,"state":"active","ping":99},{"user_id":135,"name":"Manwiththeblue","steam_id":76561198895919404,"connected_time":2247000000000,"state":"active","ping":47},{"user_id":159,"name":"A Blender","steam_id":76561198085439451,"connected_time":46000000000,"state":"active","ping":55},{"user_id":158,"name":"lil uzi squirt","steam_id":76561198045926594,"connected_time":370000000000,"state":"active","ping":68},{"user_id":107,"name":"Removed","steam_id":76561198165413075,"connected_time":4144000000000,"state":"active","ping":70},{"user_id":140,"name":"monkeyclicker","steam_id":76561198095113674,"connected_time":1723000000000,"state":"active","ping":66},{"user_id":139,"name":"\"Chucklenuts\"","steam_id":76561199375501871,"connected_time":1737000000000,"state":"active","ping":56}]},{"server_id":25,"name":"Uncletopia | Los Angeles | 4 | Stopwatch","name_short":"lax-4","host":"lax-1.us.uncletopia.com","port":27045,"enabled":true,"region":"us-west","cc":"us","latitude":33.94279,"longitude":-118.41004,"reserved":0,"last_update":"0001-01-01T00:00:00Z","name_a2s":"Uncletopia | Los Angeles | 4 | Stopwatch","protocol":17,"map":"koth_lakeside_final","folder":"tf","game":"Team Fortress","app_id":440,"player_count":0,"max_players":24,"Bots":0,"server_type":"Dedicated","server_os":"Linux","password":true,"vac":true,"version":"7961495","steam_id":85568392924510199,"keywords":["cp","nocrits","nodmgspread","uncletopia"],"game_id":440,"stv_port":27046,"stv_name":"Uncletopia | Los Angeles | 4 | Stopwatch | STV","players":null},{"server_id":11,"name":"Uncletopia | London | 1 | All Maps","name_short":"lon-1","host":"lon-1.uk.uncletopia.com","port":27015,"enabled":true,"region":"eu","cc":"gb","latitude":51.509865,"longitude":-0.118092,"reserved":0,"last_update":"0001-01-01T00:00:00Z","name_a2s":"Uncletopia | London | 1 | All Maps","protocol":17,"map":"pl_borneo","folder":"tf","game":"Team Fortress","app_id":440,"player_count":0,"max_players":24,"Bots":0,"server_type":"Dedicated","server_os":"Linux","password":true,"vac":true,"version":"7961495","steam_id":85568392924367362,"keywords":["nocrits","nodmgspread","payload","uncletopia"],"game_id":440,"stv_port":27016,"stv_name":"Uncletopia | London | 1 | All Maps | STV","players":null},{"server_id":114,"name":"Uncletopia | London | 2 | All Maps","name_short":"lon-2","host":"lon-1.uk.uncletopia.com","port":27025,"enabled":true,"region":"eu","cc":"gb","latitude":51.509865,"longitude":-0.118092,"reserved":0,"last_update":"0001-01-01T00:00:00Z","name_a2s":"Uncletopia | London | 2 | All Maps","protocol":17,"map":"koth_lakeside_final","folder":"tf","game":"Team Fortress","app_id":440,"player_count":0,"max_players":24,"Bots":0,"server_type":"Dedicated","server_os":"Linux","password":true,"vac":true,"version":"7961495","steam_id":85568392924470941,"keywords":["cp","nocrits","nodmgspread","uncletopia"],"game_id":440,"stv_port":27026,"stv_name":"Uncletopia | London | 2 | All Maps | STV","players":null},{"server_id":320,"name":"Uncletopia | London | 3 | All Maps","name_short":"lon-3","host":"lon-1.uk.uncletopia.com","port":27035,"enabled":true,"region":"eu","cc":"gb","latitude":51.509865,"longitude":-0.118092,"reserved":0,"last_update":"0001-01-01T00:00:00Z","name_a2s":"Uncletopia | London | 3 | All Maps","protocol":17,"map":"pl_upward","folder":"tf","game":"Team Fortress","app_id":440,"player_count":0,"max_players":24,"Bots":0,"server_type":"Dedicated","server_os":"Linux","password":true,"vac":true,"version":"7961495","steam_id":85568392924510192,"keywords":["nocrits","nodmgspread","payload","uncletopia"],"game_id":440,"stv_port":27036,"stv_name":"Uncletopia | London | 3 | All Maps | STV","players":null},{"server_id":321,"name":"Uncletopia | London | 4 | All Maps","name_short":"lon-4","host":"lon-1.uk.uncletopia.com","port":27045,"enabled":true,"region":"eu","cc":"gb","latitude":51.509865,"longitude":-0.118092,"reserved":0,"last_update":"0001-01-01T00:00:00Z","name_a2s":"Uncletopia | London | 4 | All Maps","protocol":17,"map":"koth_viaduct","folder":"tf","game":"Team Fortress","app_id":440,"player_count":0,"max_players":24,"Bots":0,"server_type":"Dedicated","server_os":"Linux","password":true,"vac":true,"version":"7961495","steam_id":85568392924510193,"keywords":["cp","nocrits","nodmgspread","uncletopia"],"game_id":440,"stv_port":27046,"stv_name":"Uncletopia | London | 4 | All Maps | STV","players":null},{"server_id":21,"name":"Uncletopia | London | 5 | All Maps","name_short":"lon-5","host":"lon-1.uk.uncletopia.com","port":27055,"enabled":true,"region":"eu","cc":"gb","latitude":51.509865,"longitude":-0.118092,"reserved":0,"last_update":"0001-01-01T00:00:00Z","name_a2s":"Uncletopia | London | 5 | All Maps","protocol":17,"map":"cp_sunshine","folder":"tf","game":"Team Fortress","app_id":440,"player_count":0,"max_players":24,"Bots":0,"server_type":"Dedicated","server_os":"Linux","password":true,"vac":true,"version":"7961495","steam_id":85568392924742829,"keywords":["cp","nocrits","nodmgspread","uncletopia"],"game_id":440,"stv_port":27056,"stv_name":"Uncletopia | London | 5 | All Maps | STV","players":null},{"server_id":22,"name":"Uncletopia | London | 6 | All Maps","name_short":"lon-6","host":"lon-1.uk.uncletopia.com","port":27065,"enabled":true,"region":"eu","cc":"gb","latitude":51.509865,"longitude":-0.118092,"reserved":0,"last_update":"0001-01-01T00:00:00Z","name_a2s":"Uncletopia | London | 6 | All Maps","protocol":17,"map":"cp_process_final","folder":"tf","game":"Team Fortress","app_id":440,"player_count":24,"max_players":24,"Bots":0,"server_type":"Dedicated","server_os":"Linux","password":true,"vac":true,"version":"7961495","steam_id":85568392924742830,"keywords":["cp","nocrits","nodmgspread","uncletopia"],"game_id":440,"stv_port":27066,"stv_name":"Uncletopia | London | 6 | All Maps | STV","players":[{"user_id":702,"name":"farmakolog","steam_id":76561198129153029,"connected_time":3078000000000,"state":"active","ping":74},{"user_id":669,"name":"♂Kipu♂","steam_id":76561198046239061,"connected_time":6283000000000,"state":"active","ping":79},{"user_id":704,"name":"Felwo3","steam_id":76561199217352978,"connected_time":2897000000000,"state":"active","ping":94},{"user_id":725,"name":"M7MD3BD0","steam_id":76561199072750769,"connected_time":402000000000,"state":"active","ping":104},{"user_id":730,"name":"LeonCactus","steam_id":76561198102360825,"connected_time":252000000000,"state":"active","ping":55},{"user_id":683,"name":"Guppy","steam_id":76561198135398757,"connected_time":4610000000000,"state":"active","ping":51},{"user_id":714,"name":"beebo","steam_id":76561199120277007,"connected_time":1372000000000,"state":"active","ping":45},{"user_id":685,"name":"Penis Contortionist","steam_id":76561198073663784,"connected_time":4565000000000,"state":"active","ping":33},{"user_id":724,"name":"schubbert","steam_id":76561198346638308,"connected_time":439000000000,"state":"active","ping":51},{"user_id":703,"name":"tired","steam_id":76561198046838168,"connected_time":2976000000000,"state":"active","ping":60},{"user_id":706,"name":"wermachter","steam_id":76561198253843533,"connected_time":2536000000000,"state":"active","ping":72},{"user_id":728,"name":"dirty rascal","steam_id":76561198000871038,"connected_time":340000000000,"state":"active","ping":47},{"user_id":733,"name":"-","steam_id":76561198382509396,"connected_time":150000000000,"state":"active","ping":58},{"user_id":699,"name":"❤Mr.M❤","steam_id":76561198071053911,"connected_time":3752000000000,"state":"active","ping":59},{"user_id":689,"name":"Marker06","steam_id":76561198277310442,"connected_time":4424000000000,"state":"active","ping":73},{"user_id":718,"name":"Beanie","steam_id":76561198173882658,"connected_time":858000000000,"state":"active","ping":45},{"user_id":729,"name":"yup das a clip","steam_id":76561198010662796,"connected_time":332000000000,"state":"active","ping":46},{"user_id":713,"name":"jmp","steam_id":76561198168283286,"connected_time":1563000000000,"state":"active","ping":75},{"user_id":705,"name":"Chippo","steam_id":76561198343198306,"connected_time":2694000000000,"state":"active","ping":64},{"user_id":707,"name":"henrik2357","steam_id":76561199499721991,"connected_time":2529000000000,"state":"active","ping":88},{"user_id":731,"name":"Keegan","steam_id":76561198051325763,"connected_time":213000000000,"state":"active","ping":90},{"user_id":710,"name":"whimsy.","steam_id":76561198878171763,"connected_time":2323000000000,"state":"active","ping":49},{"user_id":663,"name":"Nittugai","steam_id":76561198067366462,"connected_time":6836000000000,"state":"active","ping":60},{"user_id":700,"name":"MuchoBroke","steam_id":76561199389474207,"connected_time":3735000000000,"state":"active","ping":46}]},{"server_id":40,"name":"Uncletopia | London | 7 | Stopwatch","name_short":"lon-7","host":"lon-1.uk.uncletopia.com","port":27075,"enabled":true,"region":"eu","cc":"gb","latitude":51.509865,"longitude":-0.118092,"reserved":0,"last_update":"0001-01-01T00:00:00Z","name_a2s":"Uncletopia | London | 7 | Stopwatch","protocol":17,"map":"workshop/koth_product_final.ugc454272353","folder":"tf","game":"Team Fortress","app_id":440,"player_count":0,"max_players":24,"Bots":0,"server_type":"Dedicated","server_os":"Linux","password":true,"vac":true,"version":"7961495","steam_id":85568392924964314,"keywords":["cp","nocrits","nodmgspread","uncletopia"],"game_id":440,"stv_port":27076,"stv_name":"Uncletopia | London | 7 | Stopwatch | STV","players":null},{"server_id":41,"name":"Uncletopia | London | 8 | Community","name_short":"lon-8","host":"lon-1.uk.uncletopia.com","port":27085,"enabled":true,"region":"eu","cc":"gb","latitude":51.509865,"longitude":-0.118092,"reserved":0,"last_update":"0001-01-01T00:00:00Z","name_a2s":"Uncletopia | London | 8 | Community","protocol":17,"map":"workshop/pl_shoreleave_rc2.ugc1238849347","folder":"tf","game":"Team Fortress","app_id":440,"player_count":0,"max_players":24,"Bots":0,"server_type":"Dedicated","server_os":"Linux","password":true,"vac":true,"version":"7961495","steam_id":85568392924964315,"keywords":["nocrits","nodmgspread","payload","uncletopia"],"game_id":440,"stv_port":27086,"stv_name":"Uncletopia | London | 8 | Community | STV","players":null},{"server_id":300,"name":"Uncletopia | Montréal | 1 | One Thousand Uncles","name_short":"mtl-1","host":"mtl-1.ca.uncletopia.com","port":27015,"enabled":true,"region":"us-east","cc":"ca","latitude":45.50889,"longitude":-73.56167,"reserved":0,"last_update":"0001-01-01T00:00:00Z","name_a2s":"","protocol":0,"map":"","folder":"","game":"","app_id":0,"player_count":0,"max_players":0,"Bots":0,"server_type":"","server_os":"","password":false,"vac":false,"version":"","steam_id":0,"keywords":null,"game_id":0,"stv_port":0,"stv_name":"","players":null},{"server_id":301,"name":"Uncletopia | Montréal | 2 | One Thousand Uncles","name_short":"mtl-2","host":"mtl-1.ca.uncletopia.com","port":27025,"enabled":true,"region":"us-east","cc":"ca","latitude":45.50889,"longitude":-73.56167,"reserved":0,"last_update":"0001-01-01T00:00:00Z","name_a2s":"","protocol":0,"map":"","folder":"","game":"","app_id":0,"player_count":0,"max_players":0,"Bots":0,"server_type":"","server_os":"","password":false,"vac":false,"version":"","steam_id":0,"keywords":null,"game_id":0,"stv_port":0,"stv_name":"","players":null},{"server_id":302,"name":"Uncletopia | Montréal | 3 | One Thousand Uncles","name_short":"mtl-3","host":"mtl-1.ca.uncletopia.com","port":27035,"enabled":true,"region":"us-east","cc":"ca","latitude":45.50889,"longitude":-73.56167,"reserved":0,"last_update":"0001-01-01T00:00:00Z","name_a2s":"","protocol":0,"map":"","folder":"","game":"","app_id":0,"player_count":0,"max_players":0,"Bots":0,"server_type":"","server_os":"","password":false,"vac":false,"version":"","steam_id":0,"keywords":null,"game_id":0,"stv_port":0,"stv_name":"","players":null},{"server_id":13,"name":"Uncletopia | New York City | 1 | All Maps","name_short":"nyc-1","host":"nyc-1.us.uncletopia.com","port":27015,"enabled":true,"region":"us-east","cc":"us","latitude":40.73061,"longitude":-73.93524,"reserved":0,"last_update":"0001-01-01T00:00:00Z","name_a2s":"Uncletopia | New York City | 1 | All Maps","protocol":17,"map":"cp_sunshine","folder":"tf","game":"Team Fortress","app_id":440,"player_count":15,"max_players":24,"Bots":0,"server_type":"Dedicated","server_os":"Linux","password":true,"vac":true,"version":"7961495","steam_id":85568392924469993,"keywords":["cp","nocrits","nodmgspread","uncletopia"],"game_id":440,"stv_port":27016,"stv_name":"Uncletopia | New York City | 1 | All Maps | STV","players":[{"user_id":585,"name":"warren","steam_id":76561198136331136,"connected_time":2071000000000,"state":"active","ping":76},{"user_id":586,"name":"UnlivingSkunk","steam_id":76561198324517387,"connected_time":2013000000000,"state":"active","ping":47},{"user_id":605,"name":"St. Michael","steam_id":76561198037611052,"connected_time":288000000000,"state":"active","ping":86},{"user_id":534,"name":"TheGuyWhoPlays","steam_id":76561198277363002,"connected_time":6308000000000,"state":"active","ping":64},{"user_id":607,"name":"Dr.CandyCane","steam_id":76561199238207915,"connected_time":30000000000,"state":"spawning","ping":147},{"user_id":589,"name":"L + Maidenless + Tarnished","steam_id":76561198978605490,"connected_time":1647000000000,"state":"active","ping":30},{"user_id":569,"name":"Scorp","steam_id":76561198070619615,"connected_time":3196000000000,"state":"active","ping":53},{"user_id":577,"name":"ROGUE-PLANET","steam_id":76561198116023052,"connected_time":2548000000000,"state":"active","ping":85},{"user_id":595,"name":"Agent Orange Soda","steam_id":76561198099296029,"connected_time":1332000000000,"state":"active","ping":75},{"user_id":579,"name":"He rolls his own","steam_id":76561198058162684,"connected_time":2455000000000,"state":"active","ping":62},{"user_id":604,"name":"Mister Merica","steam_id":76561198042310916,"connected_time":392000000000,"state":"active","ping":65},{"user_id":571,"name":"Lemoncurry","steam_id":76561198045356414,"connected_time":3124000000000,"state":"active","ping":86},{"user_id":557,"name":"y!","steam_id":76561199342162423,"connected_time":4561000000000,"state":"active","ping":65},{"user_id":601,"name":"jorjor wells","steam_id":76561199073429082,"connected_time":557000000000,"state":"active","ping":57},{"user_id":602,"name":"Dick Ligma","steam_id":76561198211013200,"connected_time":467000000000,"state":"active","ping":75}]},{"server_id":14,"name":"Uncletopia | New York City | 2 | All Maps","name_short":"nyc-2","host":"nyc-1.us.uncletopia.com","port":27025,"enabled":true,"region":"us-east","cc":"us","latitude":40.73061,"longitude":-73.93524,"reserved":0,"last_update":"0001-01-01T00:00:00Z","name_a2s":"Uncletopia | New York City | 2 | All Maps","protocol":17,"map":"pl_snowycoast","folder":"tf","game":"Team Fortress","app_id":440,"player_count":22,"max_players":24,"Bots":0,"server_type":"Dedicated","server_os":"Linux","password":true,"vac":true,"version":"7961495","steam_id":85568392924469994,"keywords":["nocrits","nodmgspread","payload","uncletopia"],"game_id":440,"stv_port":27026,"stv_name":"Uncletopia | New York City | 2 | All Maps | STV","players":[{"user_id":433,"name":"Primitive","steam_id":76561198060500671,"connected_time":7962000000000,"state":"active","ping":42},{"user_id":513,"name":"ndvr","steam_id":76561199379200102,"connected_time":24000000000,"state":"active","ping":42},{"user_id":514,"name":"Liquid","steam_id":76561198062936062,"connected_time":3000000000,"state":"spawning","ping":60},{"user_id":441,"name":"Onix","steam_id":76561198043256782,"connected_time":6602000000000,"state":"active","ping":75},{"user_id":509,"name":"Fish Fisherman","steam_id":76561198018656022,"connected_time":420000000000,"state":"active","ping":46},{"user_id":487,"name":"Big Bill Haywood","steam_id":76561198142290733,"connected_time":2547000000000,"state":"active","ping":55},{"user_id":485,"name":"medd","steam_id":76561198078238722,"connected_time":2870000000000,"state":"active","ping":121},{"user_id":477,"name":"Yoshi's Dad","steam_id":76561198066819216,"connected_time":3676000000000,"state":"active","ping":123},{"user_id":429,"name":"Geodude","steam_id":76561198113364714,"connected_time":8155000000000,"state":"active","ping":48},{"user_id":500,"name":"♫ Gay Piano Noises ♫","steam_id":76561198115033251,"connected_time":1634000000000,"state":"active","ping":55},{"user_id":498,"name":"com lag","steam_id":76561198019019392,"connected_time":2080000000000,"state":"active","ping":70},{"user_id":488,"name":"daemon","steam_id":76561198001541433,"connected_time":2541000000000,"state":"active","ping":74},{"user_id":395,"name":"Strange Festive Femboy","steam_id":76561198050385093,"connected_time":10631000000000,"state":"active","ping":62},{"user_id":476,"name":"--_Cook_--","steam_id":76561198080855748,"connected_time":3694000000000,"state":"active","ping":59},{"user_id":501,"name":"NovaSc6ut","steam_id":76561198277163301,"connected_time":1629000000000,"state":"active","ping":75},{"user_id":502,"name":"tailorturtle","steam_id":76561198107481127,"connected_time":1619000000000,"state":"active","ping":54},{"user_id":497,"name":"dietcokefan42","steam_id":76561198135307995,"connected_time":2164000000000,"state":"active","ping":55},{"user_id":492,"name":"RFK","steam_id":76561198143826450,"connected_time":2400000000000,"state":"active","ping":70},{"user_id":511,"name":"ZBeth Best","steam_id":76561198101890770,"connected_time":233000000000,"state":"active","ping":57},{"user_id":510,"name":"(VoodooMagicGuy)","steam_id":76561198271653436,"connected_time":399000000000,"state":"active","ping":73},{"user_id":512,"name":"Pomegranate88","steam_id":76561198056385456,"connected_time":91000000000,"state":"active","ping":60},{"user_id":507,"name":"Bullahorns","steam_id":76561197997138052,"connected_time":941000000000,"state":"active","ping":84}]},{"server_id":15,"name":"Uncletopia | New York City | 3 | Stopwatch","name_short":"nyc-3","host":"nyc-1.us.uncletopia.com","port":27035,"enabled":true,"region":"us-east","cc":"us","latitude":40.73061,"longitude":-73.93524,"reserved":0,"last_update":"0001-01-01T00:00:00Z","name_a2s":"Uncletopia | New York City | 3 | Stopwatch","protocol":17,"map":"workshop/koth_ashville_final.ugc2130459942","folder":"tf","game":"Team Fortress","app_id":440,"player_count":0,"max_players":24,"Bots":0,"server_type":"Dedicated","server_os":"Linux","password":true,"vac":true,"version":"7961495","steam_id":85568392924742820,"keywords":["cp","nocrits","nodmgspread","uncletopia"],"game_id":440,"stv_port":27036,"stv_name":"Uncletopia | New York City | 3 | Stopwatch | STV","players":null},{"server_id":16,"name":"Uncletopia | New York City | 4 | Community","name_short":"nyc-4","host":"nyc-1.us.uncletopia.com","port":27045,"enabled":true,"region":"us-east","cc":"us","latitude":40.73061,"longitude":-73.93524,"reserved":0,"last_update":"0001-01-01T00:00:00Z","name_a2s":"Uncletopia | New York City | 4 | Community","protocol":17,"map":"workshop/rd_asteroid_redux_b1.ugc2154902912","folder":"tf","game":"Team Fortress","app_id":440,"player_count":0,"max_players":24,"Bots":0,"server_type":"Dedicated","server_os":"Linux","password":true,"vac":true,"version":"7961495","steam_id":85568392924742821,"keywords":["beta","nocrits","nodmgspread","rd","uncletopia"],"game_id":440,"stv_port":27046,"stv_name":"Uncletopia | New York City | 4 | Community | STV","players":null},{"server_id":142,"name":"Uncletopia | São Paulo | 1 | All Maps","name_short":"sao-1","host":"sao-1.br.uncletopia.com","port":27015,"enabled":true,"region":"sa","cc":"br","latitude":-23.533773,"longitude":-46.62529,"reserved":0,"last_update":"0001-01-01T00:00:00Z","name_a2s":"Uncletopia | São Paulo | 1 | All Maps","protocol":17,"map":"koth_highpass","folder":"tf","game":"Team Fortress","app_id":440,"player_count":0,"max_players":24,"Bots":0,"server_type":"Dedicated","server_os":"Linux","password":true,"vac":true,"version":"7961495","steam_id":85568392924469996,"keywords":["cp","nocrits","nodmgspread","uncletopia"],"game_id":440,"stv_port":27016,"stv_name":"Uncletopia | São Paulo | 1 | All Maps | STV","players":null},{"server_id":143,"name":"Uncletopia | São Paulo | 2 | Community","name_short":"sao-2","host":"sao-2.br.uncletopia.com","port":27015,"enabled":true,"region":"sa","cc":"br","latitude":-23.533773,"longitude":-46.62529,"reserved":0,"last_update":"0001-01-01T00:00:00Z","name_a2s":"Uncletopia | São Paulo | 2 | Community","protocol":17,"map":"workshop/pl_boundary_final1.ugc456799153","folder":"tf","game":"Team Fortress","app_id":440,"player_count":0,"max_players":24,"Bots":0,"server_type":"Dedicated","server_os":"Linux","password":true,"vac":true,"version":"7961495","steam_id":85568392924485349,"keywords":["nocrits","nodmgspread","payload","uncletopia"],"game_id":440,"stv_port":27016,"stv_name":"Uncletopia | São Paulo | 2 | Community | STV","players":null},{"server_id":7,"name":"Uncletopia | Seattle | 1 | All Maps","name_short":"sea-1","host":"sea-1.us.uncletopia.com","port":27015,"enabled":true,"region":"us-west","cc":"us","latitude":47.608013,"longitude":-122.33517,"reserved":0,"last_update":"0001-01-01T00:00:00Z","name_a2s":"Uncletopia | Seattle | 1 | All Maps","protocol":17,"map":"pl_thundermountain","folder":"tf","game":"Team Fortress","app_id":440,"player_count":25,"max_players":24,"Bots":0,"server_type":"Dedicated","server_os":"Linux","password":true,"vac":true,"version":"7961495","steam_id":85568392924469997,"keywords":["nocrits","nodmgspread","payload","uncletopia"],"game_id":440,"stv_port":27016,"stv_name":"Uncletopia | Seattle | 1 | All Maps | STV","players":[{"user_id":376,"name":"Sweets","steam_id":76561198998446307,"connected_time":7464000000000,"state":"active","ping":70},{"user_id":804,"name":"habanero chilli pepper","steam_id":76561197970371943,"connected_time":537000000000,"state":"active","ping":175},{"user_id":572,"name":"fragadelphia","steam_id":76561198066116363,"connected_time":3640000000000,"state":"active","ping":45},{"user_id":805,"name":"Havi","steam_id":76561198197832829,"connected_time":509000000000,"state":"active","ping":46},{"user_id":591,"name":"Pneumo.","steam_id":76561197987911883,"connected_time":3303000000000,"state":"active","ping":54},{"user_id":799,"name":"finniboys","steam_id":76561198333287995,"connected_time":694000000000,"state":"active","ping":46},{"user_id":652,"name":"b","steam_id":76561198059604047,"connected_time":2410000000000,"state":"active","ping":39},{"user_id":484,"name":"WillieMakit","steam_id":76561197985391684,"connected_time":5170000000000,"state":"active","ping":90},{"user_id":548,"name":"Daz","steam_id":76561198041431938,"connected_time":4093000000000,"state":"active","ping":54},{"user_id":806,"name":"CRT Cutie","steam_id":76561198055970193,"connected_time":507000000000,"state":"active","ping":112},{"user_id":639,"name":"Lord Hater","steam_id":76561199158148782,"connected_time":2574000000000,"state":"active","ping":61},{"user_id":811,"name":"ed","steam_id":76561198080475712,"connected_time":468000000000,"state":"active","ping":68},{"user_id":653,"name":"lusty","steam_id":76561198138478947,"connected_time":2409000000000,"state":"active","ping":44},{"user_id":809,"name":"NEBULA","steam_id":76561198086878595,"connected_time":478000000000,"state":"active","ping":75},{"user_id":654,"name":"Loogus","steam_id":76561198811561721,"connected_time":2406000000000,"state":"active","ping":90},{"user_id":807,"name":"ctap 2 the Jewler","steam_id":76561198169755734,"connected_time":500000000000,"state":"active","ping":61},{"user_id":808,"name":"Deserted","steam_id":76561198842914276,"connected_time":485000000000,"state":"active","ping":72},{"user_id":638,"name":"Sniff","steam_id":76561198010270922,"connected_time":2580000000000,"state":"active","ping":75},{"user_id":383,"name":"PvZ Enthusiast","steam_id":76561199089562026,"connected_time":6934000000000,"state":"active","ping":39},{"user_id":571,"name":"worker","steam_id":76561198039608940,"connected_time":3647000000000,"state":"active","ping":56},{"user_id":812,"name":"Cheezbeargur","steam_id":76561198164702899,"connected_time":455000000000,"state":"active","ping":65},{"user_id":421,"name":"Ayayayayayayayayahuasca","steam_id":76561199002906056,"connected_time":6100000000000,"state":"active","ping":52},{"user_id":648,"name":"John Calibur","steam_id":76561197999986606,"connected_time":2455000000000,"state":"active","ping":74},{"user_id":527,"name":"hazel","steam_id":76561198037292232,"connected_time":4553000000000,"state":"active","ping":126},{"user_id":813,"name":"Dog","steam_id":76561198041841128,"connected_time":437000000000,"state":"active","ping":88}]},{"server_id":119,"name":"Uncletopia | Seattle | 2 | All Maps","name_short":"sea-2","host":"sea-1.us.uncletopia.com","port":27025,"enabled":true,"region":"us-west","cc":"us","latitude":47.608013,"longitude":-122.33517,"reserved":0,"last_update":"0001-01-01T00:00:00Z","name_a2s":"Uncletopia | Seattle | 2 | All Maps","protocol":17,"map":"cp_steel","folder":"tf","game":"Team Fortress","app_id":440,"player_count":14,"max_players":24,"Bots":0,"server_type":"Dedicated","server_os":"Linux","password":true,"vac":true,"version":"7961495","steam_id":85568392924469998,"keywords":["cp","nocrits","nodmgspread","uncletopia"],"game_id":440,"stv_port":27026,"stv_name":"Uncletopia | Seattle | 2 | All Maps | STV","players":[{"user_id":263,"name":"𝒯𝒽𝒾𝓇𝓉𝓎 𝒩\ufffd\ufffd","steam_id":76561198111878431,"connected_time":279000000000,"state":"active","ping":52},{"user_id":264,"name":"Saggle","steam_id":76561198056075147,"connected_time":259000000000,"state":"active","ping":165},{"user_id":265,"name":"Leidon","steam_id":76561198078386945,"connected_time":138000000000,"state":"active","ping":65},{"user_id":192,"name":"R5-D4","steam_id":76561198025196439,"connected_time":3468000000000,"state":"active","ping":48},{"user_id":266,"name":"vacachimuela","steam_id":76561198297332421,"connected_time":79000000000,"state":"active","ping":55},{"user_id":253,"name":"WaffleWithNoToppings","steam_id":76561199088280111,"connected_time":1034000000000,"state":"active","ping":45},{"user_id":257,"name":"Aloafofbread","steam_id":76561198160526290,"connected_time":509000000000,"state":"active","ping":48},{"user_id":267,"name":"clue","steam_id":76561198299379768,"connected_time":25000000000,"state":"active","ping":41},{"user_id":197,"name":"Canuck","steam_id":76561197999152255,"connected_time":3276000000000,"state":"active","ping":55},{"user_id":268,"name":"submarinetransmissionplot","steam_id":76561198419896433,"connected_time":11000000000,"state":"active","ping":156},{"user_id":202,"name":"a familiar cat","steam_id":76561198080046542,"connected_time":3009000000000,"state":"active","ping":46},{"user_id":224,"name":"ilun","steam_id":76561198042913843,"connected_time":1996000000000,"state":"active","ping":50},{"user_id":219,"name":"Drone #0432 (they/it)","steam_id":76561198027321950,"connected_time":2611000000000,"state":"active","ping":38},{"user_id":261,"name":"0","steam_id":76561198176454023,"connected_time":357000000000,"state":"active","ping":32}]},{"server_id":406,"name":"Uncletopia | Seattle | 3 | Stopwatch","name_short":"sea-3","host":"sea-1.us.uncletopia.com","port":27035,"enabled":true,"region":"us-west","cc":"us","latitude":47.608013,"longitude":-122.33517,"reserved":0,"last_update":"0001-01-01T00:00:00Z","name_a2s":"Uncletopia | Seattle | 3 | Stopwatch","protocol":17,"map":"workshop/koth_ashville_final.ugc2130459942","folder":"tf","game":"Team Fortress","app_id":440,"player_count":0,"max_players":24,"Bots":0,"server_type":"Dedicated","server_os":"Linux","password":true,"vac":true,"version":"7961495","steam_id":85568392924515217,"keywords":["cp","nocrits","nodmgspread","uncletopia"],"game_id":440,"stv_port":27036,"stv_name":"Uncletopia | Seattle | 3 | Stopwatch | STV","players":null},{"server_id":17,"name":"Uncletopia | San Francisco | 1 | All Maps","name_short":"sfo-1","host":"sfo-1.us.uncletopia.com","port":27015,"enabled":true,"region":"us-west","cc":"us","latitude":37.77397,"longitude":-122.4313,"reserved":0,"last_update":"0001-01-01T00:00:00Z","name_a2s":"Uncletopia | San Francisco | 1 | All Maps","protocol":17,"map":"pl_pier","folder":"tf","game":"Team Fortress","app_id":440,"player_count":12,"max_players":24,"Bots":0,"server_type":"Dedicated","server_os":"Linux","password":true,"vac":true,"version":"7961495","steam_id":85568392924469999,"keywords":["nocrits","nodmgspread","payload","uncletopia"],"game_id":440,"stv_port":27016,"stv_name":"Uncletopia | San Francisco | 1 | All Maps | STV","players":[{"user_id":145,"name":"Kanye Asada","steam_id":76561198186678831,"connected_time":249000000000,"state":"active","ping":68},{"user_id":147,"name":"tacofever","steam_id":76561198010966507,"connected_time":220000000000,"state":"active","ping":57},{"user_id":142,"name":"SpeedEagle","steam_id":76561198092623489,"connected_time":395000000000,"state":"active","ping":78},{"user_id":143,"name":"Grand Piano Tuna","steam_id":76561198135137213,"connected_time":375000000000,"state":"active","ping":91},{"user_id":82,"name":"deadpixel","steam_id":76561198150249843,"connected_time":6541000000000,"state":"active","ping":91},{"user_id":144,"name":"mafia is mafia","steam_id":76561198042574722,"connected_time":267000000000,"state":"active","ping":66},{"user_id":84,"name":"melon soda","steam_id":76561198066748230,"connected_time":6513000000000,"state":"active","ping":105},{"user_id":108,"name":"erm what the scallop???","steam_id":76561198338610196,"connected_time":3730000000000,"state":"active","ping":72},{"user_id":146,"name":"Fidel Castro","steam_id":76561199057899661,"connected_time":246000000000,"state":"active","ping":57},{"user_id":128,"name":"Throws Before Bros󠀡","steam_id":76561197992905530,"connected_time":1981000000000,"state":"active","ping":54},{"user_id":112,"name":"Phil Collins","steam_id":76561198068868644,"connected_time":3400000000000,"state":"active","ping":59},{"user_id":68,"name":"buhers256","steam_id":76561198927077674,"connected_time":7646000000000,"state":"active","ping":42}]},{"server_id":18,"name":"Uncletopia | San Francisco | 2 | All Maps","name_short":"sfo-2","host":"sfo-1.us.uncletopia.com","port":27025,"enabled":true,"region":"us-west","cc":"us","latitude":37.77397,"longitude":-122.4313,"reserved":0,"last_update":"0001-01-01T00:00:00Z","name_a2s":"Uncletopia | San Francisco | 2 | All Maps","protocol":17,"map":"cp_process_final","folder":"tf","game":"Team Fortress","app_id":440,"player_count":0,"max_players":24,"Bots":0,"server_type":"Dedicated","server_os":"Linux","password":true,"vac":true,"version":"7961495","steam_id":85568392924470000,"keywords":["cp","nocrits","nodmgspread","uncletopia"],"game_id":440,"stv_port":27026,"stv_name":"Uncletopia | San Francisco | 2 | All Maps | STV","players":null},{"server_id":19,"name":"Uncletopia | San Francisco | 3 | Stopwatch","name_short":"sfo-3","host":"sfo-1.us.uncletopia.com","port":27035,"enabled":true,"region":"us-west","cc":"us","latitude":37.77397,"longitude":-122.4313,"reserved":0,"last_update":"0001-01-01T00:00:00Z","name_a2s":"Uncletopia | San Francisco | 3 | Stopwatch","protocol":17,"map":"pl_pier","folder":"tf","game":"Team Fortress","app_id":440,"player_count":0,"max_players":24,"Bots":0,"server_type":"Dedicated","server_os":"Linux","password":true,"vac":true,"version":"7961495","steam_id":85568392924742824,"keywords":["nocrits","nodmgspread","payload","uncletopia"],"game_id":440,"stv_port":27036,"stv_name":"Uncletopia | San Francisco | 3 | Stopwatch | STV","players":null},{"server_id":20,"name":"Uncletopia | San Francisco | 4 | Community","name_short":"sfo-4","host":"sfo-1.us.uncletopia.com","port":27045,"enabled":true,"region":"us-west","cc":"us","latitude":37.77397,"longitude":-122.4313,"reserved":0,"last_update":"0001-01-01T00:00:00Z","name_a2s":"Uncletopia | San Francisco | 4 | Community","protocol":17,"map":"workshop/koth_trenchfoot_ab1.ugc731436616","folder":"tf","game":"Team Fortress","app_id":440,"player_count":0,"max_players":24,"Bots":0,"server_type":"Dedicated","server_os":"Linux","password":true,"vac":true,"version":"7961495","steam_id":85568392924742826,"keywords":["cp","nocrits","nodmgspread","uncletopia"],"game_id":440,"stv_port":27046,"stv_name":"Uncletopia | San Francisco | 4 | Community | STV","players":null},{"server_id":141,"name":"Uncletopia | Sydney | 1 | All Maps","name_short":"syd-1","host":"syd-1.au.uncletopia.com","port":27015,"enabled":true,"region":"au","cc":"au","latitude":-33.865143,"longitude":151.2099,"reserved":0,"last_update":"0001-01-01T00:00:00Z","name_a2s":"Uncletopia | Sydney | 1 | All Maps","protocol":17,"map":"koth_viaduct","folder":"tf","game":"Team Fortress","app_id":440,"player_count":0,"max_players":24,"Bots":0,"server_type":"Dedicated","server_os":"Linux","password":true,"vac":true,"version":"7961495","steam_id":85568392924470001,"keywords":["cp","nocrits","nodmgspread","uncletopia"],"game_id":440,"stv_port":27016,"stv_name":"Uncletopia | Sydney | 1 | All Maps | STV","players":null},{"server_id":123,"name":"Uncletopia | Sydney | 2 | All Maps","name_short":"syd-2","host":"syd-1.au.uncletopia.com","port":27025,"enabled":true,"region":"au","cc":"au","latitude":-33.865143,"longitude":151.2099,"reserved":0,"last_update":"0001-01-01T00:00:00Z","name_a2s":"Uncletopia | Sydney | 2 | All Maps","protocol":17,"map":"koth_highpass","folder":"tf","game":"Team Fortress","app_id":440,"player_count":12,"max_players":24,"Bots":0,"server_type":"Dedicated","server_os":"Linux","password":true,"vac":true,"version":"7961495","steam_id":85568392924470002,"keywords":["cp","nocrits","nodmgspread","uncletopia"],"game_id":440,"stv_port":27026,"stv_name":"Uncletopia | Sydney | 2 | All Maps | STV","players":[{"user_id":5,"name":"Foap","steam_id":76561198110418119,"connected_time":3841000000000,"state":"active","ping":95},{"user_id":10,"name":"J2PWN","steam_id":76561198409287854,"connected_time":2155000000000,"state":"active","ping":147},{"user_id":9,"name":"JP","steam_id":76561198026221737,"connected_time":2438000000000,"state":"active","ping":52},{"user_id":11,"name":"Ᵽ𐌄Ť𐌄Ұ","steam_id":76561199140764838,"connected_time":1839000000000,"state":"active","ping":57},{"user_id":12,"name":"Centrelink","steam_id":76561198988128327,"connected_time":1820000000000,"state":"active","ping":39},{"user_id":22,"name":"blakeqld","steam_id":76561198211136233,"connected_time":289000000000,"state":"active","ping":72},{"user_id":14,"name":"Mikey","steam_id":76561198438203131,"connected_time":1493000000000,"state":"active","ping":58},{"user_id":25,"name":"ChocoMilk","steam_id":76561198167049794,"connected_time":211000000000,"state":"active","ping":63},{"user_id":17,"name":"Golden Terrestrial","steam_id":76561198082713023,"connected_time":1364000000000,"state":"active","ping":53},{"user_id":27,"name":"Uncle_Bowlcut","steam_id":76561198225191728,"connected_time":87000000000,"state":"active","ping":84},{"user_id":21,"name":"CFMEU Terry","steam_id":76561198031293430,"connected_time":601000000000,"state":"active","ping":92},{"user_id":26,"name":"Volt","steam_id":76561198096764975,"connected_time":187000000000,"state":"active","ping":41}]},{"server_id":395,"name":"Uncletopia | Sydney | 3 | All Maps","name_short":"syd-3","host":"syd-1.au.uncletopia.com","port":27035,"enabled":true,"region":"au","cc":"au","latitude":-33.865143,"longitude":151.2099,"reserved":0,"last_update":"0001-01-01T00:00:00Z","name_a2s":"Uncletopia | Sydney | 3 | All Maps","protocol":17,"map":"pl_frontier_final","folder":"tf","game":"Team Fortress","app_id":440,"player_count":0,"max_players":24,"Bots":0,"server_type":"Dedicated","server_os":"Linux","password":true,"vac":true,"version":"7961495","steam_id":85568392925194467,"keywords":["nocrits","nodmgspread","payload","uncletopia"],"game_id":440,"stv_port":27036,"stv_name":"Uncletopia | Sydney | 3 | All Maps | STV","players":null},{"server_id":396,"name":"Uncletopia | Sydney | 4 | All Maps","name_short":"syd-4","host":"syd-1.au.uncletopia.com","port":27045,"enabled":true,"region":"au","cc":"au","latitude":-33.865143,"longitude":151.2099,"reserved":0,"last_update":"0001-01-01T00:00:00Z","name_a2s":"Uncletopia | Sydney | 4 | All Maps","protocol":17,"map":"koth_lakeside_final","folder":"tf","game":"Team Fortress","app_id":440,"player_count":0,"max_players":24,"Bots":0,"server_type":"Dedicated","server_os":"Linux","password":true,"vac":true,"version":"7961495","steam_id":85568392925397958,"keywords":["cp","nocrits","nodmgspread","uncletopia"],"game_id":440,"stv_port":27046,"stv_name":"Uncletopia | Sydney | 4 | All Maps | STV","players":null},{"server_id":58,"name":"Uncletopia | Sydney | 5 | Stopwatch","name_short":"syd-5","host":"syd-1.au.uncletopia.com","port":27055,"enabled":true,"region":"au","cc":"au","latitude":-33.865143,"longitude":151.2099,"reserved":0,"last_update":"0001-01-01T00:00:00Z","name_a2s":"Uncletopia | Sydney | 5 | Stopwatch","protocol":17,"map":"pl_frontier_final","folder":"tf","game":"Team Fortress","app_id":440,"player_count":0,"max_players":24,"Bots":0,"server_type":"Dedicated","server_os":"Linux","password":true,"vac":true,"version":"7961495","steam_id":85568392925397959,"keywords":["nocrits","nodmgspread","payload","uncletopia"],"game_id":440,"stv_port":27056,"stv_name":"Uncletopia | Sydney | 5 | Stopwatch | STV","players":null},{"server_id":59,"name":"Uncletopia | Sydney | 6 | Community","name_short":"syd-6","host":"syd-1.au.uncletopia.com","port":27065,"enabled":true,"region":"au","cc":"au","latitude":-33.865143,"longitude":151.2099,"reserved":0,"last_update":"0001-01-01T00:00:00Z","name_a2s":"Uncletopia | Sydney | 6 | Community","protocol":17,"map":"cp_sunshine","folder":"tf","game":"Team Fortress","app_id":440,"player_count":0,"max_players":24,"Bots":0,"server_type":"Dedicated","server_os":"Linux","password":true,"vac":true,"version":"7961495","steam_id":85568392925397960,"keywords":["cp","nocrits","nodmgspread","uncletopia"],"game_id":440,"stv_port":27066,"stv_name":"Uncletopia | Sydney | 6 | Community | STV","players":null},{"server_id":49,"name":"Uncletopia | Warsaw | 1 | One Thousand Uncles","name_short":"waw-1","host":"waw-1.pl.uncletopia.com","port":27015,"enabled":true,"region":"eu","cc":"pl","latitude":52.2297,"longitude":21.017532,"reserved":0,"last_update":"0001-01-01T00:00:00Z","name_a2s":"Uncletopia | Warsaw | 1 | One Thousand Uncles","protocol":17,"map":"koth_highpass","folder":"tf","game":"Team Fortress","app_id":440,"player_count":18,"max_players":32,"Bots":16,"server_type":"Dedicated","server_os":"Linux","password":true,"vac":true,"version":"7961495","steam_id":85568392925397850,"keywords":["alltalk","bots","cp","danepve","increased_maxplayers","nocrits","norespawntime","uncletopia"],"game_id":440,"stv_port":0,"stv_name":"","players":[{"user_id":2,"name":"the one","steam_id":76561198037977091,"connected_time":651000000000,"state":"active","ping":125},{"user_id":19,"name":"Criofan","steam_id":76561199389261703,"connected_time":550000000000,"state":"active","ping":98}]},{"server_id":50,"name":"Uncletopia | Warsaw | 2 | One Thousand Uncles","name_short":"waw-2","host":"waw-1.pl.uncletopia.com","port":27025,"enabled":true,"region":"eu","cc":"pl","latitude":52.2297,"longitude":21.017532,"reserved":0,"last_update":"0001-01-01T00:00:00Z","name_a2s":"Uncletopia | Warsaw | 2 | One Thousand Uncles","protocol":17,"map":"pl_goldrush","folder":"tf","game":"Team Fortress","app_id":440,"player_count":0,"max_players":32,"Bots":0,"server_type":"Dedicated","server_os":"Linux","password":true,"vac":true,"version":"7961495","steam_id":85568392925397851,"keywords":["alltalk","danepve","increased_maxplayers","nocrits","norespawntime","payload","uncletopia"],"game_id":440,"stv_port":0,"stv_name":"","players":null},{"server_id":51,"name":"Uncletopia | Warsaw | 3 | All Maps","name_short":"waw-3","host":"waw-1.pl.uncletopia.com","port":27035,"enabled":true,"region":"eu","cc":"pl","latitude":52.2297,"longitude":21.017532,"reserved":0,"last_update":"0001-01-01T00:00:00Z","name_a2s":"Uncletopia | Warsaw | 3 | All Maps","protocol":17,"map":"plr_pipeline","folder":"tf","game":"Team Fortress","app_id":440,"player_count":0,"max_players":24,"Bots":0,"server_type":"Dedicated","server_os":"Linux","password":true,"vac":true,"version":"7961495","steam_id":85568392925397852,"keywords":["nocrits","nodmgspread","payload","uncletopia"],"game_id":440,"stv_port":27036,"stv_name":"Uncletopia | Warsaw | 3 | All Maps | STV","players":null},{"server_id":52,"name":"Uncletopia | Warsaw | 4 | All Maps","name_short":"waw-4","host":"waw-1.pl.uncletopia.com","port":27045,"enabled":true,"region":"eu","cc":"pl","latitude":52.2297,"longitude":21.017532,"reserved":0,"last_update":"0001-01-01T00:00:00Z","name_a2s":"Uncletopia | Warsaw | 4 | All Maps","protocol":17,"map":"cp_coldfront","folder":"tf","game":"Team Fortress","app_id":440,"player_count":0,"max_players":24,"Bots":0,"server_type":"Dedicated","server_os":"Linux","password":true,"vac":true,"version":"7961495","steam_id":85568392925397853,"keywords":["cp","nocrits","nodmgspread","uncletopia"],"game_id":440,"stv_port":27046,"stv_name":"Uncletopia | Warsaw | 4 | All Maps | STV","players":null},{"server_id":53,"name":"Uncletopia | Warsaw | 5 | Stopwatch","name_short":"waw-5","host":"waw-1.pl.uncletopia.com","port":27055,"enabled":true,"region":"eu","cc":"pl","latitude":52.2297,"longitude":21.017532,"reserved":0,"last_update":"0001-01-01T00:00:00Z","name_a2s":"Uncletopia | Warsaw | 5 | Stopwatch","protocol":17,"map":"workshop/koth_bagel_rc6.ugc2514036946","folder":"tf","game":"Team Fortress","app_id":440,"player_count":0,"max_players":24,"Bots":0,"server_type":"Dedicated","server_os":"Linux","password":true,"vac":true,"version":"7961495","steam_id":85568392925397854,"keywords":["cp","nocrits","nodmgspread","uncletopia"],"game_id":440,"stv_port":27056,"stv_name":"Uncletopia | Warsaw | 5 | Stopwatch | STV","players":null},{"server_id":54,"name":"Uncletopia | Warsaw | 6 | Community","name_short":"waw-6","host":"waw-1.pl.uncletopia.com","port":27065,"enabled":true,"region":"eu","cc":"pl","latitude":52.2297,"longitude":21.017532,"reserved":0,"last_update":"0001-01-01T00:00:00Z","name_a2s":"Uncletopia | Warsaw | 6 | Community","protocol":17,"map":"workshop/pl_badwater_pro_v12.ugc2142942074","folder":"tf","game":"Team Fortress","app_id":440,"player_count":0,"max_players":24,"Bots":0,"server_type":"Dedicated","server_os":"Linux","password":true,"vac":true,"version":"7961495","steam_id":85568392925397856,"keywords":["nocrits","nodmgspread","payload","uncletopia"],"game_id":440,"stv_port":27066,"stv_name":"Uncletopia | Warsaw | 6 | Community | STV","players":null}]}