{"status":true,"message":"","result":[{"server_id":9,"name":"Uncletopia | Atlanta | 1 | All Maps","name_short":"atl-1","host":"atl-1.us.uncletopia.com","port":27015,"enabled":true,"region":"us-east","cc":"us","latitude":33.753746,"longitude":-84.38633,"reserved":0,"last_update":"0001-01-01T00:00:00Z","name_a2s":"Uncletopia | Atlanta | 1 | All Maps","protocol":17,"map":"pl_frontier_final","folder":"tf","game":"Team Fortress","app_id":440,"player_count":25,"max_players":24,"Bots":0,"server_type":"Dedicated","server_os":"Linux","password":true,"vac":true,"version":"7961495","steam_id":85568392924469982,"keywords":["nocrits","nodmgspread","payload","uncletopia"],"game_id":440,"stv_port":27016,"stv_name":"Uncletopia | Atlanta | 1 | All Maps | STV","players":[{"user_id":272,"name":"hayes","steam_id":76561198057101042,"connected_time":1433000000000,"state":"active","ping":73},{"user_id":200,"name":"ash","steam_id":76561198127890645,"connected_time":7877000000000,"state":"active","ping":72},{"user_id":257,"name":"Vlad","steam_id":76561198150626637,"connected_time":3094000000000,"state":"active","ping":57},{"user_id":212,"name":"DuckMann","steam_id":76561198197058638,"connected_time":6670000000000,"state":"active","ping":49},{"user_id":247,"name":"CrazyCow","steam_id":76561198097431272,"connected_time":4035000000000,"state":"active","ping":82},{"user_id":283,"name":"turnip","steam_id":76561198144449489,"connected_time":430000000000,"state":"active","ping":56},{"user_id":252,"name":"double stack biggie bag","steam_id":76561198188967430,"connected_time":3467000000000,"state":"active","ping":84},{"user_id":136,"name":"lynt","steam_id":76561198988333976,"connected_time":11694000000000,"state":"active","ping":40},{"user_id":275,"name":"neopets","steam_id":76561199169486012,"connected_time":1225000000000,"state":"active","ping":45},{"user_id":264,"name":"Decolour","steam_id":76561199045608372,"connected_time":2333000000000,"state":"active","ping":70},{"user_id":277,"name":"Im High","steam_id":76561198049954886,"connected_time":979000000000,"state":"active","ping":76},{"user_id":260,"name":"marguerite","steam_id":76561198170873495,"connected_time":3090000000000,"state":"active","ping":51},{"user_id":254,"name":"Boneless Blithen","steam_id":76561197989955619,"connected_time":3111000000000,"state":"active","ping":129},{"user_id":284,"name":"BoyWithTheBeanie","steam_id":76561199435079308,"connected_time":423000000000,"state":"active","ping":151},{"user_id":285,"name":"Larry Cañonga","steam_id":76561198081053203,"connected_time":408000000000,"state":"active","ping":126},{"user_id":268,"name":"Kine²","steam_id":76561198061505962,"connected_time":2068000000000,"state":"active","ping":44},{"user_id":261,"name":"lu","steam_id":76561198080731872,"connected_time":3088000000000,"state":"active","ping":77},{"user_id":287,"name":"AmC","steam_id":76561198109731140,"connected_time":223000000000,"state":"connecting","ping":0},{"user_id":241,"name":"Night time Dan","steam_id":76561199022178492,"connected_time":4725000000000,"state":"active","ping":54},{"user_id":262,"name":"eish","steam_id":76561198089463603,"connected_time":3082000000000,"state":"active","ping":120},{"user_id":267,"name":"Oopsie Daisy ❋","steam_id":76561198042144492,"connected_time":2251000000000,"state":"active","ping":60},{"user_id":282,"name":"row","steam_id":76561198040946044,"connected_time":619000000000,"state":"active","ping":87},{"user_id":288,"name":"e0e0","steam_id":76561198293839750,"connected_time":220000000000,"state":"active","ping":61},{"user_id":263,"name":"Pango","steam_id":76561198069811545,"connected_time":2460000000000,"state":"active","ping":53},{"user_id":274,"name":"Bodhi (she/they)","steam_id":76561198103230995,"connected_time":1432000000000,"state":"active","ping":64}]},{"server_id":104,"name":"Uncletopia | Atlanta | 2 | All Maps","name_short":"atl-2","host":"atl-1.us.uncletopia.com","port":27025,"enabled":true,"region":"us-east","cc":"us","latitude":33.753746,"longitude":-84.38633,"reserved":0,"last_update":"0001-01-01T00:00:00Z","name_a2s":"Uncletopia | Atlanta | 2 | All Maps","protocol":17,"map":"ctf_2fort","folder":"tf","game":"Team Fortress","app_id":440,"player_count":4,"max_players":24,"Bots":0,"server_type":"Dedicated","server_os":"Linux","password":true,"vac":true,"version":"7961495","steam_id":85568392924469983,"keywords":["ctf","nocrits","nodmgspread","uncletopia"],"game_id":440,"stv_port":27026,"stv_name":"Uncletopia | Atlanta | 2 | All Maps | STV","players":[{"user_id":19,"name":"Ros","steam_id":76561199055963822,"connected_time":712000000000,"state":"active","ping":45},{"user_id":20,"name":"banana97286","steam_id":76561199367847817,"connected_time":708000000000,"state":"active","ping":54},{"user_id":22,"name":"AmC","steam_id":76561198109731140,"connected_time":198000000000,"state":"active","ping":110},{"user_id":23,"name":"Pink Bills hat from TF2","steam_id":76561199130568377,"connected_time":75000000000,"state":"active","ping":75}]},{"server_id":400,"name":"Uncletopia | Atlanta | 3 | Stopwatch","name_short":"atl-3","host":"atl-1.us.uncletopia.com","port":27035,"enabled":true,"region":"us-east","cc":"us","latitude":33.753746,"longitude":-84.38633,"reserved":0,"last_update":"0001-01-01T00:00:00Z","name_a2s":"Uncletopia | Atlanta | 3 | Stopwatch","protocol":17,"map":"pl_swiftwater_final1","folder":"tf","game":"Team Fortress","app_id":440,"player_count":21,"max_players":24,"Bots":0,"server_type":"Dedicated","server_os":"Linux","password":true,"vac":true,"version":"7961495","steam_id":85568392924515187,"keywords":["nocrits","nodmgspread","payload","uncletopia"],"game_id":440,"stv_port":27036,"stv_name":"Uncletopia | Atlanta | 3 | Stopwatch | STV","players":[{"user_id":150,"name":"turtlewho","steam_id":76561199071366637,"connected_time":2948000000000,"state":"spawning","ping":50},{"user_id":180,"name":"Guapo","steam_id":76561198075195948,"connected_time":878000000000,"state":"spawning","ping":45},{"user_id":166,"name":"GuyGoom","steam_id":76561198254522178,"connected_time":1610000000000,"state":"active","ping":75},{"user_id":162,"name":"indi","steam_id":76561198045917538,"connected_time":1802000000000,"state":"active","ping":60},{"user_id":130,"name":"Ferguson","steam_id":76561198121349387,"connected_time":4363000000000,"state":"active","ping":74},{"user_id":186,"name":"paul cubicle","steam_id":76561198088778979,"connected_time":566000000000,"state":"spawning","ping":105},{"user_id":171,"name":"badlands spawnroom","steam_id":76561198406252824,"connected_time":1274000000000,"state":"active","ping":119},{"user_id":142,"name":"jello","steam_id":76561199274158922,"connected_time":3129000000000,"state":"active","ping":101},{"user_id":170,"name":"I Have Huge Guts","steam_id":76561198103496593,"connected_time":1307000000000,"state":"active","ping":42},{"user_id":80,"name":"Man On Night Mode","steam_id":76561198012469076,"connected_time":7221000000000,"state":"spawning","ping":70},{"user_id":174,"name":"Firedust19","steam_id":76561198153238631,"connected_time":1147000000000,"state":"spawning","ping":91},{"user_id":139,"name":"Ranger","steam_id":76561198064096654,"connected_time":3394000000000,"state":"active","ping":45},{"user_id":187,"name":"bogus","steam_id":76561198377555279,"connected_time":341000000000,"state":"spawning","ping":62},{"user_id":181,"name":"choi","steam_id":76561198053669887,"connected_time":866000000000,"state":"spawning","ping":103},{"user_id":175,"name":"Zeelidox","steam_id":76561198110613375,"connected_time":1022000000000,"state":"active","ping":65},{"user_id":182,"name":"Blueseer","steam_id":76561198060326533,"connected_time":851000000000,"state":"spawning","ping":42},{"user_id":189,"name":"Hamlindigo Blue™","steam_id":76561198116337540,"connected_time":45000000000,"state":"spawning","ping":91},{"user_id":149,"name":"Willy the Wonderdog","steam_id":76561198067089970,"connected_time":2970000000000,"state":"active","ping":59},{"user_id":188,"name":"Sergeant Snowflake","steam_id":76561198041474489,"connected_time":207000000000,"state":"spawning","ping":69},{"user_id":172,"name":"ṽ⧉ cookie","steam_id":76561197998884823,"connected_time":1244000000000,"state":"active","ping":86},{"user_id":152,"name":"IsleBound","steam_id":76561198278451717,"connected_time":2930000000000,"state":"active","ping":62}]},{"server_id":401,"name":"Uncletopia | Atlanta | 4 | Community","name_short":"atl-4","host":"atl-1.us.uncletopia.com","port":27045,"enabled":true,"region":"us-east","cc":"us","latitude":33.753746,"longitude":-84.38633,"reserved":0,"last_update":"0001-01-01T00:00:00Z","name_a2s":"Uncletopia | Atlanta | 4 | Community","protocol":17,"map":"workshop/pl_phoenix_b4a.ugc2969509359","folder":"tf","game":"Team Fortress","app_id":440,"player_count":0,"max_players":24,"Bots":0,"server_type":"Dedicated","server_os":"Linux","password":true,"vac":true,"version":"7961495","steam_id":85568392924515188,"keywords":["nocrits","nodmgspread","payload","uncletopia"],"game_id":440,"stv_port":27046,"stv_name":"Uncletopia | Atlanta | 4 | Community | STV","players":null},{"server_id":2,"name":"Uncletopia | Chicago | 1 | All Maps","name_short":"chi-1","host":"chi-1.us.uncletopia.com","port":27015,"enabled":true,"region":"us-central","cc":"us","latitude":41.881832,"longitude":-87.62318,"reserved":0,"last_update":"0001-01-01T00:00:00Z","name_a2s":"Uncletopia | Chicago | 1 | All Maps","protocol":17,"map":"pl_swiftwater_final1","folder":"tf","game":"Team Fortress","app_id":440,"player_count":23,"max_players":24,"Bots":0,"server_type":"Dedicated","server_os":"Linux","password":true,"vac":true,"version":"7961495","steam_id":85568392924469984,"keywords":["nocrits","nodmgspread","payload","uncletopia"],"game_id":440,"stv_port":27016,"stv_name":"Uncletopia | Chicago | 1 | All Maps | STV","players":[{"user_id":138,"name":"Toxic Mercenary","steam_id":76561197988501611,"connected_time":1619000000000,"state":"active","ping":77},{"user_id":137,"name":"Jerry Bondle","steam_id":76561198337512213,"connected_time":1629000000000,"state":"active","ping":60},{"user_id":162,"name":"Milkmur","steam_id":76561198210043821,"connected_time":14000000000,"state":"active","ping":64},{"user_id":96,"name":"GLG.Liz","steam_id":76561198021957956,"connected_time":4881000000000,"state":"active","ping":72},{"user_id":163,"name":"Boofenshmirtz","steam_id":76561198071649858,"connected_time":9000000000,"state":"active","ping":94},{"user_id":159,"name":"Lee Surge (fishtank.live)","steam_id":76561198202272884,"connected_time":101000000000,"state":"active","ping":92},{"user_id":123,"name":"cheddar baked ruffles","steam_id":76561198799404824,"connected_time":2608000000000,"state":"active","ping":62},{"user_id":153,"name":"frank","steam_id":76561198137777483,"connected_time":947000000000,"state":"active","ping":65},{"user_id":136,"name":"Kola ✧","steam_id":76561198049995341,"connected_time":1817000000000,"state":"active","ping":47},{"user_id":121,"name":"Pigsicle","steam_id":76561198215696320,"connected_time":2621000000000,"state":"active","ping":54},{"user_id":145,"name":"explosion.ogg","steam_id":76561198118919233,"connected_time":1176000000000,"state":"active","ping":64},{"user_id":152,"name":"Forgeblazer","steam_id":76561198073710034,"connected_time":1018000000000,"state":"active","ping":61},{"user_id":160,"name":"Dan","steam_id":76561198205054883,"connected_time":72000000000,"state":"active","ping":105},{"user_id":151,"name":"Tala\u003c3","steam_id":76561198169200739,"connected_time":1057000000000,"state":"active","ping":47},{"user_id":158,"name":"MedRed™ #IATAH","steam_id":76561198002962970,"connected_time":540000000000,"state":"active","ping":90},{"user_id":135,"name":"Dr3gyn0","steam_id":76561199081910939,"connected_time":1932000000000,"state":"active","ping":63},{"user_id":124,"name":"WhoppingFool9","steam_id":76561198158337369,"connected_time":2601000000000,"state":"active","ping":109},{"user_id":81,"name":"pafijohn","steam_id":76561198002535190,"connected_time":6063000000000,"state":"active","ping":93},{"user_id":132,"name":"Phyre112","steam_id":76561198064367510,"connected_time":2099000000000,"state":"active","ping":99},{"user_id":141,"name":"Koishi","steam_id":76561198054541054,"connected_time":1508000000000,"state":"active","ping":57},{"user_id":161,"name":"afk in my mind","steam_id":76561199064660270,"connected_time":69000000000,"state":"active","ping":61},{"user_id":147,"name":"CCTV Camera","steam_id":76561198373692962,"connected_time":1165000000000,"state":"active","ping":47},{"user_id":157,"name":"hej","steam_id":76561197996366940,"connected_time":575000000000,"state":"active","ping":62}]},{"server_id":106,"name":"Uncletopia | Chicago | 2 | All Maps","name_short":"chi-2","host":"chi-1.us.uncletopia.com","port":27025,"enabled":true,"region":"us-central","cc":"us","latitude":41.881832,"longitude":-87.62318,"reserved":0,"last_update":"0001-01-01T00:00:00Z","name_a2s":"Uncletopia | Chicago | 2 | All Maps","protocol":17,"map":"pl_swiftwater_final1","folder":"tf","game":"Team Fortress","app_id":440,"player_count":24,"max_players":24,"Bots":0,"server_type":"Dedicated","server_os":"Linux","password":true,"vac":true,"version":"7961495","steam_id":85568392924469985,"keywords":["nocrits","nodmgspread","payload","uncletopia"],"game_id":440,"stv_port":27026,"stv_name":"Uncletopia | Chicago | 2 | All Maps | STV","players":[{"user_id":180,"name":"Other Players, My One Weakness","steam_id":76561197989247588,"connected_time":975000000000,"state":"active","ping":64},{"user_id":193,"name":"Lv3 Kobold Fighter","steam_id":76561198042068995,"connected_time":532000000000,"state":"active","ping":97},{"user_id":173,"name":"laptop_user431","steam_id":76561198420227358,"connected_time":1828000000000,"state":"active","ping":78},{"user_id":194,"name":"SomeRandomCat","steam_id":76561199107044061,"connected_time":482000000000,"state":"active","ping":61},{"user_id":195,"name":"Toxic-Fluid","steam_id":76561198115530353,"connected_time":455000000000,"state":"active","ping":74},{"user_id":196,"name":"Ềrr∅rシ","steam_id":76561199277920604,"connected_time":451000000000,"state":"active","ping":78},{"user_id":197,"name":"Davidicus_Paladin","steam_id":76561199508944394,"connected_time":444000000000,"state":"active","ping":69},{"user_id":166,"name":"Ceige","steam_id":76561198068538473,"connected_time":2009000000000,"state":"active","ping":75},{"user_id":115,"name":"pineApple Zoo","steam_id":76561198013732450,"connected_time":5931000000000,"state":"active","ping":50},{"user_id":182,"name":"Chris P. Bacon","steam_id":76561198000851038,"connected_time":931000000000,"state":"active","ping":71},{"user_id":80,"name":"Rornir","steam_id":76561198081829615,"connected_time":9116000000000,"state":"active","ping":41},{"user_id":198,"name":"ö¿rö  ù π (NGï○á x 21","steam_id":76561198069589278,"connected_time":419000000000,"state":"active","ping":148},{"user_id":202,"name":"Nathan","steam_id":76561198127924646,"connected_time":30000000000,"state":"active","ping":80},{"user_id":186,"name":"᲼᲼᲼","steam_id":76561198845246815,"connected_time":777000000000,"state":"active","ping":105},{"user_id":171,"name":"Sexy Kitten (toxic)","steam_id":76561197979056451,"connected_time":1994000000000,"state":"active","ping":98},{"user_id":190,"name":"ᵘᶻʳ","steam_id":76561198799343084,"connected_time":638000000000,"state":"active","ping":106},{"user_id":183,"name":"Goomby","steam_id":76561198079416561,"connected_time":930000000000,"state":"active","ping":110},{"user_id":174,"name":"Fluffeline","steam_id":76561198352909489,"connected_time":1827000000000,"state":"active","ping":143},{"user_id":184,"name":"Yamn Zaddy","steam_id":76561198074678001,"connected_time":897000000000,"state":"active","ping":115},{"user_id":178,"name":"onionaid","steam_id":76561198065266282,"connected_time":1112000000000,"state":"active","ping":69},{"user_id":201,"name":"Debarro","steam_id":76561198452105948,"connected_time":245000000000,"state":"active","ping":66},{"user_id":175,"name":"BEEEEEEEEEEEEEEEES","steam_id":76561199431280503,"connected_time":1757000000000,"state":"active","ping":79},{"user_id":156,"name":"D(b) Hell","steam_id":76561198067869016,"connected_time":3231000000000,"state":"active","ping":45},{"user_id":176,"name":"definitely (not) a twink","steam_id":76561199208833695,"connected_time":1622000000000,"state":"active","ping":97}]},{"server_id":402,"name":"Uncletopia | Chicago | 3 | All Maps","name_short":"chi-3","host":"chi-1.us.uncletopia.com","port":27035,"enabled":true,"region":"us-central","cc":"us","latitude":41.881832,"longitude":-87.62318,"reserved":0,"last_update":"0001-01-01T00:00:00Z","name_a2s":"Uncletopia | Chicago | 3 | All Maps","protocol":17,"map":"koth_cascade","folder":"tf","game":"Team Fortress","app_id":440,"player_count":0,"max_players":24,"Bots":0,"server_type":"Dedicated","server_os":"Linux","password":true,"vac":true,"version":"7961495","steam_id":85568392924515191,"keywords":["cp","nocrits","nodmgspread","uncletopia"],"game_id":440,"stv_port":27036,"stv_name":"Uncletopia | Chicago | 3 | All Maps | STV","players":null},{"server_id":403,"name":"Uncletopia | Chicago | 4 | All Maps","name_short":"chi-4","host":"chi-1.us.uncletopia.com","port":27045,"enabled":true,"region":"us-central","cc":"us","latitude":41.881832,"longitude":-87.62318,"reserved":0,"last_update":"0001-01-01T00:00:00Z","name_a2s":"Uncletopia | Chicago | 4 | All Maps","protocol":17,"map":"cp_dustbowl","folder":"tf","game":"Team Fortress","app_id":440,"player_count":24,"max_players":24,"Bots":0,"server_type":"Dedicated","server_os":"Linux","password":true,"vac":true,"version":"7961495","steam_id":85568392924515193,"keywords":["cp","nocrits","nodmgspread","uncletopia"],"game_id":440,"stv_port":27046,"stv_name":"Uncletopia | Chicago | 4 | All Maps | STV","players":[{"user_id":275,"name":"Meskoozy","steam_id":76561198102394479,"connected_time":1890000000000,"state":"active","ping":67},{"user_id":306,"name":"zacmattsmith","steam_id":76561199027704149,"connected_time":342000000000,"state":"active","ping":64},{"user_id":293,"name":"battle clown","steam_id":76561198045788371,"connected_time":1101000000000,"state":"active","ping":70},{"user_id":278,"name":"Legit_Jaxer","steam_id":76561198172234053,"connected_time":1610000000000,"state":"active","ping":131},{"user_id":267,"name":"Laxoloni","steam_id":76561199197045700,"connected_time":2364000000000,"state":"active","ping":118},{"user_id":300,"name":"Pim","steam_id":76561198046050375,"connected_time":554000000000,"state":"active","ping":112},{"user_id":289,"name":"heck","steam_id":76561198308547958,"connected_time":1198000000000,"state":"active","ping":63},{"user_id":299,"name":"RaspberryKetchup","steam_id":76561198397331700,"connected_time":658000000000,"state":"active","ping":48},{"user_id":255,"name":"KIKI CURBSTOMP","steam_id":76561198262064871,"connected_time":2939000000000,"state":"active","ping":47},{"user_id":305,"name":"asscastle","steam_id":76561198097330521,"connected_time":395000000000,"state":"active","ping":164},{"user_id":288,"name":"Lain","steam_id":76561198029303534,"connected_time":1240000000000,"state":"active","ping":71},{"user_id":220,"name":"1-800-GHOST-DANCE","steam_id":76561198835430429,"connected_time":5466000000000,"state":"active","ping":89},{"user_id":294,"name":"[El Fail] MR.BadassMCLee","steam_id":76561198043787818,"connected_time":920000000000,"state":"active","ping":104},{"user_id":287,"name":"Your Dinosaurs","steam_id":76561198392670237,"connected_time":1293000000000,"state":"active","ping":92},{"user_id":268,"name":"♥ Tomboy ♥","steam_id":76561198069881436,"connected_time":2364000000000,"state":"active","ping":74},{"user_id":291,"name":"heyCharn","steam_id":76561198058641350,"connected_time":1196000000000,"state":"active","ping":117},{"user_id":262,"name":"confield","steam_id":76561198004322265,"connected_time":2638000000000,"state":"active","ping":61},{"user_id":303,"name":"Real","steam_id":76561198405830028,"connected_time":416000000000,"state":"active","ping":107},{"user_id":304,"name":"Versuski","steam_id":76561198085193084,"connected_time":413000000000,"state":"active","ping":73},{"user_id":274,"name":"Chanter","steam_id":76561198246701796,"connected_time":2006000000000,"state":"active","ping":78},{"user_id":292,"name":"A Loaf Of Fetus","steam_id":76561198058016214,"connected_time":1196000000000,"state":"active","ping":105},{"user_id":301,"name":"Viewie","steam_id":76561198280108853,"connected_time":551000000000,"state":"active","ping":77},{"user_id":257,"name":"Gangsta monkey","steam_id":76561198282395338,"connected_time":2828000000000,"state":"active","ping":85},{"user_id":285,"name":"Maverick","steam_id":76561199160592961,"connected_time":1409000000000,"state":"active","ping":79}]},{"server_id":36,"name":"Uncletopia | Chicago | 5 | All Maps","name_short":"chi-5","host":"chi-2.us.uncletopia.com","port":27015,"enabled":true,"region":"us-central","cc":"us","latitude":41.881832,"longitude":-87.62318,"reserved":0,"last_update":"0001-01-01T00:00:00Z","name_a2s":"Uncletopia | Chicago | 5 | All Maps","protocol":17,"map":"cp_altitude","folder":"tf","game":"Team Fortress","app_id":440,"player_count":0,"max_players":24,"Bots":0,"server_type":"Dedicated","server_os":"Linux","password":true,"vac":true,"version":"7961495","steam_id":85568392924866362,"keywords":["cp","nocrits","nodmgspread","uncletopia"],"game_id":440,"stv_port":27016,"stv_name":"Uncletopia | Chicago | 5 | All Maps | STV","players":null},{"server_id":37,"name":"Uncletopia | Chicago | 6 | All Maps","name_short":"chi-6","host":"chi-2.us.uncletopia.com","port":27025,"enabled":true,"region":"us-central","cc":"us","latitude":41.881832,"longitude":-87.62318,"reserved":0,"last_update":"0001-01-01T00:00:00Z","name_a2s":"Uncletopia | Chicago | 6 | All Maps","protocol":17,"map":"pl_pier","folder":"tf","game":"Team Fortress","app_id":440,"player_count":21,"max_players":24,"Bots":0,"server_type":"Dedicated","server_os":"Linux","password":true,"vac":true,"version":"7961495","steam_id":85568392924866363,"keywords":["nocrits","nodmgspread","payload","uncletopia"],"game_id":440,"stv_port":27026,"stv_name":"Uncletopia | Chicago | 6 | All Maps | STV","players":[{"user_id":381,"name":"TerraPixel","steam_id":76561199220537574,"connected_time":268000000000,"state":"active","ping":67},{"user_id":377,"name":"what","steam_id":76561198082336619,"connected_time":388000000000,"state":"active","ping":68},{"user_id":369,"name":"BOTH | BERSERKER","steam_id":76561198303464488,"connected_time":1083000000000,"state":"active","ping":63},{"user_id":376,"name":"xSloshua","steam_id":76561198268409369,"connected_time":475000000000,"state":"active","ping":69},{"user_id":378,"name":"Shrimp Flavored Noodles","steam_id":76561198145209609,"connected_time":374000000000,"state":"active","ping":63},{"user_id":379,"name":"LargerThanAverageDragon","steam_id":76561198152036300,"connected_time":329000000000,"state":"active","ping":68},{"user_id":389,"name":"Ott-er","steam_id":76561198858227126,"connected_time":66000000000,"state":"active","ping":87},{"user_id":380,"name":"poon","steam_id":76561198049740395,"connected_time":293000000000,"state":"active","ping":60},{"user_id":371,"name":"TheMemeHead","steam_id":76561198351995227,"connected_time":806000000000,"state":"active","ping":59},{"user_id":391,"name":"ComicEnjoyer","steam_id":76561199126669626,"connected_time":18000000000,"state":"spawning","ping":59},{"user_id":392,"name":"yaldabaoth","steam_id":76561198084606869,"connected_time":15000000000,"state":"active","ping":59},{"user_id":368,"name":"mild","steam_id":76561198082470182,"connected_time":1176000000000,"state":"active","ping":91},{"user_id":384,"name":"i draw for tf2 keys","steam_id":76561198335777522,"connected_time":232000000000,"state":"active","ping":67},{"user_id":385,"name":"megakronos479","steam_id":76561198867315071,"connected_time":227000000000,"state":"active","ping":95},{"user_id":375,"name":"Dwarf","steam_id":76561198333801915,"connected_time":534000000000,"state":"active","ping":66},{"user_id":302,"name":"Docthenotable","steam_id":76561199389114520,"connected_time":7000000000000,"state":"active","ping":69},{"user_id":386,"name":"(TPT) Ghost","steam_id":76561198123262873,"connected_time":175000000000,"state":"active","ping":110},{"user_id":334,"name":"chickenenthusiast427","steam_id":76561198909415646,"connected_time":4077000000000,"state":"active","ping":78},{"user_id":271,"name":"Lennu","steam_id":76561198060730154,"connected_time":9607000000000,"state":"active","ping":76},{"user_id":336,"name":"BOTH | Sunshine","steam_id":76561198885528098,"connected_time":3854000000000,"state":"active","ping":70},{"user_id":388,"name":"cfamadas","steam_id":76561199055881965,"connected_time":164000000000,"state":"active","ping":88}]},{"server_id":38,"name":"Uncletopia | Chicago | 7 | Stopwatch","name_short":"chi-7","host":"chi-2.us.uncletopia.com","port":27035,"enabled":true,"region":"us-central","cc":"us","latitude":41.881832,"longitude":-87.62318,"reserved":0,"last_update":"0001-01-01T00:00:00Z","name_a2s":"Uncletopia | Chicago | 7 | Stopwatch","protocol":17,"map":"koth_lakeside_final","folder":"tf","game":"Team Fortress","app_id":440,"player_count":0,"max_players":24,"Bots":0,"server_type":"Dedicated","server_os":"Linux","password":true,"vac":true,"version":"7961495","steam_id":85568392924866364,"keywords":["cp","nocrits","nodmgspread","uncletopia"],"game_id":440,"stv_port":27036,"stv_name":"Uncletopia | Chicago | 7 | Stopwatch | STV","players":null},{"server_id":39,"name":"Uncletopia | Chicago | 8 | Community","name_short":"chi-8","host":"chi-2.us.uncletopia.com","port":27045,"enabled":true,"region":"us-central","cc":"us","latitude":41.881832,"longitude":-87.62318,"reserved":0,"last_update":"0001-01-01T00:00:00Z","name_a2s":"Uncletopia | Chicago | 8 | Community","protocol":17,"map":"workshop/cp_caldera_rc3.ugc2834196889","folder":"tf","game":"Team Fortress","app_id":440,"player_count":0,"max_players":24,"Bots":0,"server_type":"Dedicated","server_os":"Linux","password":true,"vac":true,"version":"7961495","steam_id":85568392924866365,"keywords":["cp","nocrits","nodmgspread","uncletopia"],"game_id":440,"stv_port":27046,"stv_name":"Uncletopia | Chicago | 8 | Community | STV","players":null},{"server_id":8,"name":"Uncletopia | Dallas | 1 | All Maps","name_short":"dal-1","host":"dal-1.us.uncletopia.com","port":27015,"enabled":true,"region":"us-central","cc":"us","latitude":32.779167,"longitude":-96.80889,"reserved":0,"last_update":"0001-01-01T00:00:00Z","name_a2s":"Uncletopia | Dallas | 1 | All Maps","protocol":17,"map":"cp_dustbowl","folder":"tf","game":"Team Fortress","app_id":440,"player_count":21,"max_players":24,"Bots":0,"server_type":"Dedicated","server_os":"Linux","password":true,"vac":true,"version":"7961495","steam_id":85568392924469986,"keywords":["cp","nocrits","nodmgspread","uncletopia"],"game_id":440,"stv_port":27016,"stv_name":"Uncletopia | Dallas | 1 | All Maps | STV","players":[{"user_id":31,"name":"Crλf227","steam_id":76561198196211121,"connected_time":3152000000000,"state":"active","ping":61},{"user_id":76,"name":"Certified Hood Classic","steam_id":76561199086159354,"connected_time":614000000000,"state":"active","ping":58},{"user_id":80,"name":"nicholas","steam_id":76561198058211873,"connected_time":415000000000,"state":"active","ping":54},{"user_id":64,"name":"FanaticSalt","steam_id":76561199380123059,"connected_time":1540000000000,"state":"active","ping":52},{"user_id":70,"name":"crankshaft","steam_id":76561197992798282,"connected_time":1483000000000,"state":"active","ping":67},{"user_id":65,"name":"freesia","steam_id":76561198127525888,"connected_time":1539000000000,"state":"active","ping":49},{"user_id":42,"name":"Human_Duck_Box","steam_id":76561199216572071,"connected_time":2542000000000,"state":"active","ping":97},{"user_id":44,"name":"Capybara Enjoyer","steam_id":76561199147114434,"connected_time":2212000000000,"state":"active","ping":91},{"user_id":73,"name":"donkey kong master","steam_id":76561198142732734,"connected_time":895000000000,"state":"active","ping":71},{"user_id":46,"name":"Whoops!","steam_id":76561198151315898,"connected_time":2163000000000,"state":"active","ping":71},{"user_id":78,"name":"Ray","steam_id":76561198048011618,"connected_time":480000000000,"state":"active","ping":86},{"user_id":48,"name":"Zycron0","steam_id":76561199122983789,"connected_time":2128000000000,"state":"active","ping":101},{"user_id":63,"name":"EMPTY WITCH","steam_id":76561198068800572,"connected_time":1764000000000,"state":"active","ping":79},{"user_id":51,"name":"Uncletopia Dallas 1 Player","steam_id":76561198230316868,"connected_time":2113000000000,"state":"active","ping":62},{"user_id":52,"name":"Catgirl Explise","steam_id":76561198044413891,"connected_time":2079000000000,"state":"active","ping":95},{"user_id":71,"name":"Glenn Quagmire","steam_id":76561199044705592,"connected_time":1468000000000,"state":"active","ping":110},{"user_id":55,"name":"shakoiwa","steam_id":76561199059441773,"connected_time":2000000000000,"state":"active","ping":79},{"user_id":79,"name":"fish","steam_id":76561198111396488,"connected_time":443000000000,"state":"active","ping":43},{"user_id":61,"name":"ebbaxter13","steam_id":76561198839647688,"connected_time":1825000000000,"state":"active","ping":99},{"user_id":69,"name":"slafflow","steam_id":76561199381012350,"connected_time":1518000000000,"state":"active","ping":82},{"user_id":60,"name":"Vroooooooooooooooom","steam_id":76561198139913628,"connected_time":1906000000000,"state":"active","ping":62}]},{"server_id":108,"name":"Uncletopia | Dallas | 2 | All Maps","name_short":"dal-2","host":"dal-1.us.uncletopia.com","port":27025,"enabled":true,"region":"us-central","cc":"us","latitude":32.779167,"longitude":-96.80889,"reserved":0,"last_update":"0001-01-01T00:00:00Z","name_a2s":"Uncletopia | Dallas | 2 | All Maps","protocol":17,"map":"pl_swiftwater_final1","folder":"tf","game":"Team Fortress","app_id":440,"player_count":24,"max_players":24,"Bots":0,"server_type":"Dedicated","server_os":"Linux","password":true,"vac":true,"version":"7961495","steam_id":85568392924469988,"keywords":["nocrits","nodmgspread","payload","uncletopia"],"game_id":440,"stv_port":27026,"stv_name":"Uncletopia | Dallas | 2 | All Maps | STV","players":[{"user_id":92,"name":"❤ Ashleyyy ❤","steam_id":76561198056428303,"connected_time":2438000000000,"state":"active","ping":74},{"user_id":138,"name":"spacetoven","steam_id":76561198115821131,"connected_time":144000000000,"state":"active","ping":89},{"user_id":120,"name":"5ft Powerhouse","steam_id":76561198078040365,"connected_time":560000000000,"state":"active","ping":55},{"user_id":114,"name":"Prof. Eggnog","steam_id":76561198193389166,"connected_time":623000000000,"state":"active","ping":94},{"user_id":94,"name":"SPYCHECK ME","steam_id":76561198980994364,"connected_time":2254000000000,"state":"active","ping":97},{"user_id":17,"name":"Baconator","steam_id":76561198941700660,"connected_time":7158000000000,"state":"active","ping":107},{"user_id":141,"name":"Skab E²","steam_id":76561199126112357,"connected_time":1000000000,"state":"spawning","ping":41},{"user_id":107,"name":"Mr. Warcrimes (B.F.B.L)","steam_id":76561198154254733,"connected_time":652000000000,"state":"active","ping":104},{"user_id":112,"name":"Xavibite","steam_id":76561198209380493,"connected_time":632000000000,"state":"active","ping":78},{"user_id":106,"name":"The Anime Protagonist","steam_id":76561198131400543,"connected_time":653000000000,"state":"active","ping":72},{"user_id":102,"name":"Arc","steam_id":76561198057246982,"connected_time":1420000000000,"state":"active","ping":62},{"user_id":115,"name":"locked cathode tube","steam_id":76561198085044565,"connected_time":616000000000,"state":"active","ping":88},{"user_id":103,"name":"mkl","steam_id":76561197986401685,"connected_time":1221000000000,"state":"active","ping":58},{"user_id":108,"name":"schmuck","steam_id":76561198143789773,"connected_time":652000000000,"state":"active","ping":52},{"user_id":66,"name":"Sleepy","steam_id":76561198978688451,"connected_time":4208000000000,"state":"active","ping":84},{"user_id":62,"name":"K.O. Stradivarius","steam_id":76561198974913245,"connected_time":4412000000000,"state":"active","ping":88},{"user_id":64,"name":"ParchedPigeon9","steam_id":76561198257204226,"connected_time":4245000000000,"state":"active","ping":55},{"user_id":49,"name":"✧.*Remzy✧.*","steam_id":76561199239412094,"connected_time":5371000000000,"state":"active","ping":172},{"user_id":83,"name":"M.I.L.F (Man I love frogs)","steam_id":76561198323926258,"connected_time":2944000000000,"state":"active","ping":45},{"user_id":109,"name":"Bobletoob","steam_id":76561199184464900,"connected_time":648000000000,"state":"active","ping":87},{"user_id":118,"name":"gru","steam_id":76561198208576396,"connected_time":575000000000,"state":"active","ping":75},{"user_id":82,"name":"Walgreens Pharmaceutical","steam_id":76561199006886644,"connected_time":2990000000000,"state":"active","ping":89},{"user_id":134,"name":"☼Barracuda☼","steam_id":76561198013022083,"connected_time":268000000000,"state":"active","ping":64},{"user_id":121,"name":"purple yellow red \u0026 blue","steam_id":76561198188722751,"connected_time":551000000000,"state":"active","ping":91}]},{"server_id":404,"name":"Uncletopia | Dallas | 3 | All Maps","name_short":"dal-3","host":"dal-1.us.uncletopia.com","port":27035,"enabled":true,"region":"us-central","cc":"us","latitude":32.779167,"longitude":-96.80889,"reserved":0,"last_update":"0001-01-01T00:00:00Z","name_a2s":"Uncletopia | Dallas | 3 | All Maps","protocol":17,"map":"ctf_2fort","folder":"tf","game":"Team Fortress","app_id":440,"player_count":0,"max_players":24,"Bots":0,"server_type":"Dedicated","server_os":"Linux","password":true,"vac":true,"version":"7961495","steam_id":85568392924515219,"keywords":["ctf","nocrits","nodmgspread","uncletopia"],"game_id":440,"stv_port":27036,"stv_name":"Uncletopia | Dallas | 3 | All Maps | STV","players":null},{"server_id":405,"name":"Uncletopia | Dallas | 4 | Community","name_short":"dal-4","host":"dal-1.us.uncletopia.com","port":27045,"enabled":true,"region":"us-central","cc":"us","latitude":32.779167,"longitude":-96.80889,"reserved":0,"last_update":"0001-01-01T00:00:00Z","name_a2s":"Uncletopia | Dallas | 4 | Community","protocol":17,"map":"workshop/cp_croissant_final.ugc458840209","folder":"tf","game":"Team Fortress","app_id":440,"player_count":0,"max_players":24,"Bots":0,"server_type":"Dedicated","server_os":"Linux","password":true,"vac":true,"version":"7961495","steam_id":85568392924515220,"keywords":["cp","nocrits","nodmgspread","uncletopia"],"game_id":440,"stv_port":27046,"stv_name":"Uncletopia | Dallas | 4 | Community | STV","players":null},{"server_id":5,"name":"Uncletopia | Frankfurt | 1 | All Maps","name_short":"frk-1","host":"frk-1.de.uncletopia.com","port":27015,"enabled":true,"region":"eu","cc":"de","latitude":50.110924,"longitude":8.682127,"reserved":0,"last_update":"0001-01-01T00:00:00Z","name_a2s":"Uncletopia | Frankfurt | 1 | All Maps","protocol":17,"map":"pl_badwater","folder":"tf","game":"Team Fortress","app_id":440,"player_count":24,"max_players":24,"Bots":0,"server_type":"Dedicated","server_os":"Linux","password":true,"vac":true,"version":"7961495","steam_id":85568392924469989,"keywords":["nocrits","nodmgspread","payload","uncletopia"],"game_id":440,"stv_port":27016,"stv_name":"Uncletopia | Frankfurt | 1 | All Maps | STV","players":[{"user_id":557,"name":"cheriberry","steam_id":76561198093577036,"connected_time":4249000000000,"state":"active","ping":57},{"user_id":606,"name":"MrDrinkAlot","steam_id":76561198050377836,"connected_time":206000000000,"state":"active","ping":97},{"user_id":569,"name":"godmodule","steam_id":76561198165995444,"connected_time":3211000000000,"state":"active","ping":67},{"user_id":597,"name":"Rogernuke","steam_id":76561198312815194,"connected_time":1144000000000,"state":"active","ping":74},{"user_id":566,"name":"えななん","steam_id":76561199427679148,"connected_time":3457000000000,"state":"active","ping":60},{"user_id":568,"name":"lemoul","steam_id":76561198078099059,"connected_time":3241000000000,"state":"active","ping":45},{"user_id":585,"name":"Sch","steam_id":76561198071341689,"connected_time":2080000000000,"state":"active","ping":53},{"user_id":531,"name":"david zaydullin (Charles McGill","steam_id":76561198965191846,"connected_time":6091000000000,"state":"active","ping":74},{"user_id":602,"name":"kenzou","steam_id":76561199180054996,"connected_time":421000000000,"state":"active","ping":73},{"user_id":591,"name":"DoodleBug","steam_id":76561198125395902,"connected_time":1445000000000,"state":"active","ping":68},{"user_id":592,"name":"snayke","steam_id":76561198077822932,"connected_time":1268000000000,"state":"active","ping":60},{"user_id":528,"name":"antihuman","steam_id":76561198116027948,"connected_time":6427000000000,"state":"active","ping":74},{"user_id":603,"name":"nyanezt","steam_id":76561198253734265,"connected_time":420000000000,"state":"active","ping":115},{"user_id":588,"name":"MiguelYaBoy","steam_id":76561198406295464,"connected_time":1813000000000,"state":"active","ping":65},{"user_id":576,"name":"alexable","steam_id":76561198381310350,"connected_time":2329000000000,"state":"active","ping":79},{"user_id":567,"name":"Noodle","steam_id":76561198306486695,"connected_time":3403000000000,"state":"active","ping":61},{"user_id":551,"name":"S@wKa","steam_id":76561198200160028,"connected_time":4895000000000,"state":"active","ping":73},{"user_id":590,"name":"Luxotrics","steam_id":76561198053455161,"connected_time":1591000000000,"state":"active","ping":84},{"user_id":577,"name":"God is serb","steam_id":76561198966246028,"connected_time":2327000000000,"state":"active","ping":89},{"user_id":604,"name":"Mad Cat Lad","steam_id":76561198013987227,"connected_time":376000000000,"state":"active","ping":63},{"user_id":599,"name":"simp gamer","steam_id":76561198021854431,"connected_time":439000000000,"state":"active","ping":117},{"user_id":601,"name":"Ve stylu","steam_id":76561198218257120,"connected_time":424000000000,"state":"active","ping":74},{"user_id":555,"name":"Carl","steam_id":76561198045638738,"connected_time":4656000000000,"state":"active","ping":72},{"user_id":600,"name":"jmp","steam_id":76561198168283286,"connected_time":439000000000,"state":"active","ping":65}]},{"server_id":110,"name":"Uncletopia | Frankfurt | 2 | All Maps","name_short":"frk-2","host":"frk-1.de.uncletopia.com","port":27025,"enabled":true,"region":"eu","cc":"de","latitude":50.110924,"longitude":8.682127,"reserved":0,"last_update":"0001-01-01T00:00:00Z","name_a2s":"Uncletopia | Frankfurt | 2 | All Maps","protocol":17,"map":"ctf_doublecross","folder":"tf","game":"Team Fortress","app_id":440,"player_count":23,"max_players":24,"Bots":0,"server_type":"Dedicated","server_os":"Linux","password":true,"vac":true,"version":"7961495","steam_id":85568392924469990,"keywords":["ctf","nocrits","nodmgspread","uncletopia"],"game_id":440,"stv_port":27026,"stv_name":"Uncletopia | Frankfurt | 2 | All Maps | STV","players":[{"user_id":521,"name":"↯","steam_id":76561198055389492,"connected_time":788000000000,"state":"active","ping":48},{"user_id":517,"name":"Tea","steam_id":76561198799243030,"connected_time":1041000000000,"state":"active","ping":73},{"user_id":526,"name":"ShadowRaze","steam_id":76561198322672808,"connected_time":759000000000,"state":"active","ping":67},{"user_id":515,"name":"Uh Oh!","steam_id":76561197981137624,"connected_time":1127000000000,"state":"active","ping":190},{"user_id":506,"name":"Laru","steam_id":76561197998838438,"connected_time":1758000000000,"state":"active","ping":76},{"user_id":502,"name":"Fazbear","steam_id":76561198406606196,"connected_time":2170000000000,"state":"active","ping":73},{"user_id":522,"name":"jonh","steam_id":76561198261853441,"connected_time":777000000000,"state":"active","ping":60},{"user_id":532,"name":"monocle chicken","steam_id":76561199020106029,"connected_time":396000000000,"state":"active","ping":80},{"user_id":504,"name":"ChrisLuckycharm","steam_id":76561199490969322,"connected_time":1865000000000,"state":"active","ping":94},{"user_id":520,"name":"Fish","steam_id":76561198306177608,"connected_time":883000000000,"state":"active","ping":70},{"user_id":529,"name":"baver","steam_id":76561198135293142,"connected_time":475000000000,"state":"active","ping":73},{"user_id":530,"name":"Ham","steam_id":76561199030215955,"connected_time":470000000000,"state":"active","ping":94},{"user_id":527,"name":"go play rimworld","steam_id":76561199397932924,"connected_time":697000000000,"state":"active","ping":65},{"user_id":472,"name":"Warrior555MainsGanon","steam_id":76561198388627786,"connected_time":3712000000000,"state":"active","ping":71},{"user_id":523,"name":"gaggle","steam_id":76561197988226281,"connected_time":776000000000,"state":"active","ping":57},{"user_id":537,"name":"Arc","steam_id":76561198805049375,"connected_time":173000000000,"state":"active","ping":60},{"user_id":524,"name":"didi_gaga","steam_id":76561198797688627,"connected_time":773000000000,"state":"active","ping":74},{"user_id":511,"name":"camperboy","steam_id":76561198138410890,"connected_time":1251000000000,"state":"active","ping":64},{"user_id":525,"name":"Mr.MemeMaker","steam_id":76561198909088766,"connected_time":772000000000,"state":"active","ping":47},{"user_id":538,"name":"Johnson","steam_id":76561199382978934,"connected_time":131000000000,"state":"active","ping":85},{"user_id":531,"name":"Æ","steam_id":76561198843025241,"connected_time":465000000000,"state":"active","ping":78},{"user_id":536,"name":"Skulldow","steam_id":76561198431433977,"connected_time":187000000000,"state":"active","ping":67},{"user_id":475,"name":"Mayor Wank from Wanker Town","steam_id":76561197998253588,"connected_time":3576000000000,"state":"active","ping":45}]},{"server_id":308,"name":"Uncletopia | Frankfurt | 3 | All Maps","name_short":"frk-3","host":"frk-1.de.uncletopia.com","port":27035,"enabled":true,"region":"eu","cc":"de","latitude":50.110924,"longitude":8.682127,"reserved":0,"last_update":"0001-01-01T00:00:00Z","name_a2s":"Uncletopia | Frankfurt | 3 | All Maps","protocol":17,"map":"cp_snakewater_final1","folder":"tf","game":"Team Fortress","app_id":440,"player_count":23,"max_players":24,"Bots":0,"server_type":"Dedicated","server_os":"Linux","password":true,"vac":true,"version":"7961495","steam_id":85568392924504274,"keywords":["cp","nocrits","nodmgspread","uncletopia"],"game_id":440,"stv_port":27036,"stv_name":"Uncletopia | Frankfurt | 3 | All Maps | STV","players":[{"user_id":318,"name":"MeLoMeN","steam_id":76561199174657436,"connected_time":258000000000,"state":"active","ping":82},{"user_id":321,"name":"dafydd","steam_id":76561198052200325,"connected_time":16000000000,"state":"active","ping":72},{"user_id":305,"name":"Vidrox","steam_id":76561199217854983,"connected_time":626000000000,"state":"active","ping":89},{"user_id":287,"name":"shooryukami","steam_id":76561199466594692,"connected_time":1236000000000,"state":"active","ping":105},{"user_id":281,"name":"wasto-/-™","steam_id":76561198102888038,"connected_time":1284000000000,"state":"active","ping":45},{"user_id":303,"name":"TJ1212","steam_id":76561199013575313,"connected_time":770000000000,"state":"active","ping":65},{"user_id":298,"name":"Domdmar","steam_id":76561198104649922,"connected_time":852000000000,"state":"active","ping":113},{"user_id":317,"name":"Bobirulez","steam_id":76561198009125458,"connected_time":320000000000,"state":"active","ping":74},{"user_id":283,"name":"AverageArchie","steam_id":76561198163246758,"connected_time":1277000000000,"state":"active","ping":63},{"user_id":311,"name":"ultim8","steam_id":76561198201501691,"connected_time":501000000000,"state":"active","ping":50},{"user_id":308,"name":"SpyCrab  Erik Twice","steam_id":76561198009710309,"connected_time":605000000000,"state":"active","ping":63},{"user_id":306,"name":"★poyo★","steam_id":76561198150078959,"connected_time":625000000000,"state":"active","ping":61},{"user_id":309,"name":"swg","steam_id":76561198147246166,"connected_time":602000000000,"state":"active","ping":73},{"user_id":294,"name":"duckington duck","steam_id":76561199157117063,"connected_time":1068000000000,"state":"active","ping":55},{"user_id":299,"name":"DaeNIEL","steam_id":76561198222301068,"connected_time":830000000000,"state":"active","ping":73},{"user_id":246,"name":"abra-kablam","steam_id":76561198195857751,"connected_time":4312000000000,"state":"active","ping":62},{"user_id":275,"name":"Danger_665","steam_id":76561199075064273,"connected_time":1697000000000,"state":"active","ping":81},{"user_id":319,"name":"Ecton","steam_id":76561198025103720,"connected_time":233000000000,"state":"active","ping":58},{"user_id":315,"name":"ribiks","steam_id":76561198042101482,"connected_time":459000000000,"state":"active","ping":131},{"user_id":316,"name":"micjacklin","steam_id":76561199383619549,"connected_time":428000000000,"state":"active","ping":168},{"user_id":292,"name":"Favi","steam_id":76561198013236935,"connected_time":1184000000000,"state":"active","ping":76},{"user_id":278,"name":"pjena","steam_id":76561198207643025,"connected_time":1463000000000,"state":"active","ping":47},{"user_id":241,"name":"papa Sloath","steam_id":76561198046382160,"connected_time":4592000000000,"state":"active","ping":58}]},{"server_id":309,"name":"Uncletopia | Frankfurt | 4 | All Maps","name_short":"frk-4","host":"frk-1.de.uncletopia.com","port":27045,"enabled":true,"region":"eu","cc":"de","latitude":50.110924,"longitude":8.682127,"reserved":0,"last_update":"0001-01-01T00:00:00Z","name_a2s":"Uncletopia | Frankfurt | 4 | All Maps","protocol":17,"map":"pl_upward","folder":"tf","game":"Team Fortress","app_id":440,"player_count":23,"max_players":24,"Bots":0,"server_type":"Dedicated","server_os":"Linux","password":true,"vac":true,"version":"7961495","steam_id":85568392924504275,"keywords":["nocrits","nodmgspread","payload","uncletopia"],"game_id":440,"stv_port":27046,"stv_name":"Uncletopia | Frankfurt | 4 | All Maps | STV","players":[{"user_id":366,"name":"NALA","steam_id":76561198039806469,"connected_time":1000000000000,"state":"active","ping":68},{"user_id":369,"name":"LEGEND FUMO.","steam_id":76561198061033903,"connected_time":550000000000,"state":"active","ping":44},{"user_id":368,"name":"Milfshake","steam_id":76561198208740557,"connected_time":835000000000,"state":"active","ping":49},{"user_id":359,"name":"HayLeX","steam_id":76561198130997343,"connected_time":1292000000000,"state":"active","ping":79},{"user_id":372,"name":"MaximusTheFish-H21","steam_id":76561199025652089,"connected_time":370000000000,"state":"active","ping":51},{"user_id":357,"name":"pretty dick peso","steam_id":76561198798177799,"connected_time":1383000000000,"state":"active","ping":78},{"user_id":328,"name":"MOKUJIN, the normal rat","steam_id":76561198118034973,"connected_time":2813000000000,"state":"active","ping":52},{"user_id":358,"name":"wavelength","steam_id":76561198154677956,"connected_time":1318000000000,"state":"active","ping":67},{"user_id":340,"name":"_Alonso","steam_id":76561198041893314,"connected_time":2390000000000,"state":"active","ping":59},{"user_id":347,"name":"the rizzard of oz","steam_id":76561198066631833,"connected_time":1638000000000,"state":"active","ping":75},{"user_id":351,"name":"Teo","steam_id":76561198030853412,"connected_time":1597000000000,"state":"active","ping":48},{"user_id":354,"name":"SynthBox3","steam_id":76561199094075745,"connected_time":1576000000000,"state":"active","ping":93},{"user_id":338,"name":"EoN","steam_id":76561198103660553,"connected_time":2526000000000,"state":"active","ping":90},{"user_id":365,"name":"matto","steam_id":76561198204488876,"connected_time":1016000000000,"state":"active","ping":58},{"user_id":371,"name":"Germanium_Ge","steam_id":76561198130561775,"connected_time":419000000000,"state":"active","ping":60},{"user_id":331,"name":"Godjan","steam_id":76561198077554447,"connected_time":2795000000000,"state":"active","ping":134},{"user_id":312,"name":"hubert's mistake","steam_id":76561198057722639,"connected_time":4069000000000,"state":"active","ping":69},{"user_id":367,"name":"A Kobold With a Large Gun","steam_id":76561198060638325,"connected_time":996000000000,"state":"active","ping":45},{"user_id":315,"name":"Veemo","steam_id":76561198180932842,"connected_time":4037000000000,"state":"active","ping":69},{"user_id":300,"name":"baconeggncheez","steam_id":76561198049312442,"connected_time":4582000000000,"state":"active","ping":60},{"user_id":349,"name":"OMG! i am one damaje off lethal","steam_id":76561198104896547,"connected_time":1636000000000,"state":"active","ping":71},{"user_id":317,"name":"Kamanie","steam_id":76561198135448255,"connected_time":4021000000000,"state":"active","ping":53},{"user_id":321,"name":"☁ Lou1smeister ☁","steam_id":76561198004032968,"connected_time":3793000000000,"state":"active","ping":63}]},{"server_id":310,"name":"Uncletopia | Frankfurt | 5 | All Maps","name_short":"frk-5","host":"frk-1.de.uncletopia.com","port":27055,"enabled":true,"region":"eu","cc":"de","latitude":50.110924,"longitude":8.682127,"reserved":0,"last_update":"0001-01-01T00:00:00Z","name_a2s":"Uncletopia | Frankfurt | 5 | All Maps","protocol":17,"map":"pl_snowycoast","folder":"tf","game":"Team Fortress","app_id":440,"player_count":24,"max_players":24,"Bots":0,"server_type":"Dedicated","server_os":"Linux","password":true,"vac":true,"version":"7961495","steam_id":85568392924504277,"keywords":["nocrits","nodmgspread","payload","uncletopia"],"game_id":440,"stv_port":27056,"stv_name":"Uncletopia | Frankfurt | 5 | All Maps | STV","players":[{"user_id":553,"name":"zak","steam_id":76561197998895428,"connected_time":182000000000,"state":"active","ping":48},{"user_id":548,"name":"Noxifoxis","steam_id":76561198838493783,"connected_time":461000000000,"state":"active","ping":83},{"user_id":554,"name":"Carrot Arc","steam_id":76561198164957006,"connected_time":149000000000,"state":"active","ping":64},{"user_id":491,"name":"Cepakas","steam_id":76561198878369698,"connected_time":4878000000000,"state":"active","ping":75},{"user_id":522,"name":"Caliban","steam_id":76561197999696839,"connected_time":3025000000000,"state":"active","ping":100},{"user_id":486,"name":"Maya #transrights","steam_id":76561198290614621,"connected_time":5325000000000,"state":"active","ping":70},{"user_id":555,"name":"1ggy","steam_id":76561199051285912,"connected_time":140000000000,"state":"active","ping":65},{"user_id":556,"name":"Arasey","steam_id":76561198996948426,"connected_time":137000000000,"state":"active","ping":79},{"user_id":541,"name":"sAmasam","steam_id":76561198114953928,"connected_time":1302000000000,"state":"active","ping":60},{"user_id":557,"name":"lulu","steam_id":76561199147764133,"connected_time":132000000000,"state":"active","ping":76},{"user_id":538,"name":"Carry Krypl","steam_id":76561198136938121,"connected_time":1436000000000,"state":"active","ping":50},{"user_id":558,"name":"I jazzed myself","steam_id":76561198203016603,"connected_time":118000000000,"state":"active","ping":73},{"user_id":562,"name":"*HOLAB*","steam_id":76561198374809832,"connected_time":71000000000,"state":"active","ping":85},{"user_id":549,"name":"Rad","steam_id":76561198273632736,"connected_time":310000000000,"state":"active","ping":95},{"user_id":534,"name":"ok","steam_id":76561198320042443,"connected_time":2126000000000,"state":"active","ping":98},{"user_id":539,"name":"Purple Soup :D","steam_id":76561198985100366,"connected_time":1428000000000,"state":"active","ping":100},{"user_id":527,"name":"orange","steam_id":76561198153181940,"connected_time":2287000000000,"state":"active","ping":66},{"user_id":449,"name":"yush","steam_id":76561198121688934,"connected_time":6856000000000,"state":"active","ping":75},{"user_id":529,"name":"WHUSSKEY","steam_id":76561198137827441,"connected_time":2200000000000,"state":"active","ping":73},{"user_id":551,"name":"pijacka","steam_id":76561198103899658,"connected_time":196000000000,"state":"active","ping":60},{"user_id":547,"name":"Na'vi Misato (by popular demand","steam_id":76561198130860698,"connected_time":652000000000,"state":"active","ping":63},{"user_id":560,"name":"Escobar","steam_id":76561198089785078,"connected_time":99000000000,"state":"active","ping":95},{"user_id":543,"name":"t0ksi","steam_id":76561198107240798,"connected_time":1100000000000,"state":"active","ping":70},{"user_id":561,"name":"Muchtario","steam_id":76561198292632368,"connected_time":94000000000,"state":"active","ping":100}]},{"server_id":311,"name":"Uncletopia | Frankfurt | 6 | All Maps","name_short":"frk-6","host":"frk-1.de.uncletopia.com","port":27065,"enabled":true,"region":"eu","cc":"de","latitude":50.110924,"longitude":8.682127,"reserved":0,"last_update":"0001-01-01T00:00:00Z","name_a2s":"Uncletopia | Frankfurt | 6 | All Maps","protocol":17,"map":"cp_gorge","folder":"tf","game":"Team Fortress","app_id":440,"player_count":24,"max_players":24,"Bots":0,"server_type":"Dedicated","server_os":"Linux","password":true,"vac":true,"version":"7961495","steam_id":85568392924504278,"keywords":["cp","nocrits","nodmgspread","uncletopia"],"game_id":440,"stv_port":27066,"stv_name":"Uncletopia | Frankfurt | 6 | All Maps | STV","players":[{"user_id":328,"name":"Rejdory","steam_id":76561198416604100,"connected_time":3422000000000,"state":"active","ping":52},{"user_id":360,"name":"Killroywashere","steam_id":76561198169854979,"connected_time":1769000000000,"state":"active","ping":94},{"user_id":288,"name":"Random Bagel","steam_id":76561198047213821,"connected_time":6170000000000,"state":"active","ping":68},{"user_id":352,"name":"Vibrátor (418 122 locomotive)","steam_id":76561198097789669,"connected_time":2446000000000,"state":"active","ping":58},{"user_id":345,"name":"Robo-Tavish","steam_id":76561198073284118,"connected_time":2823000000000,"state":"active","ping":59},{"user_id":363,"name":"Swiss_Nostalgia","steam_id":76561199159896259,"connected_time":1464000000000,"state":"active","ping":70},{"user_id":367,"name":"FiuffyDaisy!","steam_id":76561198241732704,"connected_time":964000000000,"state":"active","ping":59},{"user_id":374,"name":"golfmastr","steam_id":76561198993144124,"connected_time":218000000000,"state":"active","ping":70},{"user_id":351,"name":"Waffel","steam_id":76561198113552009,"connected_time":2454000000000,"state":"active","ping":97},{"user_id":337,"name":"DaLuigi","steam_id":76561198054486188,"connected_time":3190000000000,"state":"active","ping":46},{"user_id":364,"name":"di4298404!§§)$§I!^!!!","steam_id":76561198249301650,"connected_time":1379000000000,"state":"active","ping":42},{"user_id":338,"name":"Technic","steam_id":76561198128096130,"connected_time":3177000000000,"state":"active","ping":56},{"user_id":375,"name":"silicon based life form","steam_id":76561199127121346,"connected_time":203000000000,"state":"active","ping":54},{"user_id":320,"name":"Purrplehaze","steam_id":76561198297604298,"connected_time":3623000000000,"state":"active","ping":59},{"user_id":335,"name":"GMsU | Rebikas","steam_id":76561198077053764,"connected_time":3200000000000,"state":"active","ping":46},{"user_id":347,"name":"Ziemniaczki","steam_id":76561198061866742,"connected_time":2747000000000,"state":"active","ping":59},{"user_id":377,"name":"Ściana","steam_id":76561198196617407,"connected_time":124000000000,"state":"active","ping":71},{"user_id":369,"name":"aaa","steam_id":76561198322459156,"connected_time":842000000000,"state":"active","ping":59},{"user_id":382,"name":"shoras","steam_id":76561198019680159,"connected_time":31000000000,"state":"spawning","ping":2697},{"user_id":380,"name":"s8m","steam_id":76561198287182610,"connected_time":60000000000,"state":"active","ping":45},{"user_id":383,"name":"Gen","steam_id":76561198021775885,"connected_time":25000000000,"state":"active","ping":46},{"user_id":336,"name":"GMsU | AuxiliusN","steam_id":76561198328216978,"connected_time":3198000000000,"state":"active","ping":44},{"user_id":384,"name":"goop","steam_id":76561198190073005,"connected_time":22000000000,"state":"active","ping":56},{"user_id":385,"name":"tiko","steam_id":76561199478948953,"connected_time":21000000000,"state":"spawning","ping":64}]},{"server_id":23,"name":"Uncletopia | Frankfurt | 7 | Stopwatch","name_short":"frk-7","host":"frk-1.de.uncletopia.com","port":27075,"enabled":true,"region":"eu","cc":"de","latitude":50.110924,"longitude":8.682127,"reserved":0,"last_update":"0001-01-01T00:00:00Z","name_a2s":"Uncletopia | Frankfurt | 7 | Stopwatch","protocol":17,"map":"workshop/koth_ashville_final.ugc2130459942","folder":"tf","game":"Team Fortress","app_id":440,"player_count":0,"max_players":24,"Bots":0,"server_type":"Dedicated","server_os":"Linux","password":true,"vac":true,"version":"7961495","steam_id":85568392924742827,"keywords":["cp","nocrits","nodmgspread","uncletopia"],"game_id":440,"stv_port":27076,"stv_name":"Uncletopia | Frankfurt | 7 | Stopwatch | STV","players":null},{"server_id":24,"name":"Uncletopia | Frankfurt | 8 | Community","name_short":"frk-8","host":"frk-1.de.uncletopia.com","port":27085,"enabled":true,"region":"eu","cc":"de","latitude":50.110924,"longitude":8.682127,"reserved":0,"last_update":"0001-01-01T00:00:00Z","name_a2s":"Uncletopia | Frankfurt | 8 | Community","protocol":17,"map":"workshop/pl_oasis_rc3.ugc1366095901","folder":"tf","game":"Team Fortress","app_id":440,"player_count":1,"max_players":24,"Bots":0,"server_type":"Dedicated","server_os":"Linux","password":true,"vac":true,"version":"7961495","steam_id":85568392924742828,"keywords":["nocrits","nodmgspread","payload","uncletopia"],"game_id":440,"stv_port":27086,"stv_name":"Uncletopia | Frankfurt | 8 | Community | STV","players":[{"user_id":33,"name":"Flavia ♥","steam_id":76561198108360671,"connected_time":258000000000,"state":"active","ping":100}]},{"server_id":202,"name":"Uncletopia | Hong Kong | 1 | All Maps","name_short":"hgk-1","host":"hgk-1.hk.uncletopia.com","port":27015,"enabled":true,"region":"asia","cc":"hk","latitude":22.302711,"longitude":114.177216,"reserved":0,"last_update":"0001-01-01T00:00:00Z","name_a2s":"Uncletopia | Hong Kong | 1 | All Maps","protocol":17,"map":"koth_viaduct","folder":"tf","game":"Team Fortress","app_id":440,"player_count":3,"max_players":24,"Bots":0,"server_type":"Dedicated","server_os":"Linux","password":true,"vac":true,"version":"7961495","steam_id":85568392924494504,"keywords":["cp","nocrits","nodmgspread","uncletopia"],"game_id":440,"stv_port":27016,"stv_name":"Uncletopia | Hong Kong | 1 | All Maps | STV","players":[{"user_id":414,"name":"DirtyDan","steam_id":76561198364890290,"connected_time":1994000000000,"state":"active","ping":65},{"user_id":415,"name":"yuko","steam_id":76561198181866314,"connected_time":1980000000000,"state":"active","ping":57},{"user_id":416,"name":"adil jay","steam_id":76561198182233723,"connected_time":238000000000,"state":"active","ping":250}]},{"server_id":1,"name":"Uncletopia | Los Angeles | 1 | All Maps","name_short":"lax-1","host":"lax-1.us.uncletopia.com","port":27015,"enabled":true,"region":"us-west","cc":"us","latitude":33.94279,"longitude":-118.41004,"reserved":0,"last_update":"0001-01-01T00:00:00Z","name_a2s":"Uncletopia | Los Angeles | 1 | All Maps","protocol":17,"map":"koth_lakeside_final","folder":"tf","game":"Team Fortress","app_id":440,"player_count":0,"max_players":24,"Bots":0,"server_type":"Dedicated","server_os":"Linux","password":true,"vac":true,"version":"7961495","steam_id":85568392924469991,"keywords":["cp","nocrits","nodmgspread","uncletopia"],"game_id":440,"stv_port":27016,"stv_name":"Uncletopia | Los Angeles | 1 | All Maps | STV","players":null},{"server_id":112,"name":"Uncletopia | Los Angeles | 2 | All Maps","name_short":"lax-2","host":"lax-1.us.uncletopia.com","port":27025,"enabled":true,"region":"us-west","cc":"us","latitude":33.94279,"longitude":-118.41004,"reserved":0,"last_update":"0001-01-01T00:00:00Z","name_a2s":"Uncletopia | Los Angeles | 2 | All Maps","protocol":17,"map":"koth_lazarus","folder":"tf","game":"Team Fortress","app_id":440,"player_count":0,"max_players":24,"Bots":0,"server_type":"Dedicated","server_os":"Linux","password":true,"vac":true,"version":"7961495","steam_id":85568392924469992,"keywords":["cp","nocrits","nodmgspread","uncletopia"],"game_id":440,"stv_port":27026,"stv_name":"Uncletopia | Los Angeles | 2 | All Maps | STV","players":null},{"server_id":324,"name":"Uncletopia | Los Angeles | 3 | All Maps","name_short":"lax-3","host":"lax-1.us.uncletopia.com","port":27035,"enabled":true,"region":"us-west","cc":"us","latitude":33.94279,"longitude":-118.41004,"reserved":0,"last_update":"0001-01-01T00:00:00Z","name_a2s":"Uncletopia | Los Angeles | 3 | All Maps","protocol":17,"map":"pl_borneo","folder":"tf","game":"Team Fortress","app_id":440,"player_count":0,"max_players":24,"Bots":0,"server_type":"Dedicated","server_os":"Linux","password":true,"vac":true,"version":"7961495","steam_id":85568392924510198,"keywords":["nocrits","nodmgspread","payload","uncletopia"],"game_id":440,"stv_port":27036,"stv_name":"Uncletopia | Los Angeles | 3 | All Maps | STV","players":null},{"server_id":25,"name":"Uncletopia | Los Angeles | 4 | Stopwatch","name_short":"lax-4","host":"lax-1.us.uncletopia.com","port":27045,"enabled":true,"region":"us-west","cc":"us","latitude":33.94279,"longitude":-118.41004,"reserved":0,"last_update":"0001-01-01T00:00:00Z","name_a2s":"Uncletopia | Los Angeles | 4 | Stopwatch","protocol":17,"map":"pl_upward","folder":"tf","game":"Team Fortress","app_id":440,"player_count":0,"max_players":24,"Bots":0,"server_type":"Dedicated","server_os":"Linux","password":true,"vac":true,"version":"7961495","steam_id":85568392924510199,"keywords":["nocrits","nodmgspread","payload","uncletopia"],"game_id":440,"stv_port":27046,"stv_name":"Uncletopia | Los Angeles | 4 | Stopwatch | STV","players":null},{"server_id":11,"name":"Uncletopia | London | 1 | All Maps","name_short":"lon-1","host":"lon-1.uk.uncletopia.com","port":27015,"enabled":true,"region":"eu","cc":"gb","latitude":51.509865,"longitude":-0.118092,"reserved":0,"last_update":"0001-01-01T00:00:00Z","name_a2s":"Uncletopia | London | 1 | All Maps","protocol":17,"map":"pl_frontier_final","folder":"tf","game":"Team Fortress","app_id":440,"player_count":24,"max_players":24,"Bots":0,"server_type":"Dedicated","server_os":"Linux","password":true,"vac":true,"version":"7961495","steam_id":85568392924367362,"keywords":["nocrits","nodmgspread","payload","uncletopia"],"game_id":440,"stv_port":27016,"stv_name":"Uncletopia | London | 1 | All Maps | STV","players":[{"user_id":660,"name":".:TEAM:. Rusty™","steam_id":76561198042400381,"connected_time":2530000000000,"state":"active","ping":58},{"user_id":589,"name":"Healix","steam_id":76561198130270161,"connected_time":6939000000000,"state":"active","ping":59},{"user_id":616,"name":"hitbox criminal","steam_id":76561198079277466,"connected_time":4135000000000,"state":"active","ping":72},{"user_id":658,"name":"AWildTamim","steam_id":76561198048060652,"connected_time":2653000000000,"state":"active","ping":43},{"user_id":615,"name":"bapab","steam_id":76561198307556377,"connected_time":4162000000000,"state":"active","ping":48},{"user_id":649,"name":"dec","steam_id":76561198009660168,"connected_time":2912000000000,"state":"active","ping":56},{"user_id":678,"name":"swagmeester","steam_id":76561198045828392,"connected_time":398000000000,"state":"active","ping":57},{"user_id":602,"name":"itransition UKRAINE","steam_id":76561198080912087,"connected_time":5760000000000,"state":"active","ping":74},{"user_id":661,"name":"Watch The Matrix 1999 HD online","steam_id":76561198168207306,"connected_time":2388000000000,"state":"active","ping":90},{"user_id":628,"name":"Thinkpad X220","steam_id":76561198830840410,"connected_time":3546000000000,"state":"active","ping":92},{"user_id":677,"name":"flappi","steam_id":76561198072892783,"connected_time":422000000000,"state":"active","ping":65},{"user_id":668,"name":"gibb (this game fucking sucks)","steam_id":76561198074097655,"connected_time":1707000000000,"state":"active","ping":68},{"user_id":671,"name":"nug","steam_id":76561198055396568,"connected_time":1032000000000,"state":"active","ping":51},{"user_id":669,"name":"AFriendlyRacoon2","steam_id":76561198128231464,"connected_time":1364000000000,"state":"active","ping":57},{"user_id":679,"name":"ashley","steam_id":76561198448551449,"connected_time":196000000000,"state":"active","ping":30},{"user_id":676,"name":"The Goon","steam_id":76561198086913973,"connected_time":457000000000,"state":"active","ping":66},{"user_id":674,"name":"Croy","steam_id":76561197972552579,"connected_time":483000000000,"state":"active","ping":45},{"user_id":560,"name":"Lyra","steam_id":76561198043601838,"connected_time":8608000000000,"state":"active","ping":74},{"user_id":565,"name":"wk ohw","steam_id":76561198106049954,"connected_time":8272000000000,"state":"active","ping":78},{"user_id":675,"name":"Doloro :3","steam_id":76561198309713613,"connected_time":460000000000,"state":"active","ping":46},{"user_id":641,"name":"Wuffington","steam_id":76561198033762881,"connected_time":3113000000000,"state":"active","ping":51},{"user_id":663,"name":"naah you off the Google+ perc","steam_id":76561198190583242,"connected_time":2048000000000,"state":"active","ping":78},{"user_id":667,"name":"Solymr ibn Wali Barad","steam_id":76561198044008976,"connected_time":1834000000000,"state":"active","ping":72}]},{"server_id":114,"name":"Uncletopia | London | 2 | All Maps","name_short":"lon-2","host":"lon-1.uk.uncletopia.com","port":27025,"enabled":true,"region":"eu","cc":"gb","latitude":51.509865,"longitude":-0.118092,"reserved":0,"last_update":"0001-01-01T00:00:00Z","name_a2s":"Uncletopia | London | 2 | All Maps","protocol":17,"map":"cp_snakewater_final1","folder":"tf","game":"Team Fortress","app_id":440,"player_count":8,"max_players":24,"Bots":0,"server_type":"Dedicated","server_os":"Linux","password":true,"vac":true,"version":"7961495","steam_id":85568392924470941,"keywords":["cp","nocrits","nodmgspread","uncletopia"],"game_id":440,"stv_port":27026,"stv_name":"Uncletopia | London | 2 | All Maps | STV","players":[{"user_id":63,"name":"PAN Dan","steam_id":76561198259233354,"connected_time":655000000000,"state":"active","ping":60},{"user_id":64,"name":"Johnny Law (Sad Style)","steam_id":76561198402829980,"connected_time":622000000000,"state":"active","ping":67},{"user_id":65,"name":"Hungeryan","steam_id":76561198887299930,"connected_time":428000000000,"state":"active","ping":88},{"user_id":66,"name":"captaincaptain","steam_id":76561198135644587,"connected_time":407000000000,"state":"active","ping":142},{"user_id":72,"name":"skilltissues","steam_id":76561198025828664,"connected_time":66000000000,"state":"active","ping":43},{"user_id":68,"name":"hooty","steam_id":76561199043415746,"connected_time":368000000000,"state":"active","ping":67},{"user_id":69,"name":"Deez nuts","steam_id":76561199429562693,"connected_time":274000000000,"state":"active","ping":67},{"user_id":71,"name":"Kenny_killer_69","steam_id":76561199465207725,"connected_time":225000000000,"state":"active","ping":66}]},{"server_id":320,"name":"Uncletopia | London | 3 | All Maps","name_short":"lon-3","host":"lon-1.uk.uncletopia.com","port":27035,"enabled":true,"region":"eu","cc":"gb","latitude":51.509865,"longitude":-0.118092,"reserved":0,"last_update":"0001-01-01T00:00:00Z","name_a2s":"Uncletopia | London | 3 | All Maps","protocol":17,"map":"cp_dustbowl","folder":"tf","game":"Team Fortress","app_id":440,"player_count":21,"max_players":24,"Bots":0,"server_type":"Dedicated","server_os":"Linux","password":true,"vac":true,"version":"7961495","steam_id":85568392924510192,"keywords":["cp","nocrits","nodmgspread","uncletopia"],"game_id":440,"stv_port":27036,"stv_name":"Uncletopia | London | 3 | All Maps | STV","players":[{"user_id":154,"name":"Kimoch","steam_id":76561198260447049,"connected_time":994000000000,"state":"active","ping":96},{"user_id":148,"name":"Egor Pomidor","steam_id":76561199175688390,"connected_time":1157000000000,"state":"active","ping":81},{"user_id":150,"name":"rockBustaz","steam_id":76561198088290698,"connected_time":1083000000000,"state":"active","ping":48},{"user_id":152,"name":"Voks_","steam_id":76561198159687785,"connected_time":1078000000000,"state":"active","ping":61},{"user_id":193,"name":"FIRST TF2 GAME","steam_id":76561198112587264,"connected_time":34000000000,"state":"active","ping":41},{"user_id":155,"name":"Serenity","steam_id":76561198170355609,"connected_time":983000000000,"state":"active","ping":58},{"user_id":169,"name":"RedPyro2009","steam_id":76561198935824363,"connected_time":843000000000,"state":"active","ping":66},{"user_id":179,"name":"Chief Engineer Michael","steam_id":76561198003537558,"connected_time":561000000000,"state":"active","ping":68},{"user_id":190,"name":"Vanilla Autismotron","steam_id":76561198278604277,"connected_time":158000000000,"state":"active","ping":52},{"user_id":164,"name":"Wellink","steam_id":76561198854204494,"connected_time":905000000000,"state":"active","ping":74},{"user_id":195,"name":"jjkun786","steam_id":76561199438517484,"connected_time":26000000000,"state":"active","ping":92},{"user_id":162,"name":"Doktor Bomba","steam_id":76561198860107995,"connected_time":938000000000,"state":"active","ping":72},{"user_id":166,"name":"5UP3R TH30 B4G","steam_id":76561198852348375,"connected_time":875000000000,"state":"active","ping":54},{"user_id":184,"name":"Theodore Argesh","steam_id":76561198122028307,"connected_time":489000000000,"state":"active","ping":61},{"user_id":170,"name":"Shawty","steam_id":76561198256704286,"connected_time":835000000000,"state":"active","ping":60},{"user_id":185,"name":"Mitrixie","steam_id":76561198842023498,"connected_time":487000000000,"state":"active","ping":98},{"user_id":186,"name":"Jeff (♀)","steam_id":76561198280101970,"connected_time":469000000000,"state":"active","ping":62},{"user_id":173,"name":"Zemo","steam_id":76561198079421552,"connected_time":816000000000,"state":"active","ping":49},{"user_id":180,"name":"Sang","steam_id":76561198008510868,"connected_time":528000000000,"state":"active","ping":74},{"user_id":176,"name":"NodeOne","steam_id":76561197993040629,"connected_time":792000000000,"state":"active","ping":79},{"user_id":188,"name":"OG loc","steam_id":76561198007477328,"connected_time":443000000000,"state":"active","ping":45}]},{"server_id":321,"name":"Uncletopia | London | 4 | All Maps","name_short":"lon-4","host":"lon-1.uk.uncletopia.com","port":27045,"enabled":true,"region":"eu","cc":"gb","latitude":51.509865,"longitude":-0.118092,"reserved":0,"last_update":"0001-01-01T00:00:00Z","name_a2s":"Uncletopia | London | 4 | All Maps","protocol":17,"map":"pl_frontier_final","folder":"tf","game":"Team Fortress","app_id":440,"player_count":24,"max_players":24,"Bots":0,"server_type":"Dedicated","server_os":"Linux","password":true,"vac":true,"version":"7961495","steam_id":85568392924510193,"keywords":["nocrits","nodmgspread","payload","uncletopia"],"game_id":440,"stv_port":27046,"stv_name":"Uncletopia | London | 4 | All Maps | STV","players":[{"user_id":238,"name":"oskaroku00","steam_id":76561199025360128,"connected_time":764000000000,"state":"active","ping":75},{"user_id":243,"name":"DemonBolt","steam_id":76561198190409861,"connected_time":148000000000,"state":"active","ping":79},{"user_id":199,"name":"Tort","steam_id":76561198329646769,"connected_time":3500000000000,"state":"active","ping":56},{"user_id":231,"name":"TheBeardedM1G","steam_id":76561198040208946,"connected_time":1355000000000,"state":"active","ping":47},{"user_id":242,"name":"Hey, I´m Andy!","steam_id":76561198060337777,"connected_time":167000000000,"state":"active","ping":85},{"user_id":191,"name":"çodar","steam_id":76561198235518444,"connected_time":3781000000000,"state":"active","ping":36},{"user_id":180,"name":"GarlicRodent","steam_id":76561198252853460,"connected_time":4464000000000,"state":"active","ping":66},{"user_id":202,"name":"(M.G)reg","steam_id":76561198063153881,"connected_time":3437000000000,"state":"active","ping":73},{"user_id":221,"name":"lamesause","steam_id":76561199133303544,"connected_time":1844000000000,"state":"active","ping":68},{"user_id":206,"name":"McAtka","steam_id":76561198019759329,"connected_time":3253000000000,"state":"active","ping":61},{"user_id":218,"name":"Nox Equites","steam_id":76561198115438449,"connected_time":1852000000000,"state":"active","ping":79},{"user_id":239,"name":"Puro ♥","steam_id":76561198039016765,"connected_time":517000000000,"state":"active","ping":97},{"user_id":224,"name":"Supercoxylac","steam_id":76561198376300138,"connected_time":1794000000000,"state":"active","ping":66},{"user_id":240,"name":"caramel❤","steam_id":76561198819353867,"connected_time":440000000000,"state":"active","ping":37},{"user_id":215,"name":"housing crisis#savetf2","steam_id":76561198119984382,"connected_time":2182000000000,"state":"active","ping":58},{"user_id":207,"name":"ChebJeb","steam_id":76561198981377081,"connected_time":3222000000000,"state":"active","ping":130},{"user_id":226,"name":"gitlitwitit","steam_id":76561197980019054,"connected_time":1714000000000,"state":"active","ping":59},{"user_id":122,"name":"Miss Asstickles","steam_id":76561198030286622,"connected_time":9500000000000,"state":"active","ping":49},{"user_id":229,"name":"gaming (official)","steam_id":76561198106012909,"connected_time":1442000000000,"state":"active","ping":84},{"user_id":228,"name":"Gillusion","steam_id":76561198138818087,"connected_time":1487000000000,"state":"active","ping":45},{"user_id":179,"name":"Aspartus","steam_id":76561198101385763,"connected_time":4634000000000,"state":"active","ping":46},{"user_id":241,"name":"mean \u0026 gene","steam_id":76561198088201976,"connected_time":198000000000,"state":"active","ping":38},{"user_id":235,"name":"Mr. Hunts","steam_id":76561197981910397,"connected_time":1025000000000,"state":"active","ping":62},{"user_id":233,"name":"Biglet","steam_id":76561198077243439,"connected_time":1035000000000,"state":"active","ping":56}]},{"server_id":21,"name":"Uncletopia | London | 5 | All Maps","name_short":"lon-5","host":"lon-1.uk.uncletopia.com","port":27055,"enabled":true,"region":"eu","cc":"gb","latitude":51.509865,"longitude":-0.118092,"reserved":0,"last_update":"0001-01-01T00:00:00Z","name_a2s":"Uncletopia | London | 5 | All Maps","protocol":17,"map":"cp_powerhouse","folder":"tf","game":"Team Fortress","app_id":440,"player_count":24,"max_players":24,"Bots":0,"server_type":"Dedicated","server_os":"Linux","password":true,"vac":true,"version":"7961495","steam_id":85568392924742829,"keywords":["cp","nocrits","nodmgspread","uncletopia"],"game_id":440,"stv_port":27056,"stv_name":"Uncletopia | London | 5 | All Maps | STV","players":[{"user_id":550,"name":"Para Bellum","steam_id":76561198375413446,"connected_time":2813000000000,"state":"active","ping":45},{"user_id":533,"name":"literallyjasonx","steam_id":76561198835895387,"connected_time":3911000000000,"state":"active","ping":65},{"user_id":508,"name":"tired","steam_id":76561198046838168,"connected_time":5489000000000,"state":"active","ping":58},{"user_id":579,"name":"SSAAMMII","steam_id":76561199168609647,"connected_time":1061000000000,"state":"active","ping":78},{"user_id":542,"name":"CerealKiller154","steam_id":76561198831177630,"connected_time":3421000000000,"state":"active","ping":89},{"user_id":509,"name":"lugi","steam_id":76561198026903673,"connected_time":5482000000000,"state":"active","ping":69},{"user_id":580,"name":"Skelet (zooted)","steam_id":76561198051685232,"connected_time":994000000000,"state":"active","ping":50},{"user_id":605,"name":"Pan Pan","steam_id":76561199074670515,"connected_time":213000000000,"state":"active","ping":88},{"user_id":547,"name":"Rocket Queen's consort","steam_id":76561198092995429,"connected_time":2942000000000,"state":"active","ping":148},{"user_id":599,"name":"gmem","steam_id":76561198070006725,"connected_time":442000000000,"state":"active","ping":49},{"user_id":581,"name":"ender45","steam_id":76561198840955715,"connected_time":989000000000,"state":"active","ping":43},{"user_id":600,"name":"Henry","steam_id":76561198108018305,"connected_time":433000000000,"state":"active","ping":83},{"user_id":590,"name":"ALARM","steam_id":76561198120686521,"connected_time":822000000000,"state":"active","ping":67},{"user_id":555,"name":"Dei Genetrix","steam_id":76561198305678122,"connected_time":2437000000000,"state":"active","ping":49},{"user_id":487,"name":"DiscoTraveler","steam_id":76561199240168088,"connected_time":6538000000000,"state":"active","ping":124},{"user_id":592,"name":"LOBZIK","steam_id":76561198114830120,"connected_time":702000000000,"state":"active","ping":77},{"user_id":586,"name":"hoe","steam_id":76561198078902326,"connected_time":917000000000,"state":"active","ping":49},{"user_id":564,"name":"AlfonsoM","steam_id":76561198138832894,"connected_time":1719000000000,"state":"active","ping":64},{"user_id":562,"name":"spy among us","steam_id":76561197972287320,"connected_time":1785000000000,"state":"active","ping":79},{"user_id":608,"name":"Salad Bar's medic","steam_id":76561199006455750,"connected_time":87000000000,"state":"active","ping":43},{"user_id":545,"name":"Qwertuss","steam_id":76561198026305366,"connected_time":3141000000000,"state":"active","ping":53},{"user_id":604,"name":"merc","steam_id":76561198377533237,"connected_time":246000000000,"state":"active","ping":72},{"user_id":609,"name":"The_voices","steam_id":76561199095701143,"connected_time":77000000000,"state":"active","ping":86},{"user_id":597,"name":"thuke","steam_id":76561198093821065,"connected_time":558000000000,"state":"active","ping":91}]},{"server_id":22,"name":"Uncletopia | London | 6 | All Maps","name_short":"lon-6","host":"lon-1.uk.uncletopia.com","port":27065,"enabled":true,"region":"eu","cc":"gb","latitude":51.509865,"longitude":-0.118092,"reserved":0,"last_update":"0001-01-01T00:00:00Z","name_a2s":"Uncletopia | London | 6 | All Maps","protocol":17,"map":"pl_swiftwater_final1","folder":"tf","game":"Team Fortress","app_id":440,"player_count":24,"max_players":24,"Bots":0,"server_type":"Dedicated","server_os":"Linux","password":true,"vac":true,"version":"7961495","steam_id":85568392924742830,"keywords":["nocrits","nodmgspread","payload","uncletopia"],"game_id":440,"stv_port":27066,"stv_name":"Uncletopia | London | 6 | All Maps | STV","players":[{"user_id":226,"name":"toomas2018(not racist)(real)","steam_id":76561199105796083,"connected_time":2137000000000,"state":"active","ping":71},{"user_id":230,"name":"un puie","steam_id":76561198084056439,"connected_time":2043000000000,"state":"active","ping":39},{"user_id":165,"name":"wee bit depresso","steam_id":76561198097507847,"connected_time":6389000000000,"state":"active","ping":86},{"user_id":245,"name":"Gay Potato","steam_id":76561198018859519,"connected_time":1009000000000,"state":"active","ping":66},{"user_id":246,"name":"the one who gibs","steam_id":76561199024168373,"connected_time":935000000000,"state":"active","ping":61},{"user_id":235,"name":"kreeekz","steam_id":76561198014431602,"connected_time":1720000000000,"state":"active","ping":72},{"user_id":248,"name":"Flarp von Karma","steam_id":76561198043855292,"connected_time":746000000000,"state":"active","ping":47},{"user_id":242,"name":"generic alias","steam_id":76561198271607226,"connected_time":1213000000000,"state":"active","ping":83},{"user_id":178,"name":"xqc","steam_id":76561198047359132,"connected_time":6046000000000,"state":"active","ping":74},{"user_id":251,"name":"goku ピップ・ペタル","steam_id":76561198147668373,"connected_time":246000000000,"state":"active","ping":82},{"user_id":169,"name":"Wee bit espresso","steam_id":76561198067204908,"connected_time":6237000000000,"state":"active","ping":54},{"user_id":224,"name":"Mizobau","steam_id":76561198965211894,"connected_time":2232000000000,"state":"active","ping":55},{"user_id":241,"name":"Dan Dan the Furious","steam_id":76561198091032527,"connected_time":1321000000000,"state":"active","ping":48},{"user_id":225,"name":"RAT BASTARD","steam_id":76561199195985387,"connected_time":2174000000000,"state":"active","ping":85},{"user_id":222,"name":"Voidbane","steam_id":76561198060591741,"connected_time":2796000000000,"state":"active","ping":161},{"user_id":194,"name":"TheEventGuy","steam_id":76561197972797744,"connected_time":4931000000000,"state":"active","ping":83},{"user_id":249,"name":"jeff","steam_id":76561198272815746,"connected_time":656000000000,"state":"active","ping":50},{"user_id":247,"name":"MeBandae","steam_id":76561198910770432,"connected_time":872000000000,"state":"active","ping":60},{"user_id":250,"name":"FilipeLuk","steam_id":76561198150675438,"connected_time":582000000000,"state":"active","ping":71},{"user_id":213,"name":"Mrbluuub","steam_id":76561199273847084,"connected_time":3373000000000,"state":"active","ping":86},{"user_id":228,"name":"robouki","steam_id":76561198168265569,"connected_time":2104000000000,"state":"active","ping":40},{"user_id":221,"name":"Goofy ahh Penwin doin de griddy","steam_id":76561198809697283,"connected_time":3039000000000,"state":"active","ping":47},{"user_id":252,"name":"Flank","steam_id":76561198098731156,"connected_time":222000000000,"state":"active","ping":65},{"user_id":244,"name":"sleep addict","steam_id":76561198100694096,"connected_time":1069000000000,"state":"active","ping":163}]},{"server_id":40,"name":"Uncletopia | London | 7 | Stopwatch","name_short":"lon-7","host":"lon-1.uk.uncletopia.com","port":27075,"enabled":true,"region":"eu","cc":"gb","latitude":51.509865,"longitude":-0.118092,"reserved":0,"last_update":"0001-01-01T00:00:00Z","name_a2s":"Uncletopia | London | 7 | Stopwatch","protocol":17,"map":"workshop/koth_clearcut_b15.ugc2107050255","folder":"tf","game":"Team Fortress","app_id":440,"player_count":0,"max_players":24,"Bots":0,"server_type":"Dedicated","server_os":"Linux","password":true,"vac":true,"version":"7961495","steam_id":85568392924964314,"keywords":["cp","nocrits","nodmgspread","uncletopia"],"game_id":440,"stv_port":27076,"stv_name":"Uncletopia | London | 7 | Stopwatch | STV","players":null},{"server_id":41,"name":"Uncletopia | London | 8 | Community","name_short":"lon-8","host":"lon-1.uk.uncletopia.com","port":27085,"enabled":true,"region":"eu","cc":"gb","latitude":51.509865,"longitude":-0.118092,"reserved":0,"last_update":"0001-01-01T00:00:00Z","name_a2s":"Uncletopia | London | 8 | Community","protocol":17,"map":"workshop/koth_kemptown_rc1.ugc767410655","folder":"tf","game":"Team Fortress","app_id":440,"player_count":0,"max_players":24,"Bots":0,"server_type":"Dedicated","server_os":"Linux","password":true,"vac":true,"version":"7961495","steam_id":85568392924964315,"keywords":["cp","nocrits","nodmgspread","uncletopia"],"game_id":440,"stv_port":27086,"stv_name":"Uncletopia | London | 8 | Community | STV","players":null},{"server_id":300,"name":"Uncletopia | Montréal | 1 | One Thousand Uncles","name_short":"mtl-1","host":"mtl-1.ca.uncletopia.com","port":27015,"enabled":true,"region":"us-east","cc":"ca","latitude":45.50889,"longitude":-73.56167,"reserved":0,"last_update":"0001-01-01T00:00:00Z","name_a2s":"Uncletopia | Montréal | 1 | One Thousand Uncles","protocol":17,"map":"pl_badwater","folder":"tf","game":"Team Fortress","app_id":440,"player_count":25,"max_players":32,"Bots":20,"server_type":"Dedicated","server_os":"Linux","password":true,"vac":true,"version":"7961495","steam_id":85568392924500087,"keywords":["alltalk","bots","danepve","increased_maxplayers","norespawntime","payload","uncletopia"],"game_id":440,"stv_port":0,"stv_name":"","players":[{"user_id":68,"name":"Ata","steam_id":76561198349085545,"connected_time":3501000000000,"state":"active","ping":116},{"user_id":76,"name":"Just a BLU Toon","steam_id":76561198273199771,"connected_time":1119000000000,"state":"active","ping":81},{"user_id":101,"name":"put fentanyl back in pepsi","steam_id":76561198238592900,"connected_time":172000000000,"state":"active","ping":102},{"user_id":69,"name":"Herman Bavinck","steam_id":76561197993190216,"connected_time":3059000000000,"state":"active","ping":60},{"user_id":80,"name":"Turtlethantwigs","steam_id":76561199139558908,"connected_time":404000000000,"state":"active","ping":116}]},{"server_id":301,"name":"Uncletopia | Montréal | 2 | One Thousand Uncles","name_short":"mtl-2","host":"mtl-1.ca.uncletopia.com","port":27025,"enabled":true,"region":"us-east","cc":"ca","latitude":45.50889,"longitude":-73.56167,"reserved":0,"last_update":"0001-01-01T00:00:00Z","name_a2s":"Uncletopia | Montréal | 2 | One Thousand Uncles","protocol":17,"map":"pl_swiftwater_final1","folder":"tf","game":"Team Fortress","app_id":440,"player_count":22,"max_players":32,"Bots":20,"server_type":"Dedicated","server_os":"Linux","password":true,"vac":true,"version":"7961495","steam_id":85568392924500088,"keywords":["alltalk","bots","danepve","increased_maxplayers","norespawntime","payload","uncletopia"],"game_id":440,"stv_port":0,"stv_name":"","players":[{"user_id":37,"name":"goobiestgoober","steam_id":76561199487899460,"connected_time":2349000000000,"state":"active","ping":359},{"user_id":79,"name":"barbecuesteve","steam_id":76561198048819671,"connected_time":1337000000000,"state":"active","ping":77}]},{"server_id":302,"name":"Uncletopia | Montréal | 3 | One Thousand Uncles","name_short":"mtl-3","host":"mtl-1.ca.uncletopia.com","port":27035,"enabled":true,"region":"us-east","cc":"ca","latitude":45.50889,"longitude":-73.56167,"reserved":0,"last_update":"0001-01-01T00:00:00Z","name_a2s":"Uncletopia | Montréal | 3 | One Thousand Uncles","protocol":17,"map":"pl_swiftwater_final1","folder":"tf","game":"Team Fortress","app_id":440,"player_count":0,"max_players":32,"Bots":0,"server_type":"Dedicated","server_os":"Linux","password":true,"vac":true,"version":"7961495","steam_id":85568392924500089,"keywords":["alltalk","danepve","increased_maxplayers","norespawntime","payload","uncletopia"],"game_id":440,"stv_port":0,"stv_name":"","players":null},{"server_id":13,"name":"Uncletopia | New York City | 1 | All Maps","name_short":"nyc-1","host":"nyc-1.us.uncletopia.com","port":27015,"enabled":true,"region":"us-east","cc":"us","latitude":40.73061,"longitude":-73.93524,"reserved":0,"last_update":"0001-01-01T00:00:00Z","name_a2s":"Uncletopia | New York City | 1 | All Maps","protocol":17,"map":"cp_sunshine","folder":"tf","game":"Team Fortress","app_id":440,"player_count":21,"max_players":24,"Bots":0,"server_type":"Dedicated","server_os":"Linux","password":true,"vac":true,"version":"7961495","steam_id":85568392924469993,"keywords":["cp","nocrits","nodmgspread","uncletopia"],"game_id":440,"stv_port":27016,"stv_name":"Uncletopia | New York City | 1 | All Maps | STV","players":[{"user_id":285,"name":"King","steam_id":76561198039763676,"connected_time":1306000000000,"state":"connecting","ping":94},{"user_id":270,"name":"mG| Clippy","steam_id":76561198046403202,"connected_time":2960000000000,"state":"connecting","ping":133},{"user_id":308,"name":"Mr. Pink","steam_id":76561198065858172,"connected_time":248000000000,"state":"connecting","ping":54},{"user_id":266,"name":"milk","steam_id":76561198813251405,"connected_time":3460000000000,"state":"connecting","ping":66},{"user_id":277,"name":"Mattie43","steam_id":76561198012053433,"connected_time":2017000000000,"state":"connecting","ping":37},{"user_id":287,"name":"Cowabummer","steam_id":76561198272640432,"connected_time":1271000000000,"state":"connecting","ping":85},{"user_id":294,"name":"Yukiteru Amano","steam_id":76561198267480166,"connected_time":1196000000000,"state":"connecting","ping":96},{"user_id":301,"name":"Gary Budussy","steam_id":76561197969793969,"connected_time":950000000000,"state":"connecting","ping":77},{"user_id":296,"name":"BB Lorexav","steam_id":76561198207565988,"connected_time":1118000000000,"state":"connecting","ping":80},{"user_id":305,"name":"Lost CS2 player","steam_id":76561198892387723,"connected_time":531000000000,"state":"connecting","ping":56},{"user_id":284,"name":"jokie1024","steam_id":76561199052355302,"connected_time":1334000000000,"state":"connecting","ping":57},{"user_id":279,"name":"CS 246 - Object Oriented Softwa","steam_id":76561198106967427,"connected_time":1604000000000,"state":"connecting","ping":72},{"user_id":307,"name":"Linguine Alfredo","steam_id":76561198022045816,"connected_time":395000000000,"state":"connecting","ping":56},{"user_id":239,"name":"Chadmander","steam_id":76561197974136337,"connected_time":4741000000000,"state":"connecting","ping":66},{"user_id":117,"name":"CDBeans","steam_id":76561198046990367,"connected_time":13318000000000,"state":"connecting","ping":101},{"user_id":274,"name":"G0LD","steam_id":76561198890015734,"connected_time":2451000000000,"state":"connecting","ping":66},{"user_id":293,"name":"Gorilla","steam_id":76561198353451603,"connected_time":1202000000000,"state":"connecting","ping":89},{"user_id":278,"name":"feelsgoodman.jpg","steam_id":76561198046798273,"connected_time":1787000000000,"state":"connecting","ping":153},{"user_id":298,"name":"Gruko","steam_id":76561198282965665,"connected_time":1086000000000,"state":"connecting","ping":51}]},{"server_id":14,"name":"Uncletopia | New York City | 2 | All Maps","name_short":"nyc-2","host":"nyc-1.us.uncletopia.com","port":27025,"enabled":true,"region":"us-east","cc":"us","latitude":40.73061,"longitude":-73.93524,"reserved":0,"last_update":"0001-01-01T00:00:00Z","name_a2s":"Uncletopia | New York City | 2 | All Maps","protocol":17,"map":"pl_barnblitz","folder":"tf","game":"Team Fortress","app_id":440,"player_count":24,"max_players":24,"Bots":0,"server_type":"Dedicated","server_os":"Linux","password":true,"vac":true,"version":"7961495","steam_id":85568392924469994,"keywords":["nocrits","nodmgspread","payload","uncletopia"],"game_id":440,"stv_port":27026,"stv_name":"Uncletopia | New York City | 2 | All Maps | STV","players":[{"user_id":366,"name":"ZYKLONBased","steam_id":76561199005365607,"connected_time":2357000000000,"state":"active","ping":74},{"user_id":377,"name":"Digit","steam_id":76561198156589157,"connected_time":1355000000000,"state":"active","ping":59},{"user_id":384,"name":"KingShoop","steam_id":76561198060077597,"connected_time":1204000000000,"state":"active","ping":77},{"user_id":349,"name":"GordonKira","steam_id":76561199108345001,"connected_time":2952000000000,"state":"active","ping":81},{"user_id":374,"name":"microsoft solitaire expert","steam_id":76561199134895220,"connected_time":1459000000000,"state":"active","ping":57},{"user_id":387,"name":"Victoria Wood (as seen on TV)","steam_id":76561198066243851,"connected_time":935000000000,"state":"active","ping":105},{"user_id":381,"name":"Jimbo","steam_id":76561198136560547,"connected_time":1300000000000,"state":"active","ping":75},{"user_id":368,"name":"SEGNO","steam_id":76561198102780113,"connected_time":2077000000000,"state":"active","ping":75},{"user_id":397,"name":"❋Pfc. BFS","steam_id":76561198326359972,"connected_time":116000000000,"state":"active","ping":44},{"user_id":388,"name":"Bullwinkle J. Moose","steam_id":76561198075977196,"connected_time":810000000000,"state":"active","ping":95},{"user_id":392,"name":"Ty","steam_id":76561198132068284,"connected_time":314000000000,"state":"active","ping":61},{"user_id":393,"name":"Rat","steam_id":76561198128926034,"connected_time":301000000000,"state":"active","ping":64},{"user_id":354,"name":"voltageG","steam_id":76561198107165710,"connected_time":2840000000000,"state":"active","ping":60},{"user_id":400,"name":"Underscorn","steam_id":76561198374209415,"connected_time":43000000000,"state":"active","ping":87},{"user_id":390,"name":"R{FITH}™Buddy Cat","steam_id":76561198094891050,"connected_time":374000000000,"state":"active","ping":94},{"user_id":352,"name":"HungryPenguin","steam_id":76561198039803880,"connected_time":2852000000000,"state":"active","ping":59},{"user_id":385,"name":"Novu","steam_id":76561198886997024,"connected_time":1138000000000,"state":"active","ping":83},{"user_id":372,"name":"Jason","steam_id":76561198107058140,"connected_time":1730000000000,"state":"active","ping":58},{"user_id":348,"name":"Bubby Koromon the 4rd","steam_id":76561198398729993,"connected_time":3134000000000,"state":"active","ping":76},{"user_id":394,"name":"TheHumanTaco119","steam_id":76561198996107520,"connected_time":300000000000,"state":"active","ping":117},{"user_id":395,"name":"Moofins","steam_id":76561198050291949,"connected_time":272000000000,"state":"active","ping":80},{"user_id":396,"name":"rocket1714","steam_id":76561198255152396,"connected_time":264000000000,"state":"active","ping":91},{"user_id":337,"name":"airballer","steam_id":76561198165899125,"connected_time":4461000000000,"state":"active","ping":45},{"user_id":338,"name":"Dr. Enforcicle (real)","steam_id":76561198964471859,"connected_time":4443000000000,"state":"active","ping":61}]},{"server_id":15,"name":"Uncletopia | New York City | 3 | Stopwatch","name_short":"nyc-3","host":"nyc-1.us.uncletopia.com","port":27035,"enabled":true,"region":"us-east","cc":"us","latitude":40.73061,"longitude":-73.93524,"reserved":0,"last_update":"0001-01-01T00:00:00Z","name_a2s":"Uncletopia | New York City | 3 | Stopwatch","protocol":17,"map":"workshop/pl_badwater_pro_v12.ugc2142942074","folder":"tf","game":"Team Fortress","app_id":440,"player_count":22,"max_players":24,"Bots":0,"server_type":"Dedicated","server_os":"Linux","password":true,"vac":true,"version":"7961495","steam_id":85568392924742820,"keywords":["nocrits","nodmgspread","payload","uncletopia"],"game_id":440,"stv_port":27036,"stv_name":"Uncletopia | New York City | 3 | Stopwatch | STV","players":[{"user_id":165,"name":"craig dishwasher","steam_id":76561198402235691,"connected_time":1047000000000,"state":"active","ping":70},{"user_id":185,"name":"graffiti","steam_id":76561198044594230,"connected_time":63000000000,"state":"active","ping":55},{"user_id":169,"name":"∰","steam_id":76561198064424202,"connected_time":815000000000,"state":"active","ping":46},{"user_id":149,"name":"AshleyJWilliams","steam_id":76561199319657907,"connected_time":2407000000000,"state":"active","ping":91},{"user_id":177,"name":"Shaunymon","steam_id":76561198089311104,"connected_time":628000000000,"state":"active","ping":115},{"user_id":160,"name":"The Businessman","steam_id":76561198352531234,"connected_time":1146000000000,"state":"active","ping":152},{"user_id":183,"name":"Breach","steam_id":76561198045060392,"connected_time":426000000000,"state":"active","ping":71},{"user_id":181,"name":"leumas","steam_id":76561198240408540,"connected_time":544000000000,"state":"active","ping":66},{"user_id":163,"name":"ItsThatBear","steam_id":76561198169617659,"connected_time":1096000000000,"state":"active","ping":67},{"user_id":166,"name":"MR DADDY","steam_id":76561198350794663,"connected_time":1010000000000,"state":"active","ping":57},{"user_id":148,"name":"Brenda Delam","steam_id":76561198006983771,"connected_time":2445000000000,"state":"active","ping":69},{"user_id":131,"name":"muddy","steam_id":76561198035015260,"connected_time":3033000000000,"state":"active","ping":94},{"user_id":139,"name":"Jaflampe","steam_id":76561198175827647,"connected_time":2774000000000,"state":"active","ping":91},{"user_id":174,"name":"Krisles","steam_id":76561198312455096,"connected_time":684000000000,"state":"active","ping":99},{"user_id":175,"name":"Kisari15","steam_id":76561198204362701,"connected_time":679000000000,"state":"active","ping":147},{"user_id":129,"name":"Zonk","steam_id":76561198846893994,"connected_time":3075000000000,"state":"active","ping":72},{"user_id":176,"name":"Username","steam_id":76561198198918781,"connected_time":658000000000,"state":"active","ping":125},{"user_id":140,"name":"non_ai","steam_id":76561198270951938,"connected_time":2762000000000,"state":"active","ping":46},{"user_id":178,"name":"hgvgdwa","steam_id":76561198156499356,"connected_time":627000000000,"state":"active","ping":141},{"user_id":182,"name":"StormyBoyo","steam_id":76561198273482774,"connected_time":467000000000,"state":"active","ping":76},{"user_id":88,"name":"Ginger Jesus","steam_id":76561198052386458,"connected_time":6078000000000,"state":"active","ping":45},{"user_id":179,"name":"Yozzoy","steam_id":76561198027920369,"connected_time":610000000000,"state":"active","ping":61}]},{"server_id":16,"name":"Uncletopia | New York City | 4 | Community","name_short":"nyc-4","host":"nyc-1.us.uncletopia.com","port":27045,"enabled":true,"region":"us-east","cc":"us","latitude":40.73061,"longitude":-73.93524,"reserved":0,"last_update":"0001-01-01T00:00:00Z","name_a2s":"Uncletopia | New York City | 4 | Community","protocol":17,"map":"workshop/cp_reckoner_rc6.ugc674719999","folder":"tf","game":"Team Fortress","app_id":440,"player_count":0,"max_players":24,"Bots":0,"server_type":"Dedicated","server_os":"Linux","password":true,"vac":true,"version":"7961495","steam_id":85568392924742821,"keywords":["cp","nocrits","nodmgspread","uncletopia"],"game_id":440,"stv_port":27046,"stv_name":"Uncletopia | New York City | 4 | Community | STV","players":null},{"server_id":142,"name":"Uncletopia | São Paulo | 1 | All Maps","name_short":"sao-1","host":"sao-1.br.uncletopia.com","port":27015,"enabled":true,"region":"sa","cc":"br","latitude":-23.533773,"longitude":-46.62529,"reserved":0,"last_update":"0001-01-01T00:00:00Z","name_a2s":"Uncletopia | São Paulo | 1 | All Maps","protocol":17,"map":"pl_borneo","folder":"tf","game":"Team Fortress","app_id":440,"player_count":7,"max_players":24,"Bots":0,"server_type":"Dedicated","server_os":"Linux","password":true,"vac":true,"version":"7961495","steam_id":85568392924469996,"keywords":["nocrits","nodmgspread","payload","uncletopia"],"game_id":440,"stv_port":27016,"stv_name":"Uncletopia | São Paulo | 1 | All Maps | STV","players":[{"user_id":4,"name":"churrasco","steam_id":76561199258316129,"connected_time":1453000000000,"state":"active","ping":47},{"user_id":5,"name":"Maddy","steam_id":76561198370075846,"connected_time":1434000000000,"state":"active","ping":35},{"user_id":9,"name":"rafiuskis9","steam_id":76561199098564093,"connected_time":1066000000000,"state":"active","ping":32},{"user_id":7,"name":"Adolf_Dripler_1945","steam_id":76561198963738808,"connected_time":1217000000000,"state":"active","ping":35},{"user_id":8,"name":"Gamer Prime","steam_id":76561199193370083,"connected_time":1195000000000,"state":"active","ping":75},{"user_id":11,"name":"Hazmat","steam_id":76561199188918789,"connected_time":292000000000,"state":"active","ping":42},{"user_id":12,"name":"Mumia216","steam_id":76561199467438225,"connected_time":25000000000,"state":"active","ping":89}]},{"server_id":143,"name":"Uncletopia | São Paulo | 2 | Community","name_short":"sao-2","host":"sao-2.br.uncletopia.com","port":27015,"enabled":true,"region":"sa","cc":"br","latitude":-23.533773,"longitude":-46.62529,"reserved":0,"last_update":"0001-01-01T00:00:00Z","name_a2s":"Uncletopia | São Paulo | 2 | Community","protocol":17,"map":"workshop/koth_slaughter_rc1.ugc1712845210","folder":"tf","game":"Team Fortress","app_id":440,"player_count":0,"max_players":24,"Bots":0,"server_type":"Dedicated","server_os":"Linux","password":true,"vac":true,"version":"7961495","steam_id":85568392924485349,"keywords":["cp","nocrits","nodmgspread","uncletopia"],"game_id":440,"stv_port":27016,"stv_name":"Uncletopia | São Paulo | 2 | Community | STV","players":null},{"server_id":7,"name":"Uncletopia | Seattle | 1 | All Maps","name_short":"sea-1","host":"sea-1.us.uncletopia.com","port":27015,"enabled":true,"region":"us-west","cc":"us","latitude":47.608013,"longitude":-122.33517,"reserved":0,"last_update":"0001-01-01T00:00:00Z","name_a2s":"Uncletopia | Seattle | 1 | All Maps","protocol":17,"map":"cp_dustbowl","folder":"tf","game":"Team Fortress","app_id":440,"player_count":24,"max_players":24,"Bots":0,"server_type":"Dedicated","server_os":"Linux","password":true,"vac":true,"version":"7961495","steam_id":85568392924469997,"keywords":["cp","nocrits","nodmgspread","uncletopia"],"game_id":440,"stv_port":27016,"stv_name":"Uncletopia | Seattle | 1 | All Maps | STV","players":[{"user_id":131,"name":"Green Bean","steam_id":76561198959874732,"connected_time":3907000000000,"state":"active","ping":64},{"user_id":146,"name":"Whisper!","steam_id":76561198119609795,"connected_time":2031000000000,"state":"active","ping":76},{"user_id":150,"name":"Literal Vampire Potbelly Goblin","steam_id":76561197970527356,"connected_time":1809000000000,"state":"active","ping":75},{"user_id":18,"name":"OHIO OHIO OHIO OHIO #1","steam_id":76561198113616168,"connected_time":13494000000000,"state":"active","ping":67},{"user_id":156,"name":"HAT-WEARING™ Maggot Gamer Cat","steam_id":76561197973992705,"connected_time":1089000000000,"state":"active","ping":72},{"user_id":158,"name":"Dargoos","steam_id":76561198366212046,"connected_time":907000000000,"state":"active","ping":71},{"user_id":142,"name":"USS Arizona","steam_id":76561198866629645,"connected_time":3279000000000,"state":"active","ping":46},{"user_id":70,"name":"uss saratoga","steam_id":76561198045218909,"connected_time":10113000000000,"state":"active","ping":42},{"user_id":159,"name":"Scout w/ a type 3 stair allergy","steam_id":76561198027321950,"connected_time":600000000000,"state":"active","ping":58},{"user_id":92,"name":"YOU WHAT?!","steam_id":76561198418679471,"connected_time":8629000000000,"state":"active","ping":112},{"user_id":113,"name":"coco","steam_id":76561199488457138,"connected_time":6183000000000,"state":"active","ping":68},{"user_id":148,"name":"kiwibli","steam_id":76561198285334776,"connected_time":2018000000000,"state":"active","ping":45},{"user_id":117,"name":"Lower Class Saiyan","steam_id":76561198288743767,"connected_time":5785000000000,"state":"active","ping":63},{"user_id":154,"name":"TÖZI","steam_id":76561198045268695,"connected_time":1686000000000,"state":"active","ping":142},{"user_id":151,"name":"Altruisticailuridae","steam_id":76561198335295596,"connected_time":1808000000000,"state":"active","ping":84},{"user_id":130,"name":"Pffffftttttbbbt","steam_id":76561198116023052,"connected_time":4411000000000,"state":"active","ping":74},{"user_id":137,"name":"Imitation Caucasian","steam_id":76561198320536166,"connected_time":3426000000000,"state":"active","ping":96},{"user_id":110,"name":"uss tilapia","steam_id":76561198105924953,"connected_time":6655000000000,"state":"active","ping":63},{"user_id":152,"name":"Submissive and Breedable ","steam_id":76561199247095754,"connected_time":1747000000000,"state":"active","ping":82},{"user_id":155,"name":"K2f","steam_id":76561198049600563,"connected_time":1629000000000,"state":"active","ping":80},{"user_id":141,"name":"Sagusky","steam_id":76561199020014535,"connected_time":3310000000000,"state":"active","ping":82},{"user_id":153,"name":"Transfem with a gun","steam_id":76561199064861814,"connected_time":1709000000000,"state":"active","ping":48},{"user_id":96,"name":"USS Princeton","steam_id":76561198255721392,"connected_time":8393000000000,"state":"active","ping":139},{"user_id":145,"name":"Spirit","steam_id":76561198861875678,"connected_time":2047000000000,"state":"active","ping":78}]},{"server_id":119,"name":"Uncletopia | Seattle | 2 | All Maps","name_short":"sea-2","host":"sea-1.us.uncletopia.com","port":27025,"enabled":true,"region":"us-west","cc":"us","latitude":47.608013,"longitude":-122.33517,"reserved":0,"last_update":"0001-01-01T00:00:00Z","name_a2s":"Uncletopia | Seattle | 2 | All Maps","protocol":17,"map":"pl_badwater","folder":"tf","game":"Team Fortress","app_id":440,"player_count":1,"max_players":24,"Bots":0,"server_type":"Dedicated","server_os":"Linux","password":true,"vac":true,"version":"7961495","steam_id":85568392924469998,"keywords":["nocrits","nodmgspread","payload","uncletopia"],"game_id":440,"stv_port":27026,"stv_name":"Uncletopia | Seattle | 2 | All Maps | STV","players":[{"user_id":7,"name":"Oaky Loafs","steam_id":76561198317179010,"connected_time":148000000000,"state":"active","ping":49}]},{"server_id":406,"name":"Uncletopia | Seattle | 3 | Stopwatch","name_short":"sea-3","host":"sea-1.us.uncletopia.com","port":27035,"enabled":true,"region":"us-west","cc":"us","latitude":47.608013,"longitude":-122.33517,"reserved":0,"last_update":"0001-01-01T00:00:00Z","name_a2s":"Uncletopia | Seattle | 3 | Stopwatch","protocol":17,"map":"cp_gullywash_final1","folder":"tf","game":"Team Fortress","app_id":440,"player_count":0,"max_players":24,"Bots":0,"server_type":"Dedicated","server_os":"Linux","password":true,"vac":true,"version":"7961495","steam_id":85568392924515217,"keywords":["cp","nocrits","nodmgspread","uncletopia"],"game_id":440,"stv_port":27036,"stv_name":"Uncletopia | Seattle | 3 | Stopwatch | STV","players":null},{"server_id":17,"name":"Uncletopia | San Francisco | 1 | All Maps","name_short":"sfo-1","host":"sfo-1.us.uncletopia.com","port":27015,"enabled":true,"region":"us-west","cc":"us","latitude":37.77397,"longitude":-122.4313,"reserved":0,"last_update":"0001-01-01T00:00:00Z","name_a2s":"Uncletopia | San Francisco | 1 | All Maps","protocol":17,"map":"koth_viaduct","folder":"tf","game":"Team Fortress","app_id":440,"player_count":0,"max_players":24,"Bots":0,"server_type":"Dedicated","server_os":"Linux","password":true,"vac":true,"version":"7961495","steam_id":85568392924469999,"keywords":["cp","nocrits","nodmgspread","uncletopia"],"game_id":440,"stv_port":27016,"stv_name":"Uncletopia | San Francisco | 1 | All Maps | STV","players":null},{"server_id":18,"name":"Uncletopia | San Francisco | 2 | All Maps","name_short":"sfo-2","host":"sfo-1.us.uncletopia.com","port":27025,"enabled":true,"region":"us-west","cc":"us","latitude":37.77397,"longitude":-122.4313,"reserved":0,"last_update":"0001-01-01T00:00:00Z","name_a2s":"Uncletopia | San Francisco | 2 | All Maps","protocol":17,"map":"pl_hoodoo_final","folder":"tf","game":"Team Fortress","app_id":440,"player_count":0,"max_players":24,"Bots":0,"server_type":"Dedicated","server_os":"Linux","password":true,"vac":true,"version":"7961495","steam_id":85568392924470000,"keywords":["nocrits","nodmgspread","payload","uncletopia"],"game_id":440,"stv_port":27026,"stv_name":"Uncletopia | San Francisco | 2 | All Maps | STV","players":null},{"server_id":19,"name":"Uncletopia | San Francisco | 3 | Stopwatch","name_short":"sfo-3","host":"sfo-1.us.uncletopia.com","port":27035,"enabled":true,"region":"us-west","cc":"us","latitude":37.77397,"longitude":-122.4313,"reserved":0,"last_update":"0001-01-01T00:00:00Z","name_a2s":"Uncletopia | San Francisco | 3 | Stopwatch","protocol":17,"map":"workshop/koth_clearcut_b15.ugc2107050255","folder":"tf","game":"Team Fortress","app_id":440,"player_count":0,"max_players":24,"Bots":0,"server_type":"Dedicated","server_os":"Linux","password":true,"vac":true,"version":"7961495","steam_id":85568392924742824,"keywords":["cp","nocrits","nodmgspread","uncletopia"],"game_id":440,"stv_port":27036,"stv_name":"Uncletopia | San Francisco | 3 | Stopwatch | STV","players":null},{"server_id":20,"name":"Uncletopia | San Francisco | 4 | Community","name_short":"sfo-4","host":"sfo-1.us.uncletopia.com","port":27045,"enabled":true,"region":"us-west","cc":"us","latitude":37.77397,"longitude":-122.4313,"reserved":0,"last_update":"0001-01-01T00:00:00Z","name_a2s":"Uncletopia | San Francisco | 4 | Community","protocol":17,"map":"workshop/cp_reckoner_rc6.ugc674719999","folder":"tf","game":"Team Fortress","app_id":440,"player_count":0,"max_players":24,"Bots":0,"server_type":"Dedicated","server_os":"Linux","password":true,"vac":true,"version":"7961495","steam_id":85568392924742826,"keywords":["cp","nocrits","nodmgspread","uncletopia"],"game_id":440,"stv_port":27046,"stv_name":"Uncletopia | San Francisco | 4 | Community | STV","players":null},{"server_id":141,"name":"Uncletopia | Sydney | 1 | All Maps","name_short":"syd-1","host":"syd-1.au.uncletopia.com","port":27015,"enabled":true,"region":"au","cc":"au","latitude":-33.865143,"longitude":151.2099,"reserved":0,"last_update":"0001-01-01T00:00:00Z","name_a2s":"Uncletopia | Sydney | 1 | All Maps","protocol":17,"map":"cp_process_final","folder":"tf","game":"Team Fortress","app_id":440,"player_count":0,"max_players":24,"Bots":0,"server_type":"Dedicated","server_os":"Linux","password":true,"vac":true,"version":"7961495","steam_id":85568392924470001,"keywords":["cp","nocrits","nodmgspread","uncletopia"],"game_id":440,"stv_port":27016,"stv_name":"Uncletopia | Sydney | 1 | All Maps | STV","players":null},{"server_id":123,"name":"Uncletopia | Sydney | 2 | All Maps","name_short":"syd-2","host":"syd-1.au.uncletopia.com","port":27025,"enabled":true,"region":"au","cc":"au","latitude":-33.865143,"longitude":151.2099,"reserved":0,"last_update":"0001-01-01T00:00:00Z","name_a2s":"Uncletopia | Sydney | 2 | All Maps","protocol":17,"map":"koth_viaduct","folder":"tf","game":"Team Fortress","app_id":440,"player_count":0,"max_players":24,"Bots":0,"server_type":"Dedicated","server_os":"Linux","password":true,"vac":true,"version":"7961495","steam_id":85568392924470002,"keywords":["cp","nocrits","nodmgspread","uncletopia"],"game_id":440,"stv_port":27026,"stv_name":"Uncletopia | Sydney | 2 | All Maps | STV","players":null},{"server_id":395,"name":"Uncletopia | Sydney | 3 | All Maps","name_short":"syd-3","host":"syd-1.au.uncletopia.com","port":27035,"enabled":true,"region":"au","cc":"au","latitude":-33.865143,"longitude":151.2099,"reserved":0,"last_update":"0001-01-01T00:00:00Z","name_a2s":"Uncletopia | Sydney | 3 | All Maps","protocol":17,"map":"koth_lakeside_final","folder":"tf","game":"Team Fortress","app_id":440,"player_count":0,"max_players":24,"Bots":0,"server_type":"Dedicated","server_os":"Linux","password":true,"vac":true,"version":"7961495","steam_id":85568392925194467,"keywords":["cp","nocrits","nodmgspread","uncletopia"],"game_id":440,"stv_port":27036,"stv_name":"Uncletopia | Sydney | 3 | All Maps | STV","players":null},{"server_id":396,"name":"Uncletopia | Sydney | 4 | All Maps","name_short":"syd-4","host":"syd-1.au.uncletopia.com","port":27045,"enabled":true,"region":"au","cc":"au","latitude":-33.865143,"longitude":151.2099,"reserved":0,"last_update":"0001-01-01T00:00:00Z","name_a2s":"Uncletopia | Sydney | 4 | All Maps","protocol":17,"map":"cp_snakewater_final1","folder":"tf","game":"Team Fortress","app_id":440,"player_count":0,"max_players":24,"Bots":0,"server_type":"Dedicated","server_os":"Linux","password":true,"vac":true,"version":"7961495","steam_id":85568392925397958,"keywords":["cp","nocrits","nodmgspread","uncletopia"],"game_id":440,"stv_port":27046,"stv_name":"Uncletopia | Sydney | 4 | All Maps | STV","players":null},{"server_id":58,"name":"Uncletopia | Sydney | 5 | Stopwatch","name_short":"syd-5","host":"syd-1.au.uncletopia.com","port":27055,"enabled":true,"region":"au","cc":"au","latitude":-33.865143,"longitude":151.2099,"reserved":0,"last_update":"0001-01-01T00:00:00Z","name_a2s":"Uncletopia | Sydney | 5 | Stopwatch","protocol":17,"map":"workshop/pl_summercoast_rc8e.ugc1761528829","folder":"tf","game":"Team Fortress","app_id":440,"player_count":0,"max_players":24,"Bots":0,"server_type":"Dedicated","server_os":"Linux","password":true,"vac":true,"version":"7961495","steam_id":85568392925397959,"keywords":["nocrits","nodmgspread","payload","uncletopia"],"game_id":440,"stv_port":27056,"stv_name":"Uncletopia | Sydney | 5 | Stopwatch | STV","players":null},{"server_id":59,"name":"Uncletopia | Sydney | 6 | Community","name_short":"syd-6","host":"syd-1.au.uncletopia.com","port":27065,"enabled":true,"region":"au","cc":"au","latitude":-33.865143,"longitude":151.2099,"reserved":0,"last_update":"0001-01-01T00:00:00Z","name_a2s":"Uncletopia | Sydney | 6 | Community","protocol":17,"map":"workshop/koth_soot_final1.ugc2969540689","folder":"tf","game":"Team Fortress","app_id":440,"player_count":0,"max_players":24,"Bots":0,"server_type":"Dedicated","server_os":"Linux","password":true,"vac":true,"version":"7961495","steam_id":85568392925397960,"keywords":["cp","nocrits","nodmgspread","uncletopia"],"game_id":440,"stv_port":27066,"stv_name":"Uncletopia | Sydney | 6 | Community | STV","players":null},{"server_id":49,"name":"Uncletopia | Warsaw | 1 | One Thousand Uncles","name_short":"waw-1","host":"waw-1.pl.uncletopia.com","port":27015,"enabled":true,"region":"eu","cc":"pl","latitude":52.2297,"longitude":21.017532,"reserved":0,"last_update":"0001-01-01T00:00:00Z","name_a2s":"Uncletopia | Warsaw | 1 | One Thousand Uncles","protocol":17,"map":"cp_dustbowl","folder":"tf","game":"Team Fortress","app_id":440,"player_count":32,"max_players":32,"Bots":20,"server_type":"Dedicated","server_os":"Linux","password":true,"vac":true,"version":"7961495","steam_id":85568392925397850,"keywords":["alltalk","bots","cp","danepve","increased_maxplayers","norespawntime","uncletopia"],"game_id":440,"stv_port":0,"stv_name":"","players":[{"user_id":39,"name":"PuPuruPuruPumPu","steam_id":76561198391950490,"connected_time":7171000000000,"state":"active","ping":105},{"user_id":125,"name":"keybored13","steam_id":76561199124583416,"connected_time":3300000000000,"state":"active","ping":168},{"user_id":150,"name":"shapeshifter","steam_id":76561198052898368,"connected_time":2346000000000,"state":"active","ping":90},{"user_id":126,"name":"JMJGAMING971","steam_id":76561199465588292,"connected_time":3289000000000,"state":"active","ping":268},{"user_id":156,"name":"Grabek☁","steam_id":76561198312702702,"connected_time":1578000000000,"state":"active","ping":95},{"user_id":147,"name":"wenecjusz.zebrowski","steam_id":76561199087122256,"connected_time":3043000000000,"state":"active","ping":56},{"user_id":149,"name":"MatesThePlayer","steam_id":76561198066156449,"connected_time":2635000000000,"state":"active","ping":54},{"user_id":162,"name":"facetious dog","steam_id":76561198095289436,"connected_time":346000000000,"state":"active","ping":60},{"user_id":155,"name":"Darkie","steam_id":76561198000388812,"connected_time":1759000000000,"state":"active","ping":124},{"user_id":158,"name":"Ricey","steam_id":76561198832961307,"connected_time":1498000000000,"state":"active","ping":73},{"user_id":159,"name":"daquavious bingleton","steam_id":76561199112671611,"connected_time":1408000000000,"state":"active","ping":99},{"user_id":160,"name":"Joe Swanson","steam_id":76561198178175462,"connected_time":1291000000000,"state":"active","ping":79}]},{"server_id":50,"name":"Uncletopia | Warsaw | 2 | One Thousand Uncles","name_short":"waw-2","host":"waw-1.pl.uncletopia.com","port":27025,"enabled":true,"region":"eu","cc":"pl","latitude":52.2297,"longitude":21.017532,"reserved":0,"last_update":"0001-01-01T00:00:00Z","name_a2s":"Uncletopia | Warsaw | 2 | One Thousand Uncles","protocol":17,"map":"cp_mercenarypark","folder":"tf","game":"Team Fortress","app_id":440,"player_count":31,"max_players":32,"Bots":20,"server_type":"Dedicated","server_os":"Linux","password":true,"vac":true,"version":"7961495","steam_id":85568392925397851,"keywords":["alltalk","bots","cp","danepve","increased_maxplayers","norespawntime","uncletopia"],"game_id":440,"stv_port":0,"stv_name":"","players":[{"user_id":533,"name":"УБИЙЦА РУСОВ","steam_id":76561198091512580,"connected_time":537000000000,"state":"active","ping":86},{"user_id":504,"name":"Sandvich Delivery Service","steam_id":76561199447202311,"connected_time":1463000000000,"state":"active","ping":179},{"user_id":512,"name":"digilith","steam_id":76561199106966802,"connected_time":565000000000,"state":"active","ping":56},{"user_id":535,"name":"minecraft is my life!","steam_id":76561199213571483,"connected_time":6000000000,"state":"spawning","ping":59},{"user_id":454,"name":"judasz","steam_id":76561198057378108,"connected_time":6553000000000,"state":"active","ping":77},{"user_id":506,"name":"adv6","steam_id":76561198029789989,"connected_time":1329000000000,"state":"active","ping":84},{"user_id":500,"name":"rofflehouse","steam_id":76561198090470768,"connected_time":1777000000000,"state":"active","ping":150},{"user_id":507,"name":"The Troglodyte","steam_id":76561199119744358,"connected_time":1251000000000,"state":"active","ping":87},{"user_id":501,"name":"I have anxiety ;3","steam_id":76561198871081291,"connected_time":1663000000000,"state":"active","ping":220},{"user_id":464,"name":"John Noob","steam_id":76561197999170026,"connected_time":4052000000000,"state":"active","ping":107},{"user_id":503,"name":"Aflojack","steam_id":76561198156450269,"connected_time":1555000000000,"state":"active","ping":80}]},{"server_id":51,"name":"Uncletopia | Warsaw | 3 | All Maps","name_short":"waw-3","host":"waw-1.pl.uncletopia.com","port":27035,"enabled":true,"region":"eu","cc":"pl","latitude":52.2297,"longitude":21.017532,"reserved":0,"last_update":"0001-01-01T00:00:00Z","name_a2s":"Uncletopia | Warsaw | 3 | All Maps","protocol":17,"map":"pl_badwater","folder":"tf","game":"Team Fortress","app_id":440,"player_count":0,"max_players":24,"Bots":0,"server_type":"Dedicated","server_os":"Linux","password":true,"vac":true,"version":"7961495","steam_id":85568392925397852,"keywords":["nocrits","nodmgspread","payload","uncletopia"],"game_id":440,"stv_port":27036,"stv_name":"Uncletopia | Warsaw | 3 | All Maps | STV","players":null},{"server_id":52,"name":"Uncletopia | Warsaw | 4 | All Maps","name_short":"waw-4","host":"waw-1.pl.uncletopia.com","port":27045,"enabled":true,"region":"eu","cc":"pl","latitude":52.2297,"longitude":21.017532,"reserved":0,"last_update":"0001-01-01T00:00:00Z","name_a2s":"Uncletopia | Warsaw | 4 | All Maps","protocol":17,"map":"koth_viaduct","folder":"tf","game":"Team Fortress","app_id":440,"player_count":0,"max_players":24,"Bots":0,"server_type":"Dedicated","server_os":"Linux","password":true,"vac":true,"version":"7961495","steam_id":85568392925397853,"keywords":["cp","nocrits","nodmgspread","uncletopia"],"game_id":440,"stv_port":27046,"stv_name":"Uncletopia | Warsaw | 4 | All Maps | STV","players":null},{"server_id":53,"name":"Uncletopia | Warsaw | 5 | Stopwatch","name_short":"waw-5","host":"waw-1.pl.uncletopia.com","port":27055,"enabled":true,"region":"eu","cc":"pl","latitude":52.2297,"longitude":21.017532,"reserved":0,"last_update":"0001-01-01T00:00:00Z","name_a2s":"Uncletopia | Warsaw | 5 | Stopwatch","protocol":17,"map":"workshop/koth_clearcut_b15.ugc2107050255","folder":"tf","game":"Team Fortress","app_id":440,"player_count":0,"max_players":24,"Bots":0,"server_type":"Dedicated","server_os":"Linux","password":true,"vac":true,"version":"7961495","steam_id":85568392925397854,"keywords":["cp","nocrits","nodmgspread","uncletopia"],"game_id":440,"stv_port":27056,"stv_name":"Uncletopia | Warsaw | 5 | Stopwatch | STV","players":null},{"server_id":54,"name":"Uncletopia | Warsaw | 6 | Community","name_short":"waw-6","host":"waw-1.pl.uncletopia.com","port":27065,"enabled":true,"region":"eu","cc":"pl","latitude":52.2297,"longitude":21.017532,"reserved":0,"last_update":"0001-01-01T00:00:00Z","name_a2s":"Uncletopia | Warsaw | 6 | Community","protocol":17,"map":"workshop/pl_boundary_final1.ugc456799153","folder":"tf","game":"Team Fortress","app_id":440,"player_count":0,"max_players":24,"Bots":0,"server_type":"Dedicated","server_os":"Linux","password":true,"vac":true,"version":"7961495","steam_id":85568392925397856,"keywords":["nocrits","nodmgspread","payload","uncletopia"],"game_id":440,"stv_port":27066,"stv_name":"Uncletopia | Warsaw | 6 | Community | STV","players":null}]}