{"status":true,"message":"","result":[{"server_id":9,"name":"Uncletopia | Atlanta | 1 | All Maps","name_short":"atl-1","host":"atl-1.us.uncletopia.com","port":27015,"enabled":true,"region":"us-east","cc":"us","latitude":33.753746,"longitude":-84.38633,"reserved":0,"last_update":"0001-01-01T00:00:00Z","name_a2s":"Uncletopia | Atlanta | 1 | All Maps","protocol":17,"map":"pl_upward","folder":"tf","game":"Team Fortress","app_id":440,"player_count":24,"max_players":24,"Bots":0,"server_type":"Dedicated","server_os":"Linux","password":true,"vac":true,"version":"7961495","steam_id":85568392924469982,"keywords":["nocrits","nodmgspread","payload","uncletopia"],"game_id":440,"stv_port":27016,"stv_name":"Uncletopia | Atlanta | 1 | All Maps | STV","players":null},{"server_id":104,"name":"Uncletopia | Atlanta | 2 | All Maps","name_short":"atl-2","host":"atl-1.us.uncletopia.com","port":27025,"enabled":true,"region":"us-east","cc":"us","latitude":33.753746,"longitude":-84.38633,"reserved":0,"last_update":"0001-01-01T00:00:00Z","name_a2s":"Uncletopia | Atlanta | 2 | All Maps","protocol":17,"map":"koth_lakeside_final","folder":"tf","game":"Team Fortress","app_id":440,"player_count":24,"max_players":24,"Bots":0,"server_type":"Dedicated","server_os":"Linux","password":true,"vac":true,"version":"7961495","steam_id":85568392924469983,"keywords":["cp","nocrits","nodmgspread","uncletopia"],"game_id":440,"stv_port":27026,"stv_name":"Uncletopia | Atlanta | 2 | All Maps | STV","players":null},{"server_id":400,"name":"Uncletopia | Atlanta | 3 | Stopwatch","name_short":"atl-3","host":"atl-1.us.uncletopia.com","port":27035,"enabled":true,"region":"us-east","cc":"us","latitude":33.753746,"longitude":-84.38633,"reserved":0,"last_update":"0001-01-01T00:00:00Z","name_a2s":"Uncletopia | Atlanta | 3 | Stopwatch","protocol":17,"map":"koth_product_final","folder":"tf","game":"Team Fortress","app_id":440,"player_count":0,"max_players":24,"Bots":0,"server_type":"Dedicated","server_os":"Linux","password":true,"vac":true,"version":"7961495","steam_id":85568392924515187,"keywords":["cp","nocrits","nodmgspread","uncletopia"],"game_id":440,"stv_port":27036,"stv_name":"Uncletopia | Atlanta | 3 | Stopwatch | STV","players":null},{"server_id":401,"name":"Uncletopia | Atlanta | 4 | Community","name_short":"atl-4","host":"atl-1.us.uncletopia.com","port":27045,"enabled":true,"region":"us-east","cc":"us","latitude":33.753746,"longitude":-84.38633,"reserved":0,"last_update":"0001-01-01T00:00:00Z","name_a2s":"Uncletopia | Atlanta | 4 | Community","protocol":17,"map":"pl_cashworks_final1","folder":"tf","game":"Team Fortress","app_id":440,"player_count":14,"max_players":24,"Bots":0,"server_type":"Dedicated","server_os":"Linux","password":true,"vac":true,"version":"7961495","steam_id":85568392924515188,"keywords":["nocrits","nodmgspread","payload","uncletopia"],"game_id":440,"stv_port":27046,"stv_name":"Uncletopia | Atlanta | 4 | Community | STV","players":null},{"server_id":2,"name":"Uncletopia | Chicago | 1 | All Maps","name_short":"chi-1","host":"chi-1.us.uncletopia.com","port":27015,"enabled":true,"region":"us-central","cc":"us","latitude":41.881832,"longitude":-87.62318,"reserved":0,"last_update":"0001-01-01T00:00:00Z","name_a2s":"Uncletopia | Chicago | 1 | All Maps","protocol":17,"map":"koth_harvest_final","folder":"tf","game":"Team Fortress","app_id":440,"player_count":24,"max_players":24,"Bots":0,"server_type":"Dedicated","server_os":"Linux","password":true,"vac":true,"version":"7961495","steam_id":85568392924469984,"keywords":["cp","nocrits","nodmgspread","uncletopia"],"game_id":440,"stv_port":27016,"stv_name":"Uncletopia | Chicago | 1 | All Maps | STV","players":[{"user_id":381,"name":"Tito","steam_id":76561198041702529,"connected_time":777000000000,"state":"active","ping":88},{"user_id":221,"name":"Rex","steam_id":76561198138365053,"connected_time":13506000000000,"state":"active","ping":134},{"user_id":357,"name":"Mokikoda","steam_id":76561198277214735,"connected_time":2001000000000,"state":"active","ping":44},{"user_id":344,"name":"fish  ‚óè","steam_id":76561198999217575,"connected_time":3479000000000,"state":"active","ping":63},{"user_id":218,"name":"Ras","steam_id":76561198123546775,"connected_time":14219000000000,"state":"active","ping":89},{"user_id":394,"name":"that shit for the birds","steam_id":76561198142756572,"connected_time":54000000000,"state":"active","ping":60},{"user_id":387,"name":"Xyverle","steam_id":76561198799726415,"connected_time":513000000000,"state":"active","ping":62},{"user_id":395,"name":"blob","steam_id":76561198122375328,"connected_time":54000000000,"state":"active","ping":54},{"user_id":370,"name":"Astoriae!","steam_id":76561199090168858,"connected_time":1261000000000,"state":"active","ping":83},{"user_id":358,"name":"Sigiferd","steam_id":76561198148788110,"connected_time":1990000000000,"state":"active","ping":125},{"user_id":361,"name":"‚ô•Bunny‚ô•Slut‚ô•","steam_id":76561198206376851,"connected_time":1896000000000,"state":"active","ping":147},{"user_id":379,"name":"Kritzburgh","steam_id":76561198149466938,"connected_time":846000000000,"state":"active","ping":63},{"user_id":383,"name":"Berries","steam_id":76561198109312962,"connected_time":666000000000,"state":"active","ping":78},{"user_id":272,"name":"TheOneZoot","steam_id":76561198121944243,"connected_time":9637000000000,"state":"active","ping":75},{"user_id":351,"name":"Letters","steam_id":76561198035508148,"connected_time":3035000000000,"state":"active","ping":70},{"user_id":393,"name":"Kero","steam_id":76561198343231436,"connected_time":64000000000,"state":"active","ping":62},{"user_id":385,"name":"black ops 2 hank hill trolling","steam_id":76561198095313463,"connected_time":646000000000,"state":"active","ping":64},{"user_id":373,"name":"TeddyBomb","steam_id":76561199104691509,"connected_time":988000000000,"state":"active","ping":50},{"user_id":382,"name":"Owl Pacino","steam_id":76561197979970666,"connected_time":747000000000,"state":"active","ping":56},{"user_id":389,"name":"Kid named download","steam_id":76561199192074448,"connected_time":419000000000,"state":"active","ping":84},{"user_id":396,"name":"the zoo","steam_id":76561198013732450,"connected_time":16000000000,"state":"spawning","ping":59},{"user_id":375,"name":"Silfyr","steam_id":76561198263565186,"connected_time":955000000000,"state":"active","ping":84},{"user_id":325,"name":"NikoOS (NO SOUND)","steam_id":76561198180020521,"connected_time":4530000000000,"state":"active","ping":115},{"user_id":308,"name":"Crows!","steam_id":76561198150086324,"connected_time":6004000000000,"state":"active","ping":69}]},{"server_id":106,"name":"Uncletopia | Chicago | 2 | All Maps","name_short":"chi-2","host":"chi-1.us.uncletopia.com","port":27025,"enabled":true,"region":"us-central","cc":"us","latitude":41.881832,"longitude":-87.62318,"reserved":0,"last_update":"0001-01-01T00:00:00Z","name_a2s":"Uncletopia | Chicago | 2 | All Maps","protocol":17,"map":"pl_badwater","folder":"tf","game":"Team Fortress","app_id":440,"player_count":24,"max_players":24,"Bots":0,"server_type":"Dedicated","server_os":"Linux","password":true,"vac":true,"version":"7961495","steam_id":85568392924469985,"keywords":["nocrits","nodmgspread","payload","uncletopia"],"game_id":440,"stv_port":27026,"stv_name":"Uncletopia | Chicago | 2 | All Maps | STV","players":[{"user_id":397,"name":"--_Cook_--","steam_id":76561198080855748,"connected_time":3585000000000,"state":"active","ping":46},{"user_id":415,"name":"Acehay14","steam_id":76561198052373291,"connected_time":1543000000000,"state":"active","ping":68},{"user_id":428,"name":"‚ù§Womp‚ù§","steam_id":76561198167488304,"connected_time":398000000000,"state":"active","ping":47},{"user_id":424,"name":"Bostonstapler","steam_id":76561197996334971,"connected_time":1017000000000,"state":"active","ping":60},{"user_id":384,"name":"Grandma","steam_id":76561198419412841,"connected_time":4162000000000,"state":"active","ping":53},{"user_id":408,"name":"Ballsack Shaver","steam_id":76561199011739378,"connected_time":2116000000000,"state":"active","ping":66},{"user_id":416,"name":"Antonin Scalia","steam_id":76561198080687598,"connected_time":1425000000000,"state":"active","ping":67},{"user_id":396,"name":"K.O. Stradivarius","steam_id":76561198974913245,"connected_time":3747000000000,"state":"active","ping":76},{"user_id":401,"name":"Spookmaster","steam_id":76561198170041861,"connected_time":3243000000000,"state":"active","ping":35},{"user_id":375,"name":"Rat under your floors","steam_id":76561198105613110,"connected_time":5131000000000,"state":"active","ping":45},{"user_id":414,"name":"rapscallion","steam_id":76561198188722751,"connected_time":1659000000000,"state":"active","ping":103},{"user_id":429,"name":"mrappledumb","steam_id":76561199133590774,"connected_time":31000000000,"state":"active","ping":84},{"user_id":363,"name":"ShadowDragon0125","steam_id":76561198343849022,"connected_time":6175000000000,"state":"active","ping":71},{"user_id":393,"name":"whathashit69","steam_id":76561199013105760,"connected_time":3848000000000,"state":"active","ping":169},{"user_id":400,"name":"Shaunt","steam_id":76561198171551057,"connected_time":3344000000000,"state":"active","ping":57},{"user_id":417,"name":"C Papi","steam_id":76561198027779564,"connected_time":1422000000000,"state":"active","ping":54},{"user_id":426,"name":"sillylokisparkles","steam_id":76561198872251615,"connected_time":718000000000,"state":"active","ping":82},{"user_id":425,"name":"pandoRA","steam_id":76561198075490385,"connected_time":753000000000,"state":"active","ping":99},{"user_id":420,"name":"Dr_Cecil","steam_id":76561198873862113,"connected_time":1084000000000,"state":"active","ping":97},{"user_id":369,"name":"Chrysalis","steam_id":76561198028576126,"connected_time":5971000000000,"state":"active","ping":69},{"user_id":307,"name":"kimchy101","steam_id":76561198202721584,"connected_time":8867000000000,"state":"active","ping":54},{"user_id":394,"name":"lexi","steam_id":76561198176299759,"connected_time":3844000000000,"state":"active","ping":81},{"user_id":427,"name":"WhoIsFrosty","steam_id":76561198880588117,"connected_time":602000000000,"state":"active","ping":52},{"user_id":418,"name":"Rick Astley Is A F2P?","steam_id":76561199258805660,"connected_time":1414000000000,"state":"active","ping":72}]},{"server_id":402,"name":"Uncletopia | Chicago | 3 | All Maps","name_short":"chi-3","host":"chi-1.us.uncletopia.com","port":27035,"enabled":true,"region":"us-central","cc":"us","latitude":41.881832,"longitude":-87.62318,"reserved":0,"last_update":"0001-01-01T00:00:00Z","name_a2s":"Uncletopia | Chicago | 3 | All Maps","protocol":17,"map":"pl_snowycoast","folder":"tf","game":"Team Fortress","app_id":440,"player_count":24,"max_players":24,"Bots":0,"server_type":"Dedicated","server_os":"Linux","password":true,"vac":true,"version":"7961495","steam_id":85568392924515191,"keywords":["nocrits","nodmgspread","payload","uncletopia"],"game_id":440,"stv_port":27036,"stv_name":"Uncletopia | Chicago | 3 | All Maps | STV","players":[{"user_id":640,"name":"NukaTheRabbit {Fur}","steam_id":76561198058692928,"connected_time":3351000000000,"state":"active","ping":56},{"user_id":632,"name":"Dum_Bass(Fish)","steam_id":76561197988105207,"connected_time":3749000000000,"state":"active","ping":66},{"user_id":678,"name":"Doey","steam_id":76561198356353805,"connected_time":1048000000000,"state":"active","ping":73},{"user_id":661,"name":"Flower Goat","steam_id":76561198096572920,"connected_time":2246000000000,"state":"active","ping":73},{"user_id":665,"name":"wiiblob","steam_id":76561198109106242,"connected_time":1747000000000,"state":"active","ping":139},{"user_id":687,"name":"Quilfus Scrofel","steam_id":76561198160308375,"connected_time":130000000000,"state":"active","ping":71},{"user_id":655,"name":"adrymarker","steam_id":76561198316948699,"connected_time":2592000000000,"state":"active","ping":65},{"user_id":657,"name":"Hey, it's me Goku!","steam_id":76561198368441527,"connected_time":2555000000000,"state":"active","ping":62},{"user_id":660,"name":"turbo shart","steam_id":76561198012351808,"connected_time":2316000000000,"state":"active","ping":149},{"user_id":674,"name":"Aaron","steam_id":76561198091157802,"connected_time":1315000000000,"state":"active","ping":73},{"user_id":686,"name":"CherriKat","steam_id":76561198821297512,"connected_time":193000000000,"state":"active","ping":100},{"user_id":684,"name":"big steve","steam_id":76561199037050183,"connected_time":605000000000,"state":"active","ping":79},{"user_id":670,"name":"Creature","steam_id":76561198194585781,"connected_time":1613000000000,"state":"active","ping":108},{"user_id":671,"name":"Tick","steam_id":76561198184161214,"connected_time":1581000000000,"state":"active","ping":45},{"user_id":658,"name":"Nefy","steam_id":76561198030017316,"connected_time":2554000000000,"state":"active","ping":87},{"user_id":614,"name":"Dabbledornk","steam_id":76561198065241300,"connected_time":4734000000000,"state":"active","ping":68},{"user_id":688,"name":"minimonexo","steam_id":76561199219824199,"connected_time":102000000000,"state":"active","ping":73},{"user_id":638,"name":"feed chakra","steam_id":76561198105065307,"connected_time":3471000000000,"state":"active","ping":46},{"user_id":676,"name":"joe","steam_id":76561199389283507,"connected_time":1079000000000,"state":"active","ping":77},{"user_id":631,"name":"Walkiing","steam_id":76561198074473413,"connected_time":3765000000000,"state":"active","ping":44},{"user_id":608,"name":"Polite Frog","steam_id":76561198296968646,"connected_time":5664000000000,"state":"active","ping":84},{"user_id":677,"name":"pigswill","steam_id":76561197999081865,"connected_time":1075000000000,"state":"active","ping":92},{"user_id":685,"name":"Philo","steam_id":76561198061873341,"connected_time":348000000000,"state":"active","ping":91},{"user_id":673,"name":"mop","steam_id":76561198083853538,"connected_time":1560000000000,"state":"active","ping":81}]},{"server_id":403,"name":"Uncletopia | Chicago | 4 | All Maps","name_short":"chi-4","host":"chi-1.us.uncletopia.com","port":27045,"enabled":true,"region":"us-central","cc":"us","latitude":41.881832,"longitude":-87.62318,"reserved":0,"last_update":"0001-01-01T00:00:00Z","name_a2s":"Uncletopia | Chicago | 4 | All Maps","protocol":17,"map":"ctf_doublecross","folder":"tf","game":"Team Fortress","app_id":440,"player_count":21,"max_players":24,"Bots":0,"server_type":"Dedicated","server_os":"Linux","password":true,"vac":true,"version":"7961495","steam_id":85568392924515193,"keywords":["ctf","nocrits","nodmgspread","uncletopia"],"game_id":440,"stv_port":27046,"stv_name":"Uncletopia | Chicago | 4 | All Maps | STV","players":[{"user_id":409,"name":"Bussy Bandit","steam_id":76561198034028769,"connected_time":2850000000000,"state":"active","ping":62},{"user_id":436,"name":"Cheesi","steam_id":76561199417190840,"connected_time":1375000000000,"state":"active","ping":71},{"user_id":449,"name":"Huntpk","steam_id":76561198340591674,"connected_time":129000000000,"state":"active","ping":42},{"user_id":437,"name":"Little Moss Creature","steam_id":76561198173284173,"connected_time":1269000000000,"state":"active","ping":85},{"user_id":333,"name":"HollyBlocky","steam_id":76561198030156100,"connected_time":9604000000000,"state":"active","ping":64},{"user_id":445,"name":"lushtakular","steam_id":76561198840080823,"connected_time":502000000000,"state":"active","ping":57},{"user_id":426,"name":"Funne Monke","steam_id":76561198147868601,"connected_time":1739000000000,"state":"active","ping":63},{"user_id":428,"name":"JayTheMonkeyMan","steam_id":76561198932836256,"connected_time":1642000000000,"state":"active","ping":98},{"user_id":372,"name":"dirty disgusting troll","steam_id":76561198882404753,"connected_time":5176000000000,"state":"active","ping":77},{"user_id":446,"name":"Zombie_Damage","steam_id":76561197963901630,"connected_time":476000000000,"state":"active","ping":54},{"user_id":421,"name":"dulg","steam_id":76561198127640309,"connected_time":1897000000000,"state":"active","ping":88},{"user_id":451,"name":"quacked!","steam_id":76561198970819395,"connected_time":72000000000,"state":"active","ping":76},{"user_id":419,"name":"I shovel mayonnaise in mouth","steam_id":76561199123118241,"connected_time":2414000000000,"state":"active","ping":106},{"user_id":417,"name":"Croxsbow","steam_id":76561198893327481,"connected_time":2456000000000,"state":"active","ping":90},{"user_id":401,"name":"Jamendithas","steam_id":76561198119537716,"connected_time":3526000000000,"state":"active","ping":79},{"user_id":434,"name":"Bridge troll","steam_id":76561199128165746,"connected_time":1534000000000,"state":"active","ping":67},{"user_id":440,"name":"gideon nav my beloved","steam_id":76561198259092181,"connected_time":789000000000,"state":"active","ping":63},{"user_id":393,"name":"menonamed","steam_id":76561198199564382,"connected_time":4142000000000,"state":"active","ping":68},{"user_id":447,"name":"lorelius hogglefart","steam_id":76561198211781375,"connected_time":237000000000,"state":"active","ping":78},{"user_id":448,"name":"superx","steam_id":76561198044976613,"connected_time":232000000000,"state":"active","ping":70},{"user_id":358,"name":"Polar","steam_id":76561198096852688,"connected_time":6867000000000,"state":"active","ping":53}]},{"server_id":36,"name":"Uncletopia | Chicago | 5 | All Maps","name_short":"chi-5","host":"chi-2.us.uncletopia.com","port":27015,"enabled":true,"region":"us-central","cc":"us","latitude":41.881832,"longitude":-87.62318,"reserved":0,"last_update":"0001-01-01T00:00:00Z","name_a2s":"Uncletopia | Chicago | 5 | All Maps","protocol":17,"map":"pl_pier","folder":"tf","game":"Team Fortress","app_id":440,"player_count":24,"max_players":24,"Bots":0,"server_type":"Dedicated","server_os":"Linux","password":true,"vac":true,"version":"7961495","steam_id":85568392924866362,"keywords":["nocrits","nodmgspread","payload","uncletopia"],"game_id":440,"stv_port":27016,"stv_name":"Uncletopia | Chicago | 5 | All Maps | STV","players":[{"user_id":149,"name":"Rhutebeer","steam_id":76561198018302761,"connected_time":654000000000,"state":"active","ping":100},{"user_id":98,"name":"‡πñ€£€úMagic","steam_id":76561199272962550,"connected_time":5395000000000,"state":"active","ping":61},{"user_id":123,"name":"Lyra","steam_id":76561198156481620,"connected_time":3817000000000,"state":"active","ping":38},{"user_id":131,"name":"Allahgator","steam_id":76561198280659041,"connected_time":3533000000000,"state":"active","ping":75},{"user_id":100,"name":"tiananmensquare1989","steam_id":76561199076837870,"connected_time":5323000000000,"state":"active","ping":90},{"user_id":134,"name":"derpasurarex","steam_id":76561198296201468,"connected_time":3231000000000,"state":"active","ping":70},{"user_id":141,"name":"LevelRaisin","steam_id":76561198082924440,"connected_time":1576000000000,"state":"active","ping":51},{"user_id":84,"name":"tsbro40","steam_id":76561199455605580,"connected_time":6346000000000,"state":"active","ping":87},{"user_id":142,"name":"WHATS GOOD IN THE HOOD?","steam_id":76561198392871557,"connected_time":1321000000000,"state":"active","ping":72},{"user_id":94,"name":"5yt LFB","steam_id":76561198041643833,"connected_time":6007000000000,"state":"active","ping":88},{"user_id":148,"name":"Fuzzy Toast","steam_id":76561198028067781,"connected_time":953000000000,"state":"active","ping":47},{"user_id":101,"name":"fictitious swag circulation","steam_id":76561198072179483,"connected_time":4862000000000,"state":"active","ping":91},{"user_id":116,"name":"Bisque","steam_id":76561198327661850,"connected_time":4171000000000,"state":"active","ping":87},{"user_id":132,"name":"bluetacos","steam_id":76561198880622349,"connected_time":3483000000000,"state":"active","ping":119},{"user_id":144,"name":"Cat in Your Backyard","steam_id":76561197979078330,"connected_time":1222000000000,"state":"active","ping":61},{"user_id":127,"name":"TiltedHat","steam_id":76561198047685121,"connected_time":3772000000000,"state":"active","ping":152},{"user_id":57,"name":"corned beef","steam_id":76561199366782761,"connected_time":7583000000000,"state":"active","ping":146},{"user_id":133,"name":"Fuzzy","steam_id":76561198113445043,"connected_time":3362000000000,"state":"active","ping":72},{"user_id":138,"name":"Tomfoolery","steam_id":76561198381365665,"connected_time":2656000000000,"state":"active","ping":71},{"user_id":147,"name":"Jericho von Generico","steam_id":76561198206139559,"connected_time":1139000000000,"state":"active","ping":85},{"user_id":115,"name":"Ecifircas","steam_id":76561198068654532,"connected_time":4253000000000,"state":"active","ping":85},{"user_id":75,"name":"jon.cinnamon","steam_id":76561198127316418,"connected_time":7059000000000,"state":"active","ping":62},{"user_id":150,"name":"Psychosis","steam_id":76561198078659070,"connected_time":61000000000,"state":"active","ping":76},{"user_id":125,"name":"WhiteIce","steam_id":76561198042895118,"connected_time":3808000000000,"state":"active","ping":79}]},{"server_id":37,"name":"Uncletopia | Chicago | 6 | All Maps","name_short":"chi-6","host":"chi-2.us.uncletopia.com","port":27025,"enabled":true,"region":"us-central","cc":"us","latitude":41.881832,"longitude":-87.62318,"reserved":0,"last_update":"0001-01-01T00:00:00Z","name_a2s":"Uncletopia | Chicago | 6 | All Maps","protocol":17,"map":"pl_badwater","folder":"tf","game":"Team Fortress","app_id":440,"player_count":24,"max_players":24,"Bots":0,"server_type":"Dedicated","server_os":"Linux","password":true,"vac":true,"version":"7961495","steam_id":85568392924866363,"keywords":["nocrits","nodmgspread","payload","uncletopia"],"game_id":440,"stv_port":27026,"stv_name":"Uncletopia | Chicago | 6 | All Maps | STV","players":[{"user_id":556,"name":"KhorneBread Ô∏ª„Éá ‰∏Ä","steam_id":76561198097069958,"connected_time":1514000000000,"state":"active","ping":85},{"user_id":498,"name":"Homvel","steam_id":76561198000848413,"connected_time":4623000000000,"state":"active","ping":53},{"user_id":546,"name":"Tattletails","steam_id":76561198055690341,"connected_time":1907000000000,"state":"active","ping":174},{"user_id":557,"name":"PlanktonTheWayiCumBuckets","steam_id":76561198074678273,"connected_time":1500000000000,"state":"active","ping":60},{"user_id":529,"name":"djpanda248","steam_id":76561199101846393,"connected_time":2808000000000,"state":"active","ping":133},{"user_id":525,"name":"Bombsgamer","steam_id":76561198350009050,"connected_time":2944000000000,"state":"active","ping":73},{"user_id":461,"name":"Fatpoob","steam_id":76561198056730096,"connected_time":7971000000000,"state":"active","ping":56},{"user_id":560,"name":"izzydex","steam_id":76561199101531034,"connected_time":1461000000000,"state":"active","ping":63},{"user_id":548,"name":"Master Oogway","steam_id":76561198051869638,"connected_time":1790000000000,"state":"active","ping":61},{"user_id":566,"name":"smooth brain","steam_id":76561198049253541,"connected_time":1219000000000,"state":"active","ping":72},{"user_id":572,"name":"c64guy","steam_id":76561198023022744,"connected_time":395000000000,"state":"active","ping":62},{"user_id":470,"name":"Pandora Nyx","steam_id":76561198093475054,"connected_time":7123000000000,"state":"active","ping":68},{"user_id":526,"name":"Microsoft Word","steam_id":76561198797633439,"connected_time":2936000000000,"state":"active","ping":102},{"user_id":571,"name":"scarybroccoli","steam_id":76561198296440084,"connected_time":418000000000,"state":"active","ping":82},{"user_id":568,"name":"MacchuPeachu","steam_id":76561199093242587,"connected_time":980000000000,"state":"active","ping":81},{"user_id":508,"name":"kaputon","steam_id":76561198146299782,"connected_time":3690000000000,"state":"active","ping":64},{"user_id":561,"name":"rainintokyo","steam_id":76561198436383373,"connected_time":1448000000000,"state":"active","ping":128},{"user_id":531,"name":"Jasper‚Ñ¢","steam_id":76561198260018463,"connected_time":2701000000000,"state":"active","ping":83},{"user_id":562,"name":"GruntRule","steam_id":76561198039987143,"connected_time":1444000000000,"state":"active","ping":85},{"user_id":563,"name":"69weenies","steam_id":76561199217012206,"connected_time":1421000000000,"state":"active","ping":50},{"user_id":564,"name":"Strangelove","steam_id":76561198353773611,"connected_time":1419000000000,"state":"active","ping":86},{"user_id":520,"name":"Cosmic sR","steam_id":76561198081738675,"connected_time":3124000000000,"state":"active","ping":86},{"user_id":570,"name":"gary","steam_id":76561197991793693,"connected_time":450000000000,"state":"active","ping":94},{"user_id":569,"name":"Neo","steam_id":76561198112618713,"connected_time":821000000000,"state":"active","ping":86}]},{"server_id":38,"name":"Uncletopia | Chicago | 7 | Stopwatch","name_short":"chi-7","host":"chi-2.us.uncletopia.com","port":27035,"enabled":true,"region":"us-central","cc":"us","latitude":41.881832,"longitude":-87.62318,"reserved":0,"last_update":"0001-01-01T00:00:00Z","name_a2s":"Uncletopia | Chicago | 7 | Stopwatch","protocol":17,"map":"pl_badwater","folder":"tf","game":"Team Fortress","app_id":440,"player_count":0,"max_players":24,"Bots":0,"server_type":"Dedicated","server_os":"Linux","password":true,"vac":true,"version":"7961495","steam_id":85568392924866364,"keywords":["nocrits","nodmgspread","payload","uncletopia"],"game_id":440,"stv_port":27036,"stv_name":"Uncletopia | Chicago | 7 | Stopwatch | STV","players":null},{"server_id":39,"name":"Uncletopia | Chicago | 8 | Community","name_short":"chi-8","host":"chi-2.us.uncletopia.com","port":27045,"enabled":true,"region":"us-central","cc":"us","latitude":41.881832,"longitude":-87.62318,"reserved":0,"last_update":"0001-01-01T00:00:00Z","name_a2s":"Uncletopia | Chicago | 8 | Community","protocol":17,"map":"workshop/pl_boundary_final1.ugc456799153","folder":"tf","game":"Team Fortress","app_id":440,"player_count":0,"max_players":24,"Bots":0,"server_type":"Dedicated","server_os":"Linux","password":true,"vac":true,"version":"7961495","steam_id":85568392924866365,"keywords":["nocrits","nodmgspread","payload","uncletopia"],"game_id":440,"stv_port":27046,"stv_name":"Uncletopia | Chicago | 8 | Community | STV","players":null},{"server_id":8,"name":"Uncletopia | Dallas | 1 | All Maps","name_short":"dal-1","host":"dal-1.us.uncletopia.com","port":27015,"enabled":true,"region":"us-central","cc":"us","latitude":32.779167,"longitude":-96.80889,"reserved":0,"last_update":"0001-01-01T00:00:00Z","name_a2s":"Uncletopia | Dallas | 1 | All Maps","protocol":17,"map":"pl_upward","folder":"tf","game":"Team Fortress","app_id":440,"player_count":24,"max_players":24,"Bots":0,"server_type":"Dedicated","server_os":"Linux","password":true,"vac":true,"version":"7961495","steam_id":85568392924469986,"keywords":["nocrits","nodmgspread","payload","uncletopia"],"game_id":440,"stv_port":27016,"stv_name":"Uncletopia | Dallas | 1 | All Maps | STV","players":[{"user_id":525,"name":"TheGirthquake","steam_id":76561198238895056,"connected_time":459000000000,"state":"active","ping":62},{"user_id":513,"name":"TheSaltRobot","steam_id":76561198839739497,"connected_time":1925000000000,"state":"active","ping":47},{"user_id":511,"name":"Cebula33","steam_id":76561197984964095,"connected_time":2077000000000,"state":"active","ping":87},{"user_id":518,"name":"Buttercup","steam_id":76561198030816577,"connected_time":637000000000,"state":"active","ping":58},{"user_id":520,"name":"CeLeb144","steam_id":76561199089907740,"connected_time":607000000000,"state":"active","ping":88},{"user_id":499,"name":"VaL-ASROC","steam_id":76561198886493635,"connected_time":3215000000000,"state":"active","ping":74},{"user_id":516,"name":"sora","steam_id":76561198094256973,"connected_time":1001000000000,"state":"active","ping":85},{"user_id":488,"name":"CreateADebate","steam_id":76561198115760035,"connected_time":4057000000000,"state":"active","ping":61},{"user_id":514,"name":"Autistic God","steam_id":76561199213988023,"connected_time":1563000000000,"state":"active","ping":72},{"user_id":527,"name":"Gavil√°n","steam_id":76561198285212453,"connected_time":417000000000,"state":"active","ping":80},{"user_id":510,"name":"Phoysh","steam_id":76561198137111021,"connected_time":2091000000000,"state":"active","ping":117},{"user_id":517,"name":"clmatt6","steam_id":76561198027812938,"connected_time":733000000000,"state":"active","ping":70},{"user_id":486,"name":"THRONGLER","steam_id":76561198198563466,"connected_time":4150000000000,"state":"active","ping":45},{"user_id":521,"name":"A Fruit","steam_id":76561198951830050,"connected_time":595000000000,"state":"active","ping":48},{"user_id":497,"name":"TheGFG","steam_id":76561198166150556,"connected_time":3588000000000,"state":"active","ping":69},{"user_id":404,"name":"OwningTundra2","steam_id":76561198936893224,"connected_time":11180000000000,"state":"active","ping":58},{"user_id":522,"name":"Killerfish360","steam_id":76561198115029584,"connected_time":520000000000,"state":"active","ping":71},{"user_id":523,"name":"Sucks-At-Aiming","steam_id":76561198027487285,"connected_time":516000000000,"state":"active","ping":91},{"user_id":512,"name":"firefly","steam_id":76561198151308698,"connected_time":2014000000000,"state":"active","ping":49},{"user_id":524,"name":"Wah4Smash","steam_id":76561198373699011,"connected_time":509000000000,"state":"active","ping":48},{"user_id":526,"name":"Tetris Speedrunner","steam_id":76561198984917566,"connected_time":420000000000,"state":"active","ping":70},{"user_id":528,"name":"ShadowofValenth","steam_id":76561199169378304,"connected_time":377000000000,"state":"active","ping":91},{"user_id":531,"name":"Angry Ginger","steam_id":76561198256929349,"connected_time":187000000000,"state":"active","ping":79},{"user_id":532,"name":"celery","steam_id":76561199004451589,"connected_time":149000000000,"state":"active","ping":56}]},{"server_id":108,"name":"Uncletopia | Dallas | 2 | All Maps","name_short":"dal-2","host":"dal-1.us.uncletopia.com","port":27025,"enabled":true,"region":"us-central","cc":"us","latitude":32.779167,"longitude":-96.80889,"reserved":0,"last_update":"0001-01-01T00:00:00Z","name_a2s":"Uncletopia | Dallas | 2 | All Maps","protocol":17,"map":"pl_barnblitz","folder":"tf","game":"Team Fortress","app_id":440,"player_count":23,"max_players":24,"Bots":0,"server_type":"Dedicated","server_os":"Linux","password":true,"vac":true,"version":"7961495","steam_id":85568392924469988,"keywords":["nocrits","nodmgspread","payload","uncletopia"],"game_id":440,"stv_port":27026,"stv_name":"Uncletopia | Dallas | 2 | All Maps | STV","players":[{"user_id":309,"name":"Lazy Bones","steam_id":76561198198928941,"connected_time":281000000000,"state":"active","ping":74},{"user_id":274,"name":"ogenez","steam_id":76561198252596234,"connected_time":2348000000000,"state":"active","ping":55},{"user_id":167,"name":"Burny Sanders","steam_id":76561197961879048,"connected_time":11404000000000,"state":"active","ping":44},{"user_id":308,"name":"Ja","steam_id":76561198396340174,"connected_time":291000000000,"state":"active","ping":99},{"user_id":292,"name":"epix","steam_id":76561198354108114,"connected_time":1578000000000,"state":"active","ping":100},{"user_id":291,"name":"Your Dad‚Ñ¢","steam_id":76561198254739340,"connected_time":1715000000000,"state":"active","ping":78},{"user_id":297,"name":"HUMBY","steam_id":76561198065045867,"connected_time":1380000000000,"state":"active","ping":86},{"user_id":183,"name":"narutokid37","steam_id":76561198239286750,"connected_time":10582000000000,"state":"active","ping":85},{"user_id":294,"name":"Jonah Hill from 21 Jump Street","steam_id":76561198811130843,"connected_time":1481000000000,"state":"active","ping":105},{"user_id":304,"name":"Ruffilio","steam_id":76561199090378634,"connected_time":746000000000,"state":"active","ping":63},{"user_id":258,"name":"pluto","steam_id":76561198354990729,"connected_time":3994000000000,"state":"active","ping":104},{"user_id":310,"name":"Tuvok Shakur","steam_id":76561198018875334,"connected_time":278000000000,"state":"active","ping":62},{"user_id":287,"name":"Javi","steam_id":76561198081407483,"connected_time":2014000000000,"state":"active","ping":90},{"user_id":300,"name":"Riltreks","steam_id":76561198800482183,"connected_time":1240000000000,"state":"active","ping":60},{"user_id":312,"name":"Chilis 2 for 20","steam_id":76561198121544531,"connected_time":273000000000,"state":"active","ping":80},{"user_id":302,"name":"Pearez","steam_id":76561198158141878,"connected_time":959000000000,"state":"active","ping":85},{"user_id":184,"name":"teaf","steam_id":76561198406252824,"connected_time":10408000000000,"state":"active","ping":106},{"user_id":247,"name":"Wood Crow","steam_id":76561198046802071,"connected_time":5198000000000,"state":"active","ping":59},{"user_id":290,"name":"Leeches Lices","steam_id":76561198416724843,"connected_time":1775000000000,"state":"active","ping":144},{"user_id":299,"name":"Underscorn","steam_id":76561198374209415,"connected_time":1328000000000,"state":"active","ping":63},{"user_id":268,"name":"SmileOneTwoThree","steam_id":76561198045624336,"connected_time":3327000000000,"state":"active","ping":77},{"user_id":305,"name":"K4$P3–Ø","steam_id":76561198263271697,"connected_time":674000000000,"state":"active","ping":61},{"user_id":313,"name":"Railly","steam_id":76561198357355915,"connected_time":66000000000,"state":"active","ping":86}]},{"server_id":404,"name":"Uncletopia | Dallas | 3 | All Maps","name_short":"dal-3","host":"dal-1.us.uncletopia.com","port":27035,"enabled":true,"region":"us-central","cc":"us","latitude":32.779167,"longitude":-96.80889,"reserved":0,"last_update":"0001-01-01T00:00:00Z","name_a2s":"Uncletopia | Dallas | 3 | All Maps","protocol":17,"map":"cp_well","folder":"tf","game":"Team Fortress","app_id":440,"player_count":24,"max_players":24,"Bots":0,"server_type":"Dedicated","server_os":"Linux","password":true,"vac":true,"version":"7961495","steam_id":85568392924515219,"keywords":["cp","nocrits","nodmgspread","uncletopia"],"game_id":440,"stv_port":27036,"stv_name":"Uncletopia | Dallas | 3 | All Maps | STV","players":[{"user_id":249,"name":"loreson","steam_id":76561198179567291,"connected_time":114000000000,"state":"active","ping":77},{"user_id":231,"name":"Charles","steam_id":76561198155322277,"connected_time":845000000000,"state":"active","ping":88},{"user_id":157,"name":"A Gamer [F2P]","steam_id":76561198138712892,"connected_time":6820000000000,"state":"active","ping":58},{"user_id":246,"name":"AKA-1NC","steam_id":76561199397330767,"connected_time":285000000000,"state":"active","ping":42},{"user_id":250,"name":"Gay Loogi Gang","steam_id":76561198097031529,"connected_time":105000000000,"state":"active","ping":73},{"user_id":239,"name":"fancyson","steam_id":76561198070635731,"connected_time":359000000000,"state":"active","ping":62},{"user_id":240,"name":"Bloodfart","steam_id":76561199489296949,"connected_time":350000000000,"state":"active","ping":73},{"user_id":214,"name":"tacofever","steam_id":76561198010966507,"connected_time":2281000000000,"state":"active","ping":76},{"user_id":198,"name":"Kirby","steam_id":76561199161858008,"connected_time":3731000000000,"state":"active","ping":71},{"user_id":241,"name":"Sethb854","steam_id":76561198161584296,"connected_time":346000000000,"state":"active","ping":61},{"user_id":242,"name":"Turbocat","steam_id":76561198145431353,"connected_time":344000000000,"state":"active","ping":90},{"user_id":116,"name":"Jag","steam_id":76561198001220471,"connected_time":8817000000000,"state":"active","ping":61},{"user_id":222,"name":"WIDO365","steam_id":76561198307012137,"connected_time":2122000000000,"state":"active","ping":61},{"user_id":243,"name":"videonMode","steam_id":76561197999005481,"connected_time":311000000000,"state":"active","ping":117},{"user_id":244,"name":"LooneyMonkey","steam_id":76561198414675183,"connected_time":305000000000,"state":"active","ping":61},{"user_id":245,"name":"Autumn, The Only Good Season","steam_id":76561198103496593,"connected_time":301000000000,"state":"active","ping":61},{"user_id":247,"name":"cringeass nae-nae girl","steam_id":76561198108753857,"connected_time":258000000000,"state":"active","ping":75},{"user_id":204,"name":"Moth Beam","steam_id":76561198005069202,"connected_time":3578000000000,"state":"active","ping":47},{"user_id":219,"name":"Pork44","steam_id":76561198005773170,"connected_time":2204000000000,"state":"active","ping":54},{"user_id":248,"name":"bookplate","steam_id":76561198055467891,"connected_time":172000000000,"state":"active","ping":116},{"user_id":210,"name":"Engideer","steam_id":76561198145733164,"connected_time":3294000000000,"state":"active","ping":50},{"user_id":251,"name":"soltuno","steam_id":76561198074430565,"connected_time":93000000000,"state":"active","ping":92},{"user_id":233,"name":"Khronakal","steam_id":76561199047228098,"connected_time":742000000000,"state":"active","ping":146},{"user_id":236,"name":"Suudsu","steam_id":76561198024244158,"connected_time":512000000000,"state":"active","ping":90}]},{"server_id":405,"name":"Uncletopia | Dallas | 4 | Community","name_short":"dal-4","host":"dal-1.us.uncletopia.com","port":27045,"enabled":true,"region":"us-central","cc":"us","latitude":32.779167,"longitude":-96.80889,"reserved":0,"last_update":"0001-01-01T00:00:00Z","name_a2s":"Uncletopia | Dallas | 4 | Community","protocol":17,"map":"workshop/cp_glassworks_rc6a.ugc454118349","folder":"tf","game":"Team Fortress","app_id":440,"player_count":0,"max_players":24,"Bots":0,"server_type":"Dedicated","server_os":"Linux","password":true,"vac":true,"version":"7961495","steam_id":85568392924515220,"keywords":["cp","nocrits","nodmgspread","uncletopia"],"game_id":440,"stv_port":27046,"stv_name":"Uncletopia | Dallas | 4 | Community | STV","players":null},{"server_id":5,"name":"Uncletopia | Frankfurt | 1 | All Maps","name_short":"frk-1","host":"frk-1.de.uncletopia.com","port":27015,"enabled":true,"region":"eu","cc":"de","latitude":50.110924,"longitude":8.682127,"reserved":0,"last_update":"0001-01-01T00:00:00Z","name_a2s":"Uncletopia | Frankfurt | 1 | All Maps","protocol":17,"map":"pl_badwater","folder":"tf","game":"Team Fortress","app_id":440,"player_count":24,"max_players":24,"Bots":0,"server_type":"Dedicated","server_os":"Linux","password":true,"vac":true,"version":"7961495","steam_id":85568392924469989,"keywords":["nocrits","nodmgspread","payload","uncletopia"],"game_id":440,"stv_port":27016,"stv_name":"Uncletopia | Frankfurt | 1 | All Maps | STV","players":[{"user_id":553,"name":"sticks","steam_id":76561198127099299,"connected_time":2854000000000,"state":"active","ping":70},{"user_id":599,"name":"asko","steam_id":76561198081966620,"connected_time":193000000000,"state":"active","ping":75},{"user_id":559,"name":"Killbasa","steam_id":76561198064868400,"connected_time":2772000000000,"state":"active","ping":132},{"user_id":600,"name":"AVOID EVERYONE","steam_id":76561198051852765,"connected_time":136000000000,"state":"active","ping":61},{"user_id":544,"name":"lidl","steam_id":76561198895235231,"connected_time":3397000000000,"state":"active","ping":79},{"user_id":591,"name":"Valen","steam_id":76561198049614521,"connected_time":1379000000000,"state":"active","ping":80},{"user_id":602,"name":"Meo","steam_id":76561198184899182,"connected_time":33000000000,"state":"active","ping":76},{"user_id":567,"name":"Buamadoir","steam_id":76561198229417388,"connected_time":2655000000000,"state":"active","ping":91},{"user_id":596,"name":"f√©nix","steam_id":76561198083199151,"connected_time":775000000000,"state":"active","ping":63},{"user_id":577,"name":"pierogi","steam_id":76561198718760200,"connected_time":2230000000000,"state":"active","ping":61},{"user_id":589,"name":"Enjoyer","steam_id":76561198147399855,"connected_time":1589000000000,"state":"active","ping":129},{"user_id":585,"name":"njofra","steam_id":76561199143737200,"connected_time":1984000000000,"state":"active","ping":91},{"user_id":568,"name":"The Communist","steam_id":76561199099995357,"connected_time":2555000000000,"state":"active","ping":73},{"user_id":601,"name":"Max","steam_id":76561198138959361,"connected_time":127000000000,"state":"active","ping":54},{"user_id":503,"name":"kluri","steam_id":76561198084518962,"connected_time":6082000000000,"state":"active","ping":71},{"user_id":586,"name":"ChPerette üéÆ","steam_id":76561198060004887,"connected_time":1952000000000,"state":"active","ping":47},{"user_id":545,"name":"Dyld","steam_id":76561197979603871,"connected_time":3385000000000,"state":"active","ping":59},{"user_id":598,"name":"‚ìà ‚òÖ","steam_id":76561198001235783,"connected_time":257000000000,"state":"active","ping":76},{"user_id":592,"name":"Eujekas","steam_id":76561198010527145,"connected_time":1351000000000,"state":"active","ping":92},{"user_id":588,"name":"tired","steam_id":76561198046838168,"connected_time":1852000000000,"state":"active","ping":45},{"user_id":532,"name":"Refurbished Boy","steam_id":76561197995834697,"connected_time":4171000000000,"state":"active","ping":97},{"user_id":593,"name":"80iqautismcurse_plsgodletmerest","steam_id":76561198003786501,"connected_time":1291000000000,"state":"active","ping":62},{"user_id":590,"name":"tm`","steam_id":76561197993580412,"connected_time":1453000000000,"state":"active","ping":60},{"user_id":576,"name":"Aku+","steam_id":76561198813782795,"connected_time":2315000000000,"state":"active","ping":90}]},{"server_id":110,"name":"Uncletopia | Frankfurt | 2 | All Maps","name_short":"frk-2","host":"frk-1.de.uncletopia.com","port":27025,"enabled":true,"region":"eu","cc":"de","latitude":50.110924,"longitude":8.682127,"reserved":0,"last_update":"0001-01-01T00:00:00Z","name_a2s":"Uncletopia | Frankfurt | 2 | All Maps","protocol":17,"map":"cp_mountainlab","folder":"tf","game":"Team Fortress","app_id":440,"player_count":0,"max_players":24,"Bots":0,"server_type":"Dedicated","server_os":"Linux","password":true,"vac":true,"version":"7961495","steam_id":85568392924469990,"keywords":["cp","nocrits","nodmgspread","uncletopia"],"game_id":440,"stv_port":27026,"stv_name":"Uncletopia | Frankfurt | 2 | All Maps | STV","players":null},{"server_id":308,"name":"Uncletopia | Frankfurt | 3 | All Maps","name_short":"frk-3","host":"frk-1.de.uncletopia.com","port":27035,"enabled":true,"region":"eu","cc":"de","latitude":50.110924,"longitude":8.682127,"reserved":0,"last_update":"0001-01-01T00:00:00Z","name_a2s":"Uncletopia | Frankfurt | 3 | All Maps","protocol":17,"map":"cp_sunshine","folder":"tf","game":"Team Fortress","app_id":440,"player_count":21,"max_players":24,"Bots":0,"server_type":"Dedicated","server_os":"Linux","password":true,"vac":true,"version":"7961495","steam_id":85568392924504274,"keywords":["cp","nocrits","nodmgspread","uncletopia"],"game_id":440,"stv_port":27036,"stv_name":"Uncletopia | Frankfurt | 3 | All Maps | STV","players":[{"user_id":602,"name":"‚ù§Speedbump‚ù§","steam_id":76561198388690313,"connected_time":2574000000000,"state":"active","ping":58},{"user_id":608,"name":"REN","steam_id":76561198000596385,"connected_time":1884000000000,"state":"active","ping":72},{"user_id":627,"name":"Gioni","steam_id":76561198395912581,"connected_time":760000000000,"state":"active","ping":113},{"user_id":638,"name":"spawnix","steam_id":76561198093531134,"connected_time":309000000000,"state":"active","ping":153},{"user_id":637,"name":"Greenspan","steam_id":76561198050775507,"connected_time":510000000000,"state":"active","ping":139},{"user_id":643,"name":"quid","steam_id":76561198998660180,"connected_time":84000000000,"state":"active","ping":161},{"user_id":639,"name":"Speex","steam_id":76561198829909647,"connected_time":291000000000,"state":"active","ping":46},{"user_id":636,"name":"dudor","steam_id":76561198089910493,"connected_time":529000000000,"state":"active","ping":82},{"user_id":631,"name":"laser","steam_id":76561198036030697,"connected_time":717000000000,"state":"active","ping":49},{"user_id":640,"name":"Shary","steam_id":76561198026513983,"connected_time":241000000000,"state":"active","ping":77},{"user_id":611,"name":"Wilderhammer","steam_id":76561198132133702,"connected_time":1830000000000,"state":"active","ping":44},{"user_id":632,"name":"Gruset","steam_id":76561198327512432,"connected_time":668000000000,"state":"active","ping":86},{"user_id":623,"name":"Skarpy","steam_id":76561198034398376,"connected_time":1158000000000,"state":"active","ping":57},{"user_id":613,"name":"His Femboy","steam_id":76561198071111501,"connected_time":1753000000000,"state":"active","ping":64},{"user_id":616,"name":"wardex","steam_id":76561198058776834,"connected_time":1599000000000,"state":"active","ping":45},{"user_id":614,"name":"Wrietra","steam_id":76561199152886903,"connected_time":1706000000000,"state":"active","ping":64},{"user_id":641,"name":"Happy Cat","steam_id":76561198405359788,"connected_time":219000000000,"state":"active","ping":103},{"user_id":607,"name":"travis","steam_id":76561198138119811,"connected_time":1900000000000,"state":"active","ping":60},{"user_id":642,"name":"etc","steam_id":76561197998394797,"connected_time":203000000000,"state":"active","ping":57},{"user_id":619,"name":"‚Ñ≥-√°-∆ä-a","steam_id":76561198359578979,"connected_time":1551000000000,"state":"active","ping":169},{"user_id":624,"name":"simon","steam_id":76561197960506122,"connected_time":1073000000000,"state":"active","ping":82}]},{"server_id":309,"name":"Uncletopia | Frankfurt | 4 | All Maps","name_short":"frk-4","host":"frk-1.de.uncletopia.com","port":27045,"enabled":true,"region":"eu","cc":"de","latitude":50.110924,"longitude":8.682127,"reserved":0,"last_update":"0001-01-01T00:00:00Z","name_a2s":"Uncletopia | Frankfurt | 4 | All Maps","protocol":17,"map":"pl_swiftwater_final1","folder":"tf","game":"Team Fortress","app_id":440,"player_count":21,"max_players":24,"Bots":0,"server_type":"Dedicated","server_os":"Linux","password":true,"vac":true,"version":"7961495","steam_id":85568392924504275,"keywords":["nocrits","nodmgspread","payload","uncletopia"],"game_id":440,"stv_port":27046,"stv_name":"Uncletopia | Frankfurt | 4 | All Maps | STV","players":[{"user_id":794,"name":"lethal weapon","steam_id":76561199152162361,"connected_time":730000000000,"state":"active","ping":46},{"user_id":803,"name":"Stealthy-W.P","steam_id":76561198280604297,"connected_time":14000000000,"state":"spawning","ping":74},{"user_id":728,"name":"Aleksei","steam_id":76561198094954851,"connected_time":3939000000000,"state":"active","ping":82},{"user_id":801,"name":"anabol1c steroids","steam_id":76561199470147761,"connected_time":286000000000,"state":"active","ping":140},{"user_id":748,"name":"full power heart attack","steam_id":76561199196568965,"connected_time":2959000000000,"state":"active","ping":89},{"user_id":778,"name":"cat","steam_id":76561198837071509,"connected_time":1123000000000,"state":"active","ping":78},{"user_id":798,"name":"Truskawka","steam_id":76561198855163602,"connected_time":509000000000,"state":"active","ping":69},{"user_id":799,"name":"Natt-Attack","steam_id":76561198111469704,"connected_time":447000000000,"state":"active","ping":70},{"user_id":764,"name":"BallinScout","steam_id":76561198152443697,"connected_time":2151000000000,"state":"active","ping":61},{"user_id":745,"name":"axethelad","steam_id":76561198144234798,"connected_time":3265000000000,"state":"active","ping":52},{"user_id":777,"name":"Littleyoshifan","steam_id":76561198445491045,"connected_time":1148000000000,"state":"active","ping":57},{"user_id":727,"name":"Egtu","steam_id":76561198013757235,"connected_time":3983000000000,"state":"active","ping":60},{"user_id":759,"name":"milo","steam_id":76561198271268722,"connected_time":2334000000000,"state":"active","ping":61},{"user_id":789,"name":"Fexo","steam_id":76561197991649243,"connected_time":953000000000,"state":"active","ping":45},{"user_id":690,"name":"the goon","steam_id":76561199024865713,"connected_time":6590000000000,"state":"active","ping":54},{"user_id":781,"name":"CiVillain","steam_id":76561198059617732,"connected_time":1062000000000,"state":"active","ping":58},{"user_id":800,"name":"jonas","steam_id":76561199441196540,"connected_time":443000000000,"state":"active","ping":59},{"user_id":782,"name":"Sparky","steam_id":76561198036754195,"connected_time":1054000000000,"state":"active","ping":39},{"user_id":802,"name":"neo","steam_id":76561198136265838,"connected_time":237000000000,"state":"active","ping":59},{"user_id":786,"name":"Q pal","steam_id":76561198166903116,"connected_time":1007000000000,"state":"active","ping":113},{"user_id":790,"name":"dante","steam_id":76561198134512576,"connected_time":948000000000,"state":"active","ping":92}]},{"server_id":310,"name":"Uncletopia | Frankfurt | 5 | All Maps","name_short":"frk-5","host":"frk-1.de.uncletopia.com","port":27055,"enabled":true,"region":"eu","cc":"de","latitude":50.110924,"longitude":8.682127,"reserved":0,"last_update":"0001-01-01T00:00:00Z","name_a2s":"Uncletopia | Frankfurt | 5 | All Maps","protocol":17,"map":"pl_upward","folder":"tf","game":"Team Fortress","app_id":440,"player_count":0,"max_players":24,"Bots":0,"server_type":"Dedicated","server_os":"Linux","password":true,"vac":true,"version":"7961495","steam_id":85568392924504277,"keywords":["nocrits","nodmgspread","payload","uncletopia"],"game_id":440,"stv_port":27056,"stv_name":"Uncletopia | Frankfurt | 5 | All Maps | STV","players":null},{"server_id":311,"name":"Uncletopia | Frankfurt | 6 | All Maps","name_short":"frk-6","host":"frk-1.de.uncletopia.com","port":27065,"enabled":true,"region":"eu","cc":"de","latitude":50.110924,"longitude":8.682127,"reserved":0,"last_update":"0001-01-01T00:00:00Z","name_a2s":"Uncletopia | Frankfurt | 6 | All Maps","protocol":17,"map":"cp_dustbowl","folder":"tf","game":"Team Fortress","app_id":440,"player_count":0,"max_players":24,"Bots":0,"server_type":"Dedicated","server_os":"Linux","password":true,"vac":true,"version":"7961495","steam_id":85568392924504278,"keywords":["cp","nocrits","nodmgspread","uncletopia"],"game_id":440,"stv_port":27066,"stv_name":"Uncletopia | Frankfurt | 6 | All Maps | STV","players":null},{"server_id":23,"name":"Uncletopia | Frankfurt | 7 | Stopwatch","name_short":"frk-7","host":"frk-1.de.uncletopia.com","port":27075,"enabled":true,"region":"eu","cc":"de","latitude":50.110924,"longitude":8.682127,"reserved":0,"last_update":"0001-01-01T00:00:00Z","name_a2s":"Uncletopia | Frankfurt | 7 | Stopwatch","protocol":17,"map":"koth_highpass","folder":"tf","game":"Team Fortress","app_id":440,"player_count":0,"max_players":24,"Bots":0,"server_type":"Dedicated","server_os":"Linux","password":true,"vac":true,"version":"7961495","steam_id":85568392924742827,"keywords":["cp","nocrits","nodmgspread","uncletopia"],"game_id":440,"stv_port":27076,"stv_name":"Uncletopia | Frankfurt | 7 | Stopwatch | STV","players":null},{"server_id":24,"name":"Uncletopia | Frankfurt | 8 | Community","name_short":"frk-8","host":"frk-1.de.uncletopia.com","port":27085,"enabled":true,"region":"eu","cc":"de","latitude":50.110924,"longitude":8.682127,"reserved":0,"last_update":"0001-01-01T00:00:00Z","name_a2s":"Uncletopia | Frankfurt | 8 | Community","protocol":17,"map":"workshop/koth_trenchfoot_b1a.ugc731436616","folder":"tf","game":"Team Fortress","app_id":440,"player_count":0,"max_players":24,"Bots":0,"server_type":"Dedicated","server_os":"Linux","password":true,"vac":true,"version":"7961495","steam_id":85568392924742828,"keywords":["cp","nocrits","nodmgspread","uncletopia"],"game_id":440,"stv_port":27086,"stv_name":"Uncletopia | Frankfurt | 8 | Community | STV","players":null},{"server_id":202,"name":"Uncletopia | Hong Kong | 1 | All Maps","name_short":"hgk-1","host":"hgk-1.hk.uncletopia.com","port":27015,"enabled":true,"region":"asia","cc":"hk","latitude":22.302711,"longitude":114.177216,"reserved":0,"last_update":"0001-01-01T00:00:00Z","name_a2s":"Uncletopia | Hong Kong | 1 | All Maps","protocol":17,"map":"pl_frontier_final","folder":"tf","game":"Team Fortress","app_id":440,"player_count":0,"max_players":24,"Bots":0,"server_type":"Dedicated","server_os":"Linux","password":true,"vac":true,"version":"7961495","steam_id":85568392924494504,"keywords":["nocrits","nodmgspread","payload","uncletopia"],"game_id":440,"stv_port":27016,"stv_name":"Uncletopia | Hong Kong | 1 | All Maps | STV","players":null},{"server_id":1,"name":"Uncletopia | Los Angeles | 1 | All Maps","name_short":"lax-1","host":"lax-1.us.uncletopia.com","port":27015,"enabled":true,"region":"us-west","cc":"us","latitude":33.94279,"longitude":-118.41004,"reserved":0,"last_update":"0001-01-01T00:00:00Z","name_a2s":"Uncletopia | Los Angeles | 1 | All Maps","protocol":17,"map":"pl_barnblitz","folder":"tf","game":"Team Fortress","app_id":440,"player_count":20,"max_players":24,"Bots":0,"server_type":"Dedicated","server_os":"Linux","password":true,"vac":true,"version":"7961495","steam_id":85568392924469991,"keywords":["nocrits","nodmgspread","payload","uncletopia"],"game_id":440,"stv_port":27016,"stv_name":"Uncletopia | Los Angeles | 1 | All Maps | STV","players":[{"user_id":235,"name":"Smittywerbenjager-manjenson","steam_id":76561198067060742,"connected_time":1189000000000,"state":"active","ping":75},{"user_id":205,"name":"Schnitz","steam_id":76561198265484253,"connected_time":3655000000000,"state":"active","ping":52},{"user_id":241,"name":"Jayty07","steam_id":76561198078041126,"connected_time":280000000000,"state":"active","ping":46},{"user_id":83,"name":"TheSpiritWolf12","steam_id":76561198186225203,"connected_time":11941000000000,"state":"active","ping":79},{"user_id":240,"name":"SIR YES SIR","steam_id":76561198143826450,"connected_time":307000000000,"state":"active","ping":90},{"user_id":230,"name":"Mocha Josie","steam_id":76561198066452726,"connected_time":1798000000000,"state":"active","ping":45},{"user_id":242,"name":"LesserAce","steam_id":76561198153258132,"connected_time":162000000000,"state":"active","ping":91},{"user_id":245,"name":"sola venereum","steam_id":76561198368179166,"connected_time":122000000000,"state":"active","ping":612},{"user_id":248,"name":"Sh3ba Spaniel","steam_id":76561198047412394,"connected_time":70000000000,"state":"active","ping":117},{"user_id":252,"name":"Bobby Dazzler È≠îÈêò","steam_id":76561198007405067,"connected_time":21000000000,"state":"active","ping":77},{"user_id":247,"name":"Lucky","steam_id":76561199108883530,"connected_time":88000000000,"state":"active","ping":74},{"user_id":234,"name":"blorp","steam_id":76561198054677742,"connected_time":1378000000000,"state":"active","ping":45},{"user_id":221,"name":"zinnk","steam_id":76561198092081825,"connected_time":2452000000000,"state":"active","ping":45},{"user_id":238,"name":"Smitty Werbenjagermanjensen","steam_id":76561198065782439,"connected_time":1118000000000,"state":"active","ping":100},{"user_id":249,"name":"Danzuniverse","steam_id":76561198179817943,"connected_time":65000000000,"state":"active","ping":93},{"user_id":251,"name":"VicLoL","steam_id":76561198045580784,"connected_time":39000000000,"state":"active","ping":52},{"user_id":213,"name":"sonicboom14","steam_id":76561198866558393,"connected_time":3536000000000,"state":"active","ping":69},{"user_id":196,"name":"cool beans","steam_id":76561198045758072,"connected_time":5131000000000,"state":"active","ping":56},{"user_id":231,"name":"NinjaZebra123","steam_id":76561199057849611,"connected_time":1602000000000,"state":"active","ping":63},{"user_id":204,"name":"Sozuki","steam_id":76561198961150367,"connected_time":4246000000000,"state":"active","ping":105}]},{"server_id":112,"name":"Uncletopia | Los Angeles | 2 | All Maps","name_short":"lax-2","host":"lax-1.us.uncletopia.com","port":27025,"enabled":true,"region":"us-west","cc":"us","latitude":33.94279,"longitude":-118.41004,"reserved":0,"last_update":"0001-01-01T00:00:00Z","name_a2s":"Uncletopia | Los Angeles | 2 | All Maps","protocol":17,"map":"pl_frontier_final","folder":"tf","game":"Team Fortress","app_id":440,"player_count":14,"max_players":24,"Bots":0,"server_type":"Dedicated","server_os":"Linux","password":true,"vac":true,"version":"7961495","steam_id":85568392924469992,"keywords":["nocrits","nodmgspread","payload","uncletopia"],"game_id":440,"stv_port":27026,"stv_name":"Uncletopia | Los Angeles | 2 | All Maps | STV","players":[{"user_id":568,"name":"Kamm","steam_id":76561199181074586,"connected_time":1586000000000,"state":"active","ping":113},{"user_id":585,"name":"thesmilingman654","steam_id":76561199196497254,"connected_time":328000000000,"state":"active","ping":62},{"user_id":562,"name":"RaTtYc","steam_id":76561198954419354,"connected_time":2495000000000,"state":"active","ping":62},{"user_id":580,"name":"MechanizedContortion","steam_id":76561199146092247,"connected_time":817000000000,"state":"active","ping":37},{"user_id":504,"name":"Grify","steam_id":76561198012292317,"connected_time":5340000000000,"state":"active","ping":113},{"user_id":586,"name":"babywhoa","steam_id":76561198070854627,"connected_time":108000000000,"state":"active","ping":51},{"user_id":563,"name":"hightierhuman","steam_id":76561198361999761,"connected_time":2416000000000,"state":"active","ping":46},{"user_id":574,"name":"El Super Monkey Ball","steam_id":76561198135634819,"connected_time":1366000000000,"state":"active","ping":45},{"user_id":561,"name":"McNamJam","steam_id":76561198028128686,"connected_time":2513000000000,"state":"active","ping":62},{"user_id":579,"name":"captain red","steam_id":76561198191587983,"connected_time":1183000000000,"state":"active","ping":70},{"user_id":581,"name":"Scrampled Aigs","steam_id":76561198014526583,"connected_time":668000000000,"state":"active","ping":90},{"user_id":560,"name":"Chaptain","steam_id":76561198452725739,"connected_time":2580000000000,"state":"active","ping":69},{"user_id":555,"name":"d4ngerd4n","steam_id":76561198043758735,"connected_time":2738000000000,"state":"active","ping":62},{"user_id":578,"name":"sans undertale","steam_id":76561199128903858,"connected_time":1205000000000,"state":"active","ping":66}]},{"server_id":324,"name":"Uncletopia | Los Angeles | 3 | All Maps","name_short":"lax-3","host":"lax-1.us.uncletopia.com","port":27035,"enabled":true,"region":"us-west","cc":"us","latitude":33.94279,"longitude":-118.41004,"reserved":0,"last_update":"0001-01-01T00:00:00Z","name_a2s":"Uncletopia | Los Angeles | 3 | All Maps","protocol":17,"map":"koth_lakeside_final","folder":"tf","game":"Team Fortress","app_id":440,"player_count":0,"max_players":24,"Bots":0,"server_type":"Dedicated","server_os":"Linux","password":true,"vac":true,"version":"7961495","steam_id":85568392924510198,"keywords":["cp","nocrits","nodmgspread","uncletopia"],"game_id":440,"stv_port":27036,"stv_name":"Uncletopia | Los Angeles | 3 | All Maps | STV","players":null},{"server_id":25,"name":"Uncletopia | Los Angeles | 4 | Stopwatch","name_short":"lax-4","host":"lax-1.us.uncletopia.com","port":27045,"enabled":true,"region":"us-west","cc":"us","latitude":33.94279,"longitude":-118.41004,"reserved":0,"last_update":"0001-01-01T00:00:00Z","name_a2s":"Uncletopia | Los Angeles | 4 | Stopwatch","protocol":17,"map":"workshop/pl_vigil_rc10.ugc1266210012","folder":"tf","game":"Team Fortress","app_id":440,"player_count":0,"max_players":24,"Bots":0,"server_type":"Dedicated","server_os":"Linux","password":true,"vac":true,"version":"7961495","steam_id":85568392924510199,"keywords":["nocrits","nodmgspread","payload","uncletopia"],"game_id":440,"stv_port":27046,"stv_name":"Uncletopia | Los Angeles | 4 | Stopwatch | STV","players":null},{"server_id":11,"name":"Uncletopia | London | 1 | All Maps","name_short":"lon-1","host":"lon-1.uk.uncletopia.com","port":27015,"enabled":true,"region":"eu","cc":"gb","latitude":51.509865,"longitude":-0.118092,"reserved":0,"last_update":"0001-01-01T00:00:00Z","name_a2s":"Uncletopia | London | 1 | All Maps","protocol":17,"map":"pl_frontier_final","folder":"tf","game":"Team Fortress","app_id":440,"player_count":24,"max_players":24,"Bots":0,"server_type":"Dedicated","server_os":"Linux","password":true,"vac":true,"version":"7961495","steam_id":85568392924367362,"keywords":["nocrits","nodmgspread","payload","uncletopia"],"game_id":440,"stv_port":27016,"stv_name":"Uncletopia | London | 1 | All Maps | STV","players":[{"user_id":617,"name":"Xiqui","steam_id":76561198818386611,"connected_time":3585000000000,"state":"active","ping":72},{"user_id":635,"name":"green spy","steam_id":76561198080064268,"connected_time":1684000000000,"state":"active","ping":53},{"user_id":557,"name":"shooer!","steam_id":76561198110531281,"connected_time":10084000000000,"state":"active","ping":72},{"user_id":630,"name":"stroyo","steam_id":76561198409592046,"connected_time":2560000000000,"state":"active","ping":48},{"user_id":640,"name":"sora","steam_id":76561198096547662,"connected_time":1350000000000,"state":"active","ping":52},{"user_id":639,"name":"DREW PEACOCK","steam_id":76561198065057392,"connected_time":1426000000000,"state":"active","ping":151},{"user_id":653,"name":"Dimonki","steam_id":76561198821015001,"connected_time":243000000000,"state":"active","ping":76},{"user_id":579,"name":"Purps","steam_id":76561198053886680,"connected_time":7156000000000,"state":"active","ping":37},{"user_id":618,"name":"Ricey","steam_id":76561198832961307,"connected_time":3553000000000,"state":"active","ping":44},{"user_id":641,"name":"Buggy","steam_id":76561198989158872,"connected_time":1334000000000,"state":"active","ping":45},{"user_id":619,"name":"dopamine overdose","steam_id":76561199032511302,"connected_time":3524000000000,"state":"active","ping":99},{"user_id":623,"name":"owo","steam_id":76561198158209651,"connected_time":3454000000000,"state":"active","ping":61},{"user_id":601,"name":"teddy","steam_id":76561198007436837,"connected_time":5535000000000,"state":"active","ping":70},{"user_id":650,"name":"SlonkyDonky","steam_id":76561198425787528,"connected_time":892000000000,"state":"active","ping":60},{"user_id":651,"name":"Proud Jojo Fan #TF2SP","steam_id":76561198847327216,"connected_time":874000000000,"state":"active","ping":73},{"user_id":631,"name":"Evix","steam_id":76561198418450671,"connected_time":2074000000000,"state":"active","ping":66},{"user_id":644,"name":"Sentry hater","steam_id":76561199269309068,"connected_time":1292000000000,"state":"active","ping":88},{"user_id":648,"name":"H-say","steam_id":76561198177400362,"connected_time":1041000000000,"state":"active","ping":98},{"user_id":649,"name":"sad monkey hands on his head","steam_id":76561198116530769,"connected_time":1006000000000,"state":"active","ping":79},{"user_id":611,"name":"Kai","steam_id":76561198800004578,"connected_time":4295000000000,"state":"active","ping":48},{"user_id":552,"name":"Lubrsi","steam_id":76561198040208195,"connected_time":10140000000000,"state":"active","ping":46},{"user_id":576,"name":"gibb (official)","steam_id":76561198074097655,"connected_time":7668000000000,"state":"active","ping":41},{"user_id":646,"name":"syms","steam_id":76561198066679812,"connected_time":1114000000000,"state":"active","ping":77},{"user_id":595,"name":"Minimi","steam_id":76561198873850443,"connected_time":6142000000000,"state":"active","ping":45}]},{"server_id":114,"name":"Uncletopia | London | 2 | All Maps","name_short":"lon-2","host":"lon-1.uk.uncletopia.com","port":27025,"enabled":true,"region":"eu","cc":"gb","latitude":51.509865,"longitude":-0.118092,"reserved":0,"last_update":"0001-01-01T00:00:00Z","name_a2s":"Uncletopia | London | 2 | All Maps","protocol":17,"map":"pl_borneo","folder":"tf","game":"Team Fortress","app_id":440,"player_count":24,"max_players":24,"Bots":0,"server_type":"Dedicated","server_os":"Linux","password":true,"vac":true,"version":"7961495","steam_id":85568392924470941,"keywords":["nocrits","nodmgspread","payload","uncletopia"],"game_id":440,"stv_port":27026,"stv_name":"Uncletopia | London | 2 | All Maps | STV","players":[{"user_id":428,"name":"Baccoon","steam_id":76561198338323649,"connected_time":10477000000000,"state":"active","ping":43},{"user_id":484,"name":"Jeryx","steam_id":76561197995602803,"connected_time":5092000000000,"state":"active","ping":61},{"user_id":403,"name":"Can I get a Beep Beep","steam_id":76561198010730967,"connected_time":12997000000000,"state":"active","ping":61},{"user_id":414,"name":"Forklift Certified","steam_id":76561198001816577,"connected_time":12263000000000,"state":"active","ping":92},{"user_id":530,"name":"peruna","steam_id":76561198000721196,"connected_time":76000000000,"state":"active","ping":86},{"user_id":511,"name":"Tomex999","steam_id":76561198049587675,"connected_time":3185000000000,"state":"active","ping":90},{"user_id":521,"name":"Ross","steam_id":76561198965967986,"connected_time":1995000000000,"state":"active","ping":65},{"user_id":495,"name":"Ixsus\u003c3","steam_id":76561198094756869,"connected_time":4143000000000,"state":"active","ping":61},{"user_id":518,"name":"K O T","steam_id":76561198179360022,"connected_time":2555000000000,"state":"active","ping":78},{"user_id":519,"name":"Clint","steam_id":76561198071880415,"connected_time":2242000000000,"state":"active","ping":56},{"user_id":491,"name":"unlucky","steam_id":76561198071440081,"connected_time":4301000000000,"state":"active","ping":104},{"user_id":526,"name":"NeiroüëΩ·ó©YY ·í™·ó∞·ó©O","steam_id":76561198046743985,"connected_time":1389000000000,"state":"active","ping":75},{"user_id":493,"name":"Equinox","steam_id":76561199496452973,"connected_time":4163000000000,"state":"active","ping":54},{"user_id":529,"name":"Krucial","steam_id":76561198144464665,"connected_time":808000000000,"state":"active","ping":86},{"user_id":434,"name":"Unstable Goat","steam_id":76561197985788557,"connected_time":9665000000000,"state":"active","ping":88},{"user_id":515,"name":"Conibun","steam_id":76561198066389567,"connected_time":3138000000000,"state":"active","ping":116},{"user_id":496,"name":"Vilmukas","steam_id":76561199106648396,"connected_time":4126000000000,"state":"active","ping":73},{"user_id":507,"name":"pellio","steam_id":76561199094535057,"connected_time":3535000000000,"state":"active","ping":53},{"user_id":514,"name":"Trapezoid","steam_id":76561198059369295,"connected_time":3149000000000,"state":"active","ping":75},{"user_id":528,"name":"The Lady","steam_id":76561198029895809,"connected_time":1145000000000,"state":"active","ping":90},{"user_id":478,"name":"Commander Onii-chan","steam_id":76561198422084584,"connected_time":6016000000000,"state":"active","ping":61},{"user_id":516,"name":"Vexu","steam_id":76561198113145846,"connected_time":3109000000000,"state":"active","ping":90},{"user_id":522,"name":"‚ù§Ô∏éWarMole‚ù§","steam_id":76561198104248760,"connected_time":1765000000000,"state":"active","ping":71},{"user_id":525,"name":"flr","steam_id":76561198249327786,"connected_time":1505000000000,"state":"active","ping":74}]},{"server_id":320,"name":"Uncletopia | London | 3 | All Maps","name_short":"lon-3","host":"lon-1.uk.uncletopia.com","port":27035,"enabled":true,"region":"eu","cc":"gb","latitude":51.509865,"longitude":-0.118092,"reserved":0,"last_update":"0001-01-01T00:00:00Z","name_a2s":"Uncletopia | London | 3 | All Maps","protocol":17,"map":"pl_borneo","folder":"tf","game":"Team Fortress","app_id":440,"player_count":0,"max_players":24,"Bots":0,"server_type":"Dedicated","server_os":"Linux","password":true,"vac":true,"version":"7961495","steam_id":85568392924510192,"keywords":["nocrits","nodmgspread","payload","uncletopia"],"game_id":440,"stv_port":27036,"stv_name":"Uncletopia | London | 3 | All Maps | STV","players":null},{"server_id":321,"name":"Uncletopia | London | 4 | All Maps","name_short":"lon-4","host":"lon-1.uk.uncletopia.com","port":27045,"enabled":true,"region":"eu","cc":"gb","latitude":51.509865,"longitude":-0.118092,"reserved":0,"last_update":"0001-01-01T00:00:00Z","name_a2s":"Uncletopia | London | 4 | All Maps","protocol":17,"map":"koth_highpass","folder":"tf","game":"Team Fortress","app_id":440,"player_count":2,"max_players":24,"Bots":0,"server_type":"Dedicated","server_os":"Linux","password":true,"vac":true,"version":"7961495","steam_id":85568392924510193,"keywords":["cp","nocrits","nodmgspread","uncletopia"],"game_id":440,"stv_port":27046,"stv_name":"Uncletopia | London | 4 | All Maps | STV","players":[{"user_id":340,"name":"HF3643","steam_id":76561198087005652,"connected_time":1066000000000,"state":"active","ping":54},{"user_id":341,"name":"Average","steam_id":76561199225810048,"connected_time":1057000000000,"state":"active","ping":193}]},{"server_id":21,"name":"Uncletopia | London | 5 | All Maps","name_short":"lon-5","host":"lon-1.uk.uncletopia.com","port":27055,"enabled":true,"region":"eu","cc":"gb","latitude":51.509865,"longitude":-0.118092,"reserved":0,"last_update":"0001-01-01T00:00:00Z","name_a2s":"Uncletopia | London | 5 | All Maps","protocol":17,"map":"pl_barnblitz","folder":"tf","game":"Team Fortress","app_id":440,"player_count":20,"max_players":24,"Bots":0,"server_type":"Dedicated","server_os":"Linux","password":true,"vac":true,"version":"7961495","steam_id":85568392924742829,"keywords":["nocrits","nodmgspread","payload","uncletopia"],"game_id":440,"stv_port":27056,"stv_name":"Uncletopia | London | 5 | All Maps | STV","players":[{"user_id":923,"name":"Fred","steam_id":76561199013600767,"connected_time":1696000000000,"state":"active","ping":62},{"user_id":924,"name":"Hank J Wimbleton","steam_id":76561198408623293,"connected_time":1459000000000,"state":"active","ping":56},{"user_id":925,"name":"milk.mp4","steam_id":76561198376723362,"connected_time":1450000000000,"state":"active","ping":63},{"user_id":926,"name":"car with air conditioning","steam_id":76561198368514674,"connected_time":1366000000000,"state":"active","ping":58},{"user_id":928,"name":"Glitch","steam_id":76561198081895538,"connected_time":1164000000000,"state":"active","ping":55},{"user_id":944,"name":"Archer","steam_id":76561198132860299,"connected_time":843000000000,"state":"active","ping":56},{"user_id":929,"name":"OceanMan","steam_id":76561198391833371,"connected_time":1133000000000,"state":"active","ping":43},{"user_id":902,"name":"Woman (Real)","steam_id":76561199151823932,"connected_time":3988000000000,"state":"active","ping":83},{"user_id":903,"name":"yava≈ü","steam_id":76561198170334258,"connected_time":3978000000000,"state":"active","ping":68},{"user_id":949,"name":"Tommy Toughknuckles","steam_id":76561198180438386,"connected_time":136000000000,"state":"active","ping":44},{"user_id":904,"name":"mingsh'allah","steam_id":76561198254011269,"connected_time":3976000000000,"state":"active","ping":79},{"user_id":945,"name":"Endi","steam_id":76561198914938199,"connected_time":837000000000,"state":"active","ping":92},{"user_id":938,"name":"spartan","steam_id":76561198890131398,"connected_time":966000000000,"state":"active","ping":59},{"user_id":943,"name":"killerdiam","steam_id":76561198806422317,"connected_time":912000000000,"state":"active","ping":49},{"user_id":936,"name":"I like lightbulbs they are cris","steam_id":76561198145919863,"connected_time":1041000000000,"state":"active","ping":60},{"user_id":950,"name":"Penis Contortionist","steam_id":76561198073663784,"connected_time":124000000000,"state":"active","ping":33},{"user_id":948,"name":"Atrix","steam_id":76561198364012823,"connected_time":310000000000,"state":"active","ping":55},{"user_id":889,"name":"tzlil","steam_id":76561198399916290,"connected_time":5031000000000,"state":"active","ping":110},{"user_id":941,"name":"SpaceHog","steam_id":76561198171200735,"connected_time":958000000000,"state":"active","ping":55},{"user_id":917,"name":"yuri is my full time job","steam_id":76561198274631806,"connected_time":2468000000000,"state":"active","ping":45}]},{"server_id":22,"name":"Uncletopia | London | 6 | All Maps","name_short":"lon-6","host":"lon-1.uk.uncletopia.com","port":27065,"enabled":true,"region":"eu","cc":"gb","latitude":51.509865,"longitude":-0.118092,"reserved":0,"last_update":"0001-01-01T00:00:00Z","name_a2s":"Uncletopia | London | 6 | All Maps","protocol":17,"map":"cp_process_final","folder":"tf","game":"Team Fortress","app_id":440,"player_count":5,"max_players":24,"Bots":0,"server_type":"Dedicated","server_os":"Linux","password":true,"vac":true,"version":"7961495","steam_id":85568392924742830,"keywords":["cp","nocrits","nodmgspread","uncletopia"],"game_id":440,"stv_port":27066,"stv_name":"Uncletopia | London | 6 | All Maps | STV","players":[{"user_id":599,"name":"Mobster Tortoise","steam_id":76561199036837091,"connected_time":3766000000000,"state":"active","ping":76},{"user_id":608,"name":"Umby","steam_id":76561198166584580,"connected_time":2341000000000,"state":"active","ping":31},{"user_id":621,"name":"BurpBoy","steam_id":76561199447378848,"connected_time":715000000000,"state":"active","ping":326},{"user_id":614,"name":"Deemask√©","steam_id":76561199225833593,"connected_time":1597000000000,"state":"active","ping":47},{"user_id":615,"name":"MeKaso TropStar","steam_id":76561199109895840,"connected_time":1581000000000,"state":"active","ping":126}]},{"server_id":40,"name":"Uncletopia | London | 7 | Stopwatch","name_short":"lon-7","host":"lon-1.uk.uncletopia.com","port":27075,"enabled":true,"region":"eu","cc":"gb","latitude":51.509865,"longitude":-0.118092,"reserved":0,"last_update":"0001-01-01T00:00:00Z","name_a2s":"Uncletopia | London | 7 | Stopwatch","protocol":17,"map":"workshop/koth_ashville_final.ugc2130459942","folder":"tf","game":"Team Fortress","app_id":440,"player_count":0,"max_players":24,"Bots":0,"server_type":"Dedicated","server_os":"Linux","password":true,"vac":true,"version":"7961495","steam_id":85568392924964314,"keywords":["cp","nocrits","nodmgspread","uncletopia"],"game_id":440,"stv_port":27076,"stv_name":"Uncletopia | London | 7 | Stopwatch | STV","players":null},{"server_id":41,"name":"Uncletopia | London | 8 | Community","name_short":"lon-8","host":"lon-1.uk.uncletopia.com","port":27085,"enabled":true,"region":"eu","cc":"gb","latitude":51.509865,"longitude":-0.118092,"reserved":0,"last_update":"0001-01-01T00:00:00Z","name_a2s":"Uncletopia | London | 8 | Community","protocol":17,"map":"workshop/koth_synthetic_rc6a.ugc1549817316","folder":"tf","game":"Team Fortress","app_id":440,"player_count":0,"max_players":24,"Bots":0,"server_type":"Dedicated","server_os":"Linux","password":true,"vac":true,"version":"7961495","steam_id":85568392924964315,"keywords":["cp","nocrits","nodmgspread","uncletopia"],"game_id":440,"stv_port":27086,"stv_name":"Uncletopia | London | 8 | Community | STV","players":null},{"server_id":300,"name":"Uncletopia | Montr√©al | 1 | All Maps","name_short":"mtl-1","host":"mtl-1.ca.uncletopia.com","port":27015,"enabled":true,"region":"us-east","cc":"ca","latitude":45.50889,"longitude":-73.56167,"reserved":0,"last_update":"0001-01-01T00:00:00Z","name_a2s":"","protocol":0,"map":"","folder":"","game":"","app_id":0,"player_count":22,"max_players":0,"Bots":0,"server_type":"","server_os":"","password":false,"vac":false,"version":"","steam_id":0,"keywords":null,"game_id":0,"stv_port":0,"stv_name":"","players":[{"user_id":160,"name":"Neocherry","steam_id":76561198137036962,"connected_time":4511000000000,"state":"active","ping":86},{"user_id":206,"name":"BaconWizard4","steam_id":76561198384591745,"connected_time":356000000000,"state":"active","ping":48},{"user_id":208,"name":"dont suck me i uber","steam_id":76561198281968441,"connected_time":302000000000,"state":"active","ping":128},{"user_id":179,"name":"Channel 4 Enjoyer","steam_id":76561198317090044,"connected_time":2609000000000,"state":"active","ping":155},{"user_id":177,"name":"nicolas the mercenary","steam_id":76561199077641644,"connected_time":2685000000000,"state":"active","ping":72},{"user_id":207,"name":"oppenheimer style","steam_id":76561198026664629,"connected_time":330000000000,"state":"active","ping":49},{"user_id":170,"name":"Coach Twig","steam_id":76561198058831591,"connected_time":3110000000000,"state":"active","ping":57},{"user_id":209,"name":"gagobears","steam_id":76561198086008437,"connected_time":291000000000,"state":"active","ping":80},{"user_id":195,"name":"Cheesemelt","steam_id":76561198008221847,"connected_time":1858000000000,"state":"active","ping":28},{"user_id":159,"name":"DarkWolf","steam_id":76561198392222947,"connected_time":4515000000000,"state":"active","ping":82},{"user_id":171,"name":"Vim the Protogen (They/Them)","steam_id":76561198071192138,"connected_time":3049000000000,"state":"active","ping":80},{"user_id":193,"name":"nucket","steam_id":76561198028658527,"connected_time":1965000000000,"state":"active","ping":120},{"user_id":176,"name":"JACOB","steam_id":76561198211874895,"connected_time":2869000000000,"state":"active","ping":56},{"user_id":174,"name":"Jack the Dripper","steam_id":76561198043911582,"connected_time":2989000000000,"state":"active","ping":52},{"user_id":175,"name":"Judge Dread","steam_id":76561199246872571,"connected_time":2957000000000,"state":"active","ping":148},{"user_id":194,"name":"yeah","steam_id":76561198957358624,"connected_time":1928000000000,"state":"active","ping":65},{"user_id":197,"name":"Joey Lemons","steam_id":76561198068104187,"connected_time":1790000000000,"state":"active","ping":59},{"user_id":198,"name":"SleepyJoe","steam_id":76561199262976776,"connected_time":1771000000000,"state":"active","ping":139},{"user_id":200,"name":"Futureguy33","steam_id":76561198101336564,"connected_time":1637000000000,"state":"active","ping":44},{"user_id":203,"name":"Puma","steam_id":76561198173679815,"connected_time":1293000000000,"state":"active","ping":58},{"user_id":211,"name":"brimblobeeple","steam_id":76561198073176682,"connected_time":249000000000,"state":"active","ping":80},{"user_id":205,"name":"SIGSTACKFAULT","steam_id":76561198055203857,"connected_time":1231000000000,"state":"active","ping":62}]},{"server_id":301,"name":"Uncletopia | Montr√©al | 2 | ???","name_short":"mtl-2","host":"mtl-1.ca.uncletopia.com","port":27025,"enabled":true,"region":"us-east","cc":"ca","latitude":45.50889,"longitude":-73.56167,"reserved":0,"last_update":"0001-01-01T00:00:00Z","name_a2s":"","protocol":0,"map":"","folder":"","game":"","app_id":0,"player_count":0,"max_players":0,"Bots":0,"server_type":"","server_os":"","password":false,"vac":false,"version":"","steam_id":0,"keywords":null,"game_id":0,"stv_port":0,"stv_name":"","players":null},{"server_id":13,"name":"Uncletopia | New York City | 1 | All Maps","name_short":"nyc-1","host":"nyc-1.us.uncletopia.com","port":27015,"enabled":true,"region":"us-east","cc":"us","latitude":40.73061,"longitude":-73.93524,"reserved":0,"last_update":"0001-01-01T00:00:00Z","name_a2s":"Uncletopia | New York City | 1 | All Maps","protocol":17,"map":"cp_dustbowl","folder":"tf","game":"Team Fortress","app_id":440,"player_count":23,"max_players":24,"Bots":0,"server_type":"Dedicated","server_os":"Linux","password":true,"vac":true,"version":"7961495","steam_id":85568392924469993,"keywords":["cp","nocrits","nodmgspread","uncletopia"],"game_id":440,"stv_port":27016,"stv_name":"Uncletopia | New York City | 1 | All Maps | STV","players":[{"user_id":440,"name":"hoos","steam_id":76561198045985910,"connected_time":46000000000,"state":"active","ping":61},{"user_id":438,"name":"IlikeChowMien","steam_id":76561199466131782,"connected_time":79000000000,"state":"active","ping":65},{"user_id":398,"name":"BL4Z3RU22ER","steam_id":76561199495737715,"connected_time":2634000000000,"state":"active","ping":59},{"user_id":415,"name":"peace dog","steam_id":76561198267988522,"connected_time":1468000000000,"state":"active","ping":56},{"user_id":401,"name":"eaglesfan609","steam_id":76561198151032242,"connected_time":2483000000000,"state":"active","ping":45},{"user_id":404,"name":"Couriadore","steam_id":76561198055814008,"connected_time":2213000000000,"state":"active","ping":62},{"user_id":412,"name":"Peepster","steam_id":76561198297854733,"connected_time":1522000000000,"state":"active","ping":83},{"user_id":437,"name":"Croxodile","steam_id":76561198215822949,"connected_time":115000000000,"state":"active","ping":72},{"user_id":414,"name":"Spiral Mountain","steam_id":76561198058683715,"connected_time":1509000000000,"state":"active","ping":74},{"user_id":392,"name":"Smiles","steam_id":76561198107197973,"connected_time":2902000000000,"state":"active","ping":76},{"user_id":435,"name":"mason","steam_id":76561198071916946,"connected_time":213000000000,"state":"active","ping":56},{"user_id":434,"name":"MCATU3","steam_id":76561198210230867,"connected_time":342000000000,"state":"active","ping":53},{"user_id":417,"name":"Coop","steam_id":76561198042839356,"connected_time":1443000000000,"state":"active","ping":67},{"user_id":430,"name":"What's My Age Again?","steam_id":76561198035304483,"connected_time":629000000000,"state":"active","ping":60},{"user_id":439,"name":"el wiwi","steam_id":76561198857304367,"connected_time":65000000000,"state":"active","ping":72},{"user_id":419,"name":"SmokeyOne73","steam_id":76561198254981028,"connected_time":1366000000000,"state":"active","ping":71},{"user_id":421,"name":"pea ttv/peabeanz","steam_id":76561198119551968,"connected_time":1343000000000,"state":"active","ping":57},{"user_id":425,"name":"In Soviet America","steam_id":76561197998261826,"connected_time":1325000000000,"state":"active","ping":78},{"user_id":429,"name":"wheel bread","steam_id":76561199062586342,"connected_time":634000000000,"state":"active","ping":143},{"user_id":436,"name":"Spyincorporated","steam_id":76561198080956951,"connected_time":139000000000,"state":"active","ping":76},{"user_id":424,"name":"Gaming123","steam_id":76561198801780168,"connected_time":1328000000000,"state":"active","ping":59},{"user_id":406,"name":"BlaVis","steam_id":76561198045847329,"connected_time":2129000000000,"state":"active","ping":147},{"user_id":428,"name":"Queso2469","steam_id":76561197993024580,"connected_time":696000000000,"state":"active","ping":43}]},{"server_id":14,"name":"Uncletopia | New York City | 2 | All Maps","name_short":"nyc-2","host":"nyc-1.us.uncletopia.com","port":27025,"enabled":true,"region":"us-east","cc":"us","latitude":40.73061,"longitude":-73.93524,"reserved":0,"last_update":"0001-01-01T00:00:00Z","name_a2s":"Uncletopia | New York City | 2 | All Maps","protocol":17,"map":"pl_upward","folder":"tf","game":"Team Fortress","app_id":440,"player_count":24,"max_players":24,"Bots":0,"server_type":"Dedicated","server_os":"Linux","password":true,"vac":true,"version":"7961495","steam_id":85568392924469994,"keywords":["nocrits","nodmgspread","payload","uncletopia"],"game_id":440,"stv_port":27026,"stv_name":"Uncletopia | New York City | 2 | All Maps | STV","players":[{"user_id":309,"name":"Chernov","steam_id":76561198014463424,"connected_time":631000000000,"state":"active","ping":35},{"user_id":274,"name":"De","steam_id":76561198206728044,"connected_time":4502000000000,"state":"active","ping":80},{"user_id":318,"name":"Great","steam_id":76561198895516433,"connected_time":265000000000,"state":"active","ping":59},{"user_id":286,"name":"BeerPowder","steam_id":76561198058129400,"connected_time":3978000000000,"state":"active","ping":51},{"user_id":303,"name":"YourFriendJessie","steam_id":76561198176883097,"connected_time":1668000000000,"state":"active","ping":59},{"user_id":322,"name":"FRANKIEonPCP","steam_id":76561198208451949,"connected_time":33000000000,"state":"active","ping":80},{"user_id":269,"name":"Vee (very cool)","steam_id":76561198330432889,"connected_time":5051000000000,"state":"active","ping":76},{"user_id":300,"name":"0","steam_id":76561198077882008,"connected_time":1736000000000,"state":"active","ping":55},{"user_id":295,"name":"Rhythmicka","steam_id":76561198178637085,"connected_time":2269000000000,"state":"active","ping":70},{"user_id":169,"name":"Zhong Xina","steam_id":76561198048157121,"connected_time":11924000000000,"state":"active","ping":67},{"user_id":319,"name":"Comfy!","steam_id":76561198008818346,"connected_time":235000000000,"state":"active","ping":40},{"user_id":222,"name":"googa","steam_id":76561198133130452,"connected_time":8664000000000,"state":"active","ping":44},{"user_id":305,"name":"enter the schneiderverse","steam_id":76561198073269122,"connected_time":1542000000000,"state":"active","ping":45},{"user_id":320,"name":"Top Frog","steam_id":76561198072793446,"connected_time":194000000000,"state":"active","ping":81},{"user_id":296,"name":"Bingleton","steam_id":76561198020364188,"connected_time":2235000000000,"state":"active","ping":80},{"user_id":310,"name":"Connection","steam_id":76561199230740231,"connected_time":613000000000,"state":"active","ping":60},{"user_id":279,"name":"Hope","steam_id":76561199201900779,"connected_time":4269000000000,"state":"active","ping":68},{"user_id":307,"name":"Jckfrbn","steam_id":76561197997742994,"connected_time":1296000000000,"state":"active","ping":74},{"user_id":321,"name":"Mr. Mane T.S.H.A.","steam_id":76561198056728986,"connected_time":191000000000,"state":"active","ping":79},{"user_id":317,"name":"flappyflap2","steam_id":76561198285048973,"connected_time":286000000000,"state":"active","ping":45},{"user_id":312,"name":"Helty","steam_id":76561199121365950,"connected_time":400000000000,"state":"active","ping":151},{"user_id":308,"name":"JLGamer","steam_id":76561198344694068,"connected_time":1274000000000,"state":"active","ping":57},{"user_id":313,"name":"Pistol Freeman","steam_id":76561198026818915,"connected_time":389000000000,"state":"active","ping":72},{"user_id":315,"name":"concrete_car","steam_id":76561198388207363,"connected_time":322000000000,"state":"active","ping":75}]},{"server_id":15,"name":"Uncletopia | New York City | 3 | Stopwatch","name_short":"nyc-3","host":"nyc-1.us.uncletopia.com","port":27035,"enabled":true,"region":"us-east","cc":"us","latitude":40.73061,"longitude":-73.93524,"reserved":0,"last_update":"0001-01-01T00:00:00Z","name_a2s":"Uncletopia | New York City | 3 | Stopwatch","protocol":17,"map":"workshop/pl_summercoast_rc8e.ugc1761528829","folder":"tf","game":"Team Fortress","app_id":440,"player_count":18,"max_players":24,"Bots":0,"server_type":"Dedicated","server_os":"Linux","password":true,"vac":true,"version":"7961495","steam_id":85568392924742820,"keywords":["nocrits","nodmgspread","payload","uncletopia"],"game_id":440,"stv_port":27036,"stv_name":"Uncletopia | New York City | 3 | Stopwatch | STV","players":[{"user_id":407,"name":"CocoNUTGun","steam_id":76561198073086100,"connected_time":74000000000,"state":"active","ping":92},{"user_id":392,"name":"mountain goat","steam_id":76561198326628884,"connected_time":1512000000000,"state":"active","ping":57},{"user_id":380,"name":"Juan Pablo Gonzalez 2023","steam_id":76561199197961413,"connected_time":2502000000000,"state":"active","ping":33},{"user_id":405,"name":"Tourmaline","steam_id":76561198987049358,"connected_time":442000000000,"state":"active","ping":70},{"user_id":390,"name":"stardust","steam_id":76561198413930183,"connected_time":1857000000000,"state":"active","ping":44},{"user_id":305,"name":"Lee?","steam_id":76561199060892634,"connected_time":6936000000000,"state":"active","ping":95},{"user_id":396,"name":"Roz257","steam_id":76561198842844532,"connected_time":1186000000000,"state":"active","ping":66},{"user_id":389,"name":"MurkinSeason420","steam_id":76561198200227585,"connected_time":1981000000000,"state":"active","ping":76},{"user_id":400,"name":"fLock","steam_id":76561198091578187,"connected_time":1013000000000,"state":"active","ping":53},{"user_id":378,"name":"king dedede","steam_id":76561198965562679,"connected_time":2752000000000,"state":"active","ping":66},{"user_id":394,"name":"LW | [wrd]HaloLagann","steam_id":76561198047561568,"connected_time":1400000000000,"state":"active","ping":59},{"user_id":370,"name":"AFellowGuardsman","steam_id":76561198202280964,"connected_time":2968000000000,"state":"active","ping":129},{"user_id":406,"name":"Mysterious Stranger","steam_id":76561198212044371,"connected_time":247000000000,"state":"active","ping":58},{"user_id":343,"name":"nav","steam_id":76561198872608266,"connected_time":4706000000000,"state":"active","ping":66},{"user_id":402,"name":"Hoofuyu","steam_id":76561199022142345,"connected_time":884000000000,"state":"active","ping":84},{"user_id":404,"name":"Hat Stack","steam_id":76561198806729611,"connected_time":613000000000,"state":"active","ping":116},{"user_id":399,"name":"CJAIME01345","steam_id":76561199091599141,"connected_time":1094000000000,"state":"active","ping":129},{"user_id":408,"name":"I Eat Your Pancakes","steam_id":76561198031796615,"connected_time":73000000000,"state":"active","ping":85}]},{"server_id":16,"name":"Uncletopia | New York City | 4 | Community","name_short":"nyc-4","host":"nyc-1.us.uncletopia.com","port":27045,"enabled":true,"region":"us-east","cc":"us","latitude":40.73061,"longitude":-73.93524,"reserved":0,"last_update":"0001-01-01T00:00:00Z","name_a2s":"Uncletopia | New York City | 4 | Community","protocol":17,"map":"workshop/pl_cashworks_final1.ugc2904065412","folder":"tf","game":"Team Fortress","app_id":440,"player_count":24,"max_players":24,"Bots":0,"server_type":"Dedicated","server_os":"Linux","password":true,"vac":true,"version":"7961495","steam_id":85568392924742821,"keywords":["nocrits","nodmgspread","payload","uncletopia"],"game_id":440,"stv_port":27046,"stv_name":"Uncletopia | New York City | 4 | Community | STV","players":[{"user_id":8,"name":"Seagull","steam_id":76561197966722147,"connected_time":1484000000000,"state":"active","ping":55},{"user_id":9,"name":"advent","steam_id":76561198136475311,"connected_time":1464000000000,"state":"active","ping":151},{"user_id":10,"name":"Xarlable","steam_id":76561198022780294,"connected_time":1319000000000,"state":"active","ping":75},{"user_id":11,"name":"spoon","steam_id":76561198116289876,"connected_time":1282000000000,"state":"active","ping":87},{"user_id":40,"name":"Sagoogoo","steam_id":76561198176061614,"connected_time":6000000000,"state":"spawning","ping":87},{"user_id":13,"name":"muhammad sumbul","steam_id":76561198051582865,"connected_time":1127000000000,"state":"active","ping":148},{"user_id":14,"name":"Your balls will love this!","steam_id":76561198073216296,"connected_time":1088000000000,"state":"active","ping":105},{"user_id":15,"name":"Kratospie","steam_id":76561198019597037,"connected_time":990000000000,"state":"active","ping":70},{"user_id":18,"name":"the overseer","steam_id":76561198316281740,"connected_time":942000000000,"state":"active","ping":100},{"user_id":17,"name":"ShadowWasUhOh","steam_id":76561198400361935,"connected_time":954000000000,"state":"active","ping":64},{"user_id":19,"name":"Madlyrobel","steam_id":76561198078057726,"connected_time":904000000000,"state":"active","ping":44},{"user_id":39,"name":"homsar","steam_id":76561199031742838,"connected_time":114000000000,"state":"active","ping":59},{"user_id":21,"name":"throat goat","steam_id":76561198132155274,"connected_time":820000000000,"state":"active","ping":105},{"user_id":36,"name":"Wafflehead","steam_id":76561198053539741,"connected_time":169000000000,"state":"active","ping":70},{"user_id":23,"name":"Sussin'","steam_id":76561198059813696,"connected_time":765000000000,"state":"active","ping":60},{"user_id":24,"name":"neet","steam_id":76561197968115168,"connected_time":733000000000,"state":"active","ping":50},{"user_id":37,"name":"MonkaS Madlad","steam_id":76561198086575617,"connected_time":130000000000,"state":"active","ping":49},{"user_id":26,"name":"Star Grave","steam_id":76561198059404815,"connected_time":662000000000,"state":"active","ping":145},{"user_id":28,"name":"Dead People Are Unable To Live","steam_id":76561198443172836,"connected_time":634000000000,"state":"active","ping":52},{"user_id":29,"name":"franc | montuga;com","steam_id":76561198417807155,"connected_time":619000000000,"state":"active","ping":45},{"user_id":30,"name":"Pfc. BRUH [10th MD]","steam_id":76561198870051584,"connected_time":615000000000,"state":"active","ping":92},{"user_id":31,"name":"Andallfor","steam_id":76561198350143349,"connected_time":612000000000,"state":"active","ping":58},{"user_id":32,"name":"Prof Emory","steam_id":76561198155683885,"connected_time":599000000000,"state":"active","ping":100},{"user_id":35,"name":"Rodrick Knee","steam_id":76561198283021062,"connected_time":287000000000,"state":"active","ping":75}]},{"server_id":142,"name":"Uncletopia | S√£o Paulo | 1 | All Maps","name_short":"sao-1","host":"sao-1.br.uncletopia.com","port":27015,"enabled":true,"region":"sa","cc":"br","latitude":-23.533773,"longitude":-46.62529,"reserved":0,"last_update":"0001-01-01T00:00:00Z","name_a2s":"Uncletopia | S√£o Paulo | 1 | All Maps","protocol":17,"map":"pl_frontier_final","folder":"tf","game":"Team Fortress","app_id":440,"player_count":0,"max_players":24,"Bots":0,"server_type":"Dedicated","server_os":"Linux","password":true,"vac":true,"version":"7961495","steam_id":85568392924469996,"keywords":["nocrits","nodmgspread","payload","uncletopia"],"game_id":440,"stv_port":27016,"stv_name":"Uncletopia | S√£o Paulo | 1 | All Maps | STV","players":null},{"server_id":143,"name":"Uncletopia | S√£o Paulo | 2 | Community","name_short":"sao-2","host":"sao-2.br.uncletopia.com","port":27015,"enabled":true,"region":"sa","cc":"br","latitude":-23.533773,"longitude":-46.62529,"reserved":0,"last_update":"0001-01-01T00:00:00Z","name_a2s":"Uncletopia | S√£o Paulo | 2 | Community","protocol":17,"map":"workshop/koth_kemptown_rc1.ugc767410655","folder":"tf","game":"Team Fortress","app_id":440,"player_count":0,"max_players":24,"Bots":0,"server_type":"Dedicated","server_os":"Linux","password":true,"vac":true,"version":"7961495","steam_id":85568392924485349,"keywords":["cp","nocrits","nodmgspread","uncletopia"],"game_id":440,"stv_port":27016,"stv_name":"Uncletopia | S√£o Paulo | 2 | Community | STV","players":null},{"server_id":7,"name":"Uncletopia | Seattle | 1 | All Maps","name_short":"sea-1","host":"sea-1.us.uncletopia.com","port":27015,"enabled":true,"region":"us-west","cc":"us","latitude":47.608013,"longitude":-122.33517,"reserved":0,"last_update":"0001-01-01T00:00:00Z","name_a2s":"Uncletopia | Seattle | 1 | All Maps","protocol":17,"map":"koth_nucleus","folder":"tf","game":"Team Fortress","app_id":440,"player_count":17,"max_players":24,"Bots":0,"server_type":"Dedicated","server_os":"Linux","password":true,"vac":true,"version":"7961495","steam_id":85568392924469997,"keywords":["cp","nocrits","nodmgspread","uncletopia"],"game_id":440,"stv_port":27016,"stv_name":"Uncletopia | Seattle | 1 | All Maps | STV","players":[{"user_id":274,"name":"Pah-Wraith Gul Dukat","steam_id":76561198033918106,"connected_time":78000000000,"state":"active","ping":65},{"user_id":275,"name":"Ay24j","steam_id":76561199154814514,"connected_time":77000000000,"state":"active","ping":46},{"user_id":271,"name":"TrueOrFalse","steam_id":76561198989360530,"connected_time":390000000000,"state":"active","ping":61},{"user_id":260,"name":"Mitchell","steam_id":76561197972922328,"connected_time":1399000000000,"state":"active","ping":75},{"user_id":197,"name":"Sniff","steam_id":76561198010270922,"connected_time":7118000000000,"state":"active","ping":59},{"user_id":262,"name":"Asolator0","steam_id":76561198095809798,"connected_time":1362000000000,"state":"active","ping":54},{"user_id":272,"name":"Grunt","steam_id":76561198200758903,"connected_time":279000000000,"state":"active","ping":80},{"user_id":231,"name":"[TrC] Dackstrus","steam_id":76561197973518509,"connected_time":3685000000000,"state":"active","ping":51},{"user_id":273,"name":"Dr. Karl, the AUS Science Guy","steam_id":76561198031278747,"connected_time":235000000000,"state":"active","ping":42},{"user_id":265,"name":"Xynnan","steam_id":76561198122232186,"connected_time":1286000000000,"state":"active","ping":101},{"user_id":261,"name":"run fast fall down","steam_id":76561198167207112,"connected_time":1378000000000,"state":"active","ping":75},{"user_id":254,"name":"Terror","steam_id":76561198188685728,"connected_time":2133000000000,"state":"active","ping":94},{"user_id":191,"name":"rad killl raccoon","steam_id":76561198980975595,"connected_time":7464000000000,"state":"active","ping":56},{"user_id":194,"name":"I had pudding, and I didn't sha","steam_id":76561198141819053,"connected_time":7448000000000,"state":"active","ping":57},{"user_id":234,"name":"astel","steam_id":76561199164371592,"connected_time":3433000000000,"state":"active","ping":121},{"user_id":235,"name":"[TrC] Nosy","steam_id":76561197978859310,"connected_time":3367000000000,"state":"active","ping":57},{"user_id":266,"name":"Tripll-L","steam_id":76561197998077437,"connected_time":1146000000000,"state":"active","ping":69}]},{"server_id":119,"name":"Uncletopia | Seattle | 2 | All Maps","name_short":"sea-2","host":"sea-1.us.uncletopia.com","port":27025,"enabled":true,"region":"us-west","cc":"us","latitude":47.608013,"longitude":-122.33517,"reserved":0,"last_update":"0001-01-01T00:00:00Z","name_a2s":"Uncletopia | Seattle | 2 | All Maps","protocol":17,"map":"pl_badwater","folder":"tf","game":"Team Fortress","app_id":440,"player_count":24,"max_players":24,"Bots":0,"server_type":"Dedicated","server_os":"Linux","password":true,"vac":true,"version":"7961495","steam_id":85568392924469998,"keywords":["nocrits","nodmgspread","payload","uncletopia"],"game_id":440,"stv_port":27026,"stv_name":"Uncletopia | Seattle | 2 | All Maps | STV","players":[{"user_id":161,"name":"celestia ludenberg","steam_id":76561199196437823,"connected_time":2441000000000,"state":"active","ping":89},{"user_id":182,"name":"Telushealth","steam_id":76561199422760247,"connected_time":550000000000,"state":"active","ping":39},{"user_id":190,"name":"Zeref","steam_id":76561198418162006,"connected_time":216000000000,"state":"active","ping":112},{"user_id":166,"name":"090-nsalih","steam_id":76561199467467873,"connected_time":2040000000000,"state":"active","ping":41},{"user_id":191,"name":"the archmage","steam_id":76561198380018244,"connected_time":194000000000,"state":"active","ping":60},{"user_id":192,"name":"Simonator","steam_id":76561198242718444,"connected_time":176000000000,"state":"active","ping":31},{"user_id":178,"name":"Arkus","steam_id":76561199092478198,"connected_time":1031000000000,"state":"active","ping":41},{"user_id":184,"name":"Monkey Bat Donkey Rat","steam_id":76561198833982261,"connected_time":436000000000,"state":"active","ping":58},{"user_id":168,"name":"J O S H¬≥¬≤","steam_id":76561198122603779,"connected_time":1875000000000,"state":"active","ping":76},{"user_id":133,"name":"spacetoven","steam_id":76561198115821131,"connected_time":4203000000000,"state":"active","ping":66},{"user_id":195,"name":"Seskova","steam_id":76561198090207032,"connected_time":113000000000,"state":"active","ping":74},{"user_id":185,"name":"too much peyote","steam_id":76561198161747964,"connected_time":407000000000,"state":"active","ping":67},{"user_id":112,"name":"fishdine","steam_id":76561198065097426,"connected_time":5490000000000,"state":"active","ping":63},{"user_id":187,"name":"moe","steam_id":76561198929586245,"connected_time":344000000000,"state":"active","ping":69},{"user_id":186,"name":"Dunkle","steam_id":76561198041903573,"connected_time":377000000000,"state":"active","ping":45},{"user_id":177,"name":"Age","steam_id":76561198079727565,"connected_time":1200000000000,"state":"active","ping":60},{"user_id":188,"name":"Maxmind24","steam_id":76561198859888778,"connected_time":342000000000,"state":"active","ping":98},{"user_id":179,"name":"laggy mcstab","steam_id":76561198106379962,"connected_time":964000000000,"state":"active","ping":60},{"user_id":189,"name":"Sovereign","steam_id":76561198018841787,"connected_time":323000000000,"state":"active","ping":44},{"user_id":174,"name":"saul goodman","steam_id":76561199165336576,"connected_time":1468000000000,"state":"active","ping":83},{"user_id":181,"name":"Big Juicy","steam_id":76561198018062350,"connected_time":787000000000,"state":"active","ping":51},{"user_id":193,"name":"self sufficient kitten","steam_id":76561197960592612,"connected_time":126000000000,"state":"active","ping":45},{"user_id":194,"name":"S√°bado Gigante","steam_id":76561197994685971,"connected_time":116000000000,"state":"active","ping":89}]},{"server_id":406,"name":"Uncletopia | Seattle | 3 | Stopwatch","name_short":"sea-3","host":"sea-1.us.uncletopia.com","port":27035,"enabled":true,"region":"us-west","cc":"us","latitude":47.608013,"longitude":-122.33517,"reserved":0,"last_update":"0001-01-01T00:00:00Z","name_a2s":"Uncletopia | Seattle | 3 | Stopwatch","protocol":17,"map":"koth_lakeside_final","folder":"tf","game":"Team Fortress","app_id":440,"player_count":0,"max_players":24,"Bots":0,"server_type":"Dedicated","server_os":"Linux","password":true,"vac":true,"version":"7961495","steam_id":85568392924515217,"keywords":["cp","nocrits","nodmgspread","uncletopia"],"game_id":440,"stv_port":27036,"stv_name":"Uncletopia | Seattle | 3 | Stopwatch | STV","players":null},{"server_id":17,"name":"Uncletopia | San Francisco | 1 | All Maps","name_short":"sfo-1","host":"sfo-1.us.uncletopia.com","port":27015,"enabled":true,"region":"us-west","cc":"us","latitude":37.77397,"longitude":-122.4313,"reserved":0,"last_update":"0001-01-01T00:00:00Z","name_a2s":"Uncletopia | San Francisco | 1 | All Maps","protocol":17,"map":"koth_lakeside_final","folder":"tf","game":"Team Fortress","app_id":440,"player_count":0,"max_players":24,"Bots":0,"server_type":"Dedicated","server_os":"Linux","password":true,"vac":true,"version":"7961495","steam_id":85568392924469999,"keywords":["cp","nocrits","nodmgspread","uncletopia"],"game_id":440,"stv_port":27016,"stv_name":"Uncletopia | San Francisco | 1 | All Maps | STV","players":null},{"server_id":18,"name":"Uncletopia | San Francisco | 2 | All Maps","name_short":"sfo-2","host":"sfo-1.us.uncletopia.com","port":27025,"enabled":true,"region":"us-west","cc":"us","latitude":37.77397,"longitude":-122.4313,"reserved":0,"last_update":"0001-01-01T00:00:00Z","name_a2s":"Uncletopia | San Francisco | 2 | All Maps","protocol":17,"map":"pl_borneo","folder":"tf","game":"Team Fortress","app_id":440,"player_count":24,"max_players":24,"Bots":0,"server_type":"Dedicated","server_os":"Linux","password":true,"vac":true,"version":"7961495","steam_id":85568392924470000,"keywords":["nocrits","nodmgspread","payload","uncletopia"],"game_id":440,"stv_port":27026,"stv_name":"Uncletopia | San Francisco | 2 | All Maps | STV","players":[{"user_id":62,"name":"philljenkins836","steam_id":76561199403742236,"connected_time":259000000000,"state":"active","ping":102},{"user_id":38,"name":"veemo","steam_id":76561198321393225,"connected_time":1587000000000,"state":"active","ping":84},{"user_id":39,"name":"Starfruit66","steam_id":76561198069917277,"connected_time":1396000000000,"state":"active","ping":56},{"user_id":33,"name":"Acxra","steam_id":76561198055979128,"connected_time":1980000000000,"state":"active","ping":118},{"user_id":64,"name":"Wool","steam_id":76561198332704108,"connected_time":182000000000,"state":"active","ping":93},{"user_id":60,"name":"alejandro","steam_id":76561198095113674,"connected_time":290000000000,"state":"active","ping":71},{"user_id":54,"name":"Klopo","steam_id":76561198871108633,"connected_time":869000000000,"state":"active","ping":40},{"user_id":57,"name":"Kitty McWhiskertips","steam_id":76561198008822447,"connected_time":671000000000,"state":"active","ping":101},{"user_id":25,"name":"Joh Bags","steam_id":76561198097004438,"connected_time":2535000000000,"state":"active","ping":78},{"user_id":43,"name":"Subject Delta","steam_id":76561199109118980,"connected_time":1139000000000,"state":"active","ping":59},{"user_id":27,"name":"Spider Snake","steam_id":76561198049422729,"connected_time":2424000000000,"state":"active","ping":69},{"user_id":28,"name":"Chicletnugget","steam_id":76561198065548025,"connected_time":2414000000000,"state":"active","ping":61},{"user_id":29,"name":"nerf fren","steam_id":76561198011363677,"connected_time":2265000000000,"state":"active","ping":99},{"user_id":30,"name":"Knavish","steam_id":76561198073434372,"connected_time":2248000000000,"state":"active","ping":46},{"user_id":65,"name":"t2infect","steam_id":76561198338255484,"connected_time":173000000000,"state":"active","ping":66},{"user_id":32,"name":"Ralph Kramden (Slim Charles)","steam_id":76561197981687895,"connected_time":2162000000000,"state":"active","ping":69},{"user_id":44,"name":"Subby Wubby Boi 0w0","steam_id":76561198297585031,"connected_time":1130000000000,"state":"active","ping":60},{"user_id":58,"name":"Infentdegree211","steam_id":76561198385234127,"connected_time":669000000000,"state":"active","ping":68},{"user_id":56,"name":"woosh","steam_id":76561198328312758,"connected_time":726000000000,"state":"active","ping":113},{"user_id":48,"name":"ƒê√Ø…ê»ê…π…¶…Üa","steam_id":76561198981411945,"connected_time":1005000000000,"state":"active","ping":51},{"user_id":59,"name":"Cheff cook","steam_id":76561198451203268,"connected_time":668000000000,"state":"active","ping":53},{"user_id":50,"name":"e doctor","steam_id":76561198081851446,"connected_time":988000000000,"state":"active","ping":90},{"user_id":51,"name":"Beats By Drake *all plats*","steam_id":76561198074572101,"connected_time":980000000000,"state":"active","ping":86},{"user_id":53,"name":"Sove67","steam_id":76561198069919807,"connected_time":927000000000,"state":"active","ping":62}]},{"server_id":19,"name":"Uncletopia | San Francisco | 3 | Stopwatch","name_short":"sfo-3","host":"sfo-1.us.uncletopia.com","port":27035,"enabled":true,"region":"us-west","cc":"us","latitude":37.77397,"longitude":-122.4313,"reserved":0,"last_update":"0001-01-01T00:00:00Z","name_a2s":"Uncletopia | San Francisco | 3 | Stopwatch","protocol":17,"map":"workshop/koth_product_final.ugc454272353","folder":"tf","game":"Team Fortress","app_id":440,"player_count":0,"max_players":24,"Bots":0,"server_type":"Dedicated","server_os":"Linux","password":true,"vac":true,"version":"7961495","steam_id":85568392924742824,"keywords":["cp","nocrits","nodmgspread","uncletopia"],"game_id":440,"stv_port":27036,"stv_name":"Uncletopia | San Francisco | 3 | Stopwatch | STV","players":null},{"server_id":20,"name":"Uncletopia | San Francisco | 4 | Community","name_short":"sfo-4","host":"sfo-1.us.uncletopia.com","port":27045,"enabled":true,"region":"us-west","cc":"us","latitude":37.77397,"longitude":-122.4313,"reserved":0,"last_update":"0001-01-01T00:00:00Z","name_a2s":"Uncletopia | San Francisco | 4 | Community","protocol":17,"map":"workshop/pl_divulgence_b4b.ugc2884808746","folder":"tf","game":"Team Fortress","app_id":440,"player_count":0,"max_players":24,"Bots":0,"server_type":"Dedicated","server_os":"Linux","password":true,"vac":true,"version":"7961495","steam_id":85568392924742826,"keywords":["nocrits","nodmgspread","payload","uncletopia"],"game_id":440,"stv_port":27046,"stv_name":"Uncletopia | San Francisco | 4 | Community | STV","players":null},{"server_id":141,"name":"Uncletopia | Sydney | 1 | All Maps","name_short":"syd-1","host":"syd-1.au.uncletopia.com","port":27015,"enabled":true,"region":"au","cc":"au","latitude":-33.865143,"longitude":151.2099,"reserved":0,"last_update":"0001-01-01T00:00:00Z","name_a2s":"Uncletopia | Sydney | 1 | All Maps","protocol":17,"map":"koth_viaduct","folder":"tf","game":"Team Fortress","app_id":440,"player_count":0,"max_players":24,"Bots":0,"server_type":"Dedicated","server_os":"Linux","password":true,"vac":true,"version":"7961495","steam_id":85568392924470001,"keywords":["cp","nocrits","nodmgspread","uncletopia"],"game_id":440,"stv_port":27016,"stv_name":"Uncletopia | Sydney | 1 | All Maps | STV","players":null},{"server_id":123,"name":"Uncletopia | Sydney | 2 | All Maps","name_short":"syd-2","host":"syd-1.au.uncletopia.com","port":27025,"enabled":true,"region":"au","cc":"au","latitude":-33.865143,"longitude":151.2099,"reserved":0,"last_update":"0001-01-01T00:00:00Z","name_a2s":"Uncletopia | Sydney | 2 | All Maps","protocol":17,"map":"koth_lakeside_final","folder":"tf","game":"Team Fortress","app_id":440,"player_count":0,"max_players":24,"Bots":0,"server_type":"Dedicated","server_os":"Linux","password":true,"vac":true,"version":"7961495","steam_id":85568392924470002,"keywords":["cp","nocrits","nodmgspread","uncletopia"],"game_id":440,"stv_port":27026,"stv_name":"Uncletopia | Sydney | 2 | All Maps | STV","players":null},{"server_id":395,"name":"Uncletopia | Sydney | 3 | All Maps","name_short":"syd-3","host":"syd-1.au.uncletopia.com","port":27035,"enabled":true,"region":"au","cc":"au","latitude":-33.865143,"longitude":151.2099,"reserved":0,"last_update":"0001-01-01T00:00:00Z","name_a2s":"Uncletopia | Sydney | 3 | All Maps","protocol":17,"map":"koth_viaduct","folder":"tf","game":"Team Fortress","app_id":440,"player_count":0,"max_players":24,"Bots":0,"server_type":"Dedicated","server_os":"Linux","password":true,"vac":true,"version":"7961495","steam_id":85568392925194467,"keywords":["cp","nocrits","nodmgspread","uncletopia"],"game_id":440,"stv_port":27036,"stv_name":"Uncletopia | Sydney | 3 | All Maps | STV","players":null},{"server_id":396,"name":"Uncletopia | Sydney | 4 | All Maps","name_short":"syd-4","host":"syd-1.au.uncletopia.com","port":27045,"enabled":true,"region":"au","cc":"au","latitude":-33.865143,"longitude":151.2099,"reserved":0,"last_update":"0001-01-01T00:00:00Z","name_a2s":"Uncletopia | Sydney | 4 | All Maps","protocol":17,"map":"cp_process_final","folder":"tf","game":"Team Fortress","app_id":440,"player_count":0,"max_players":24,"Bots":0,"server_type":"Dedicated","server_os":"Linux","password":true,"vac":true,"version":"7961495","steam_id":85568392925397958,"keywords":["cp","nocrits","nodmgspread","uncletopia"],"game_id":440,"stv_port":27046,"stv_name":"Uncletopia | Sydney | 4 | All Maps | STV","players":null},{"server_id":58,"name":"Uncletopia | Sydney | 5 | Stopwatch","name_short":"syd-5","host":"syd-1.au.uncletopia.com","port":27055,"enabled":true,"region":"au","cc":"au","latitude":-33.865143,"longitude":151.2099,"reserved":0,"last_update":"0001-01-01T00:00:00Z","name_a2s":"Uncletopia | Sydney | 5 | Stopwatch","protocol":17,"map":"pl_frontier_final","folder":"tf","game":"Team Fortress","app_id":440,"player_count":0,"max_players":24,"Bots":0,"server_type":"Dedicated","server_os":"Linux","password":true,"vac":true,"version":"7961495","steam_id":85568392925397959,"keywords":["nocrits","nodmgspread","payload","uncletopia"],"game_id":440,"stv_port":27056,"stv_name":"Uncletopia | Sydney | 5 | Stopwatch | STV","players":null},{"server_id":59,"name":"Uncletopia | Sydney | 6 | Community","name_short":"syd-6","host":"syd-1.au.uncletopia.com","port":27065,"enabled":true,"region":"au","cc":"au","latitude":-33.865143,"longitude":151.2099,"reserved":0,"last_update":"0001-01-01T00:00:00Z","name_a2s":"Uncletopia | Sydney | 6 | Community","protocol":17,"map":"cp_sunshine","folder":"tf","game":"Team Fortress","app_id":440,"player_count":0,"max_players":24,"Bots":0,"server_type":"Dedicated","server_os":"Linux","password":true,"vac":true,"version":"7961495","steam_id":85568392925397960,"keywords":["cp","nocrits","nodmgspread","uncletopia"],"game_id":440,"stv_port":27066,"stv_name":"Uncletopia | Sydney | 6 | Community | STV","players":null},{"server_id":49,"name":"Uncletopia | Warsaw | 1 | All Maps","name_short":"waw-1","host":"waw-1.pl.uncletopia.com","port":27015,"enabled":true,"region":"eu","cc":"pl","latitude":52.2297,"longitude":21.017532,"reserved":0,"last_update":"0001-01-01T00:00:00Z","name_a2s":"Uncletopia | Warsaw | 1 | All Maps","protocol":17,"map":"koth_lakeside_final","folder":"tf","game":"Team Fortress","app_id":440,"player_count":0,"max_players":24,"Bots":0,"server_type":"Dedicated","server_os":"Linux","password":true,"vac":true,"version":"7961495","steam_id":85568392925397850,"keywords":["cp","nocrits","nodmgspread","uncletopia"],"game_id":440,"stv_port":27016,"stv_name":"Uncletopia | Warsaw | 1 | All Maps | STV","players":null},{"server_id":50,"name":"Uncletopia | Warsaw | 2 | All Maps","name_short":"waw-2","host":"waw-1.pl.uncletopia.com","port":27025,"enabled":true,"region":"eu","cc":"pl","latitude":52.2297,"longitude":21.017532,"reserved":0,"last_update":"0001-01-01T00:00:00Z","name_a2s":"Uncletopia | Warsaw | 2 | All Maps","protocol":17,"map":"pl_badwater","folder":"tf","game":"Team Fortress","app_id":440,"player_count":0,"max_players":24,"Bots":0,"server_type":"Dedicated","server_os":"Linux","password":true,"vac":true,"version":"7961495","steam_id":85568392925397851,"keywords":["nocrits","nodmgspread","payload","uncletopia"],"game_id":440,"stv_port":27026,"stv_name":"Uncletopia | Warsaw | 2 | All Maps | STV","players":null},{"server_id":51,"name":"Uncletopia | Warsaw | 3 | All Maps","name_short":"waw-3","host":"waw-1.pl.uncletopia.com","port":27035,"enabled":true,"region":"eu","cc":"pl","latitude":52.2297,"longitude":21.017532,"reserved":0,"last_update":"0001-01-01T00:00:00Z","name_a2s":"Uncletopia | Warsaw | 3 | All Maps","protocol":17,"map":"koth_lakeside_final","folder":"tf","game":"Team Fortress","app_id":440,"player_count":0,"max_players":24,"Bots":0,"server_type":"Dedicated","server_os":"Linux","password":true,"vac":true,"version":"7961495","steam_id":85568392925397852,"keywords":["cp","nocrits","nodmgspread","uncletopia"],"game_id":440,"stv_port":27036,"stv_name":"Uncletopia | Warsaw | 3 | All Maps | STV","players":null},{"server_id":52,"name":"Uncletopia | Warsaw | 4 | All Maps","name_short":"waw-4","host":"waw-1.pl.uncletopia.com","port":27045,"enabled":true,"region":"eu","cc":"pl","latitude":52.2297,"longitude":21.017532,"reserved":0,"last_update":"0001-01-01T00:00:00Z","name_a2s":"Uncletopia | Warsaw | 4 | All Maps","protocol":17,"map":"pl_snowycoast","folder":"tf","game":"Team Fortress","app_id":440,"player_count":0,"max_players":24,"Bots":0,"server_type":"Dedicated","server_os":"Linux","password":true,"vac":true,"version":"7961495","steam_id":85568392925397853,"keywords":["nocrits","nodmgspread","payload","uncletopia"],"game_id":440,"stv_port":27046,"stv_name":"Uncletopia | Warsaw | 4 | All Maps | STV","players":null},{"server_id":53,"name":"Uncletopia | Warsaw | 5 | Stopwatch","name_short":"waw-5","host":"waw-1.pl.uncletopia.com","port":27055,"enabled":true,"region":"eu","cc":"pl","latitude":52.2297,"longitude":21.017532,"reserved":0,"last_update":"0001-01-01T00:00:00Z","name_a2s":"Uncletopia | Warsaw | 5 | Stopwatch","protocol":17,"map":"workshop/koth_ramjam_rc1.ugc459778887","folder":"tf","game":"Team Fortress","app_id":440,"player_count":0,"max_players":24,"Bots":0,"server_type":"Dedicated","server_os":"Linux","password":true,"vac":true,"version":"7961495","steam_id":85568392925397854,"keywords":["cp","nocrits","nodmgspread","uncletopia"],"game_id":440,"stv_port":27056,"stv_name":"Uncletopia | Warsaw | 5 | Stopwatch | STV","players":null},{"server_id":54,"name":"Uncletopia | Warsaw | 6 | Community","name_short":"waw-6","host":"waw-1.pl.uncletopia.com","port":27065,"enabled":true,"region":"eu","cc":"pl","latitude":52.2297,"longitude":21.017532,"reserved":0,"last_update":"0001-01-01T00:00:00Z","name_a2s":"Uncletopia | Warsaw | 6 | Community","protocol":17,"map":"workshop/koth_kemptown_rc1.ugc767410655","folder":"tf","game":"Team Fortress","app_id":440,"player_count":0,"max_players":24,"Bots":0,"server_type":"Dedicated","server_os":"Linux","password":true,"vac":true,"version":"7961495","steam_id":85568392925397856,"keywords":["cp","nocrits","nodmgspread","uncletopia"],"game_id":440,"stv_port":27066,"stv_name":"Uncletopia | Warsaw | 6 | Community | STV","players":null}]}