{"status":true,"message":"","result":[{"server_id":9,"name":"Uncletopia | Atlanta | 1 | All Maps","name_short":"atl-1","host":"atl-1.us.uncletopia.com","port":27015,"enabled":true,"region":"us-east","cc":"us","latitude":33.753746,"longitude":-84.38633,"reserved":0,"last_update":"0001-01-01T00:00:00Z","name_a2s":"Uncletopia | Atlanta | 1 | All Maps","protocol":17,"map":"pl_swiftwater_final1","folder":"tf","game":"Team Fortress","app_id":440,"player_count":24,"max_players":24,"Bots":0,"server_type":"Dedicated","server_os":"Linux","password":true,"vac":true,"version":"7757534","steam_id":85568392924469982,"keywords":["nocrits","nodmgspread","payload","uncletopia"],"game_id":440,"stv_port":27016,"stv_name":"Uncletopia | Atlanta | 1 | All Maps | STV","players":[{"user_id":755,"name":"lotsofoj","steam_id":76561198260367301,"connected_time":2838000000000,"state":"active","ping":93},{"user_id":772,"name":"Stargriefer190","steam_id":76561198996425356,"connected_time":877000000000,"state":"active","ping":72},{"user_id":752,"name":"Admiral Catradora","steam_id":76561198017271944,"connected_time":3015000000000,"state":"active","ping":93},{"user_id":774,"name":"eBay","steam_id":76561198061214569,"connected_time":373000000000,"state":"active","ping":109},{"user_id":768,"name":"John16Mark","steam_id":76561198119445407,"connected_time":1548000000000,"state":"active","ping":81},{"user_id":758,"name":"bibexual","steam_id":76561198086615208,"connected_time":2495000000000,"state":"active","ping":61},{"user_id":697,"name":"drizzle","steam_id":76561198099412571,"connected_time":7050000000000,"state":"active","ping":73},{"user_id":776,"name":"Looneymunkey","steam_id":76561198414675183,"connected_time":242000000000,"state":"active","ping":74},{"user_id":717,"name":"Charles281.92","steam_id":76561198180951431,"connected_time":5593000000000,"state":"active","ping":60},{"user_id":760,"name":"Artistic","steam_id":76561198118159566,"connected_time":2452000000000,"state":"active","ping":117},{"user_id":775,"name":"jake1west","steam_id":76561199468452444,"connected_time":273000000000,"state":"active","ping":145},{"user_id":734,"name":"Brother Warren","steam_id":76561198042387802,"connected_time":4284000000000,"state":"active","ping":72},{"user_id":756,"name":"Phillip Jeffries","steam_id":76561198064052174,"connected_time":2750000000000,"state":"active","ping":71},{"user_id":730,"name":"lker","steam_id":76561197976975075,"connected_time":4373000000000,"state":"active","ping":42},{"user_id":773,"name":"Trusty","steam_id":76561198035444237,"connected_time":699000000000,"state":"active","ping":69},{"user_id":727,"name":"pew pew user","steam_id":76561198307845869,"connected_time":5280000000000,"state":"active","ping":75},{"user_id":753,"name":"Qwewi","steam_id":76561198303671197,"connected_time":2922000000000,"state":"active","ping":82},{"user_id":751,"name":"BLU1 l Epifiny","steam_id":76561198027958086,"connected_time":3057000000000,"state":"active","ping":85},{"user_id":735,"name":"Rocky BalSwola","steam_id":76561198440511833,"connected_time":4273000000000,"state":"active","ping":91},{"user_id":766,"name":"Shmoopy","steam_id":76561198030459152,"connected_time":2208000000000,"state":"active","ping":61},{"user_id":736,"name":"OH LAWD HE COMIN","steam_id":76561198338346982,"connected_time":4265000000000,"state":"active","ping":96},{"user_id":763,"name":"Venezia","steam_id":76561197994107407,"connected_time":2388000000000,"state":"active","ping":54},{"user_id":765,"name":"shaderoses","steam_id":76561198070800500,"connected_time":2280000000000,"state":"active","ping":68},{"user_id":704,"name":"cream soda enjoyer 29","steam_id":76561198222776116,"connected_time":6825000000000,"state":"active","ping":62}]},{"server_id":400,"name":"Uncletopia | Atlanta | 3 | Community","name_short":"atl-3","host":"atl-1.us.uncletopia.com","port":27035,"enabled":true,"region":"us-east","cc":"us","latitude":33.753746,"longitude":-84.38633,"reserved":0,"last_update":"0001-01-01T00:00:00Z","name_a2s":"Uncletopia | Atlanta | 3 | Community","protocol":17,"map":"workshop/koth_kemptown_rc1.ugc767410655","folder":"tf","game":"Team Fortress","app_id":440,"player_count":0,"max_players":32,"Bots":0,"server_type":"Dedicated","server_os":"Linux","password":true,"vac":true,"version":"7757534","steam_id":85568392924515187,"keywords":["cp","increased_maxplayers","nocrits","nodmgspread","uncletopia"],"game_id":440,"stv_port":27036,"stv_name":"Uncletopia | Atlanta | 3 | Community | STV","players":null},{"server_id":401,"name":"Uncletopia | Atlanta | 4 | No Payload","name_short":"atl-4","host":"atl-1.us.uncletopia.com","port":27045,"enabled":true,"region":"us-east","cc":"us","latitude":33.753746,"longitude":-84.38633,"reserved":0,"last_update":"0001-01-01T00:00:00Z","name_a2s":"","protocol":0,"map":"","folder":"","game":"","app_id":0,"player_count":0,"max_players":0,"Bots":0,"server_type":"","server_os":"","password":false,"vac":false,"version":"","steam_id":0,"keywords":null,"game_id":0,"stv_port":0,"stv_name":"","players":null},{"server_id":2,"name":"Uncletopia | Chicago | 1 | All Maps","name_short":"chi-1","host":"chi-1.us.uncletopia.com","port":27015,"enabled":true,"region":"us-central","cc":"us","latitude":41.881832,"longitude":-87.62318,"reserved":0,"last_update":"0001-01-01T00:00:00Z","name_a2s":"Uncletopia | Chicago | 1 | All Maps","protocol":17,"map":"pl_pier","folder":"tf","game":"Team Fortress","app_id":440,"player_count":24,"max_players":24,"Bots":0,"server_type":"Dedicated","server_os":"Linux","password":true,"vac":true,"version":"7757534","steam_id":85568392924469984,"keywords":["nocrits","nodmgspread","payload","uncletopia"],"game_id":440,"stv_port":27016,"stv_name":"Uncletopia | Chicago | 1 | All Maps | STV","players":[{"user_id":901,"name":"hud_saytext_time 0","steam_id":76561198010327228,"connected_time":1804000000000,"state":"active","ping":167},{"user_id":926,"name":"C papi","steam_id":76561198027779564,"connected_time":196000000000,"state":"active","ping":54},{"user_id":923,"name":"Strange Festive Femboy","steam_id":76561198050385093,"connected_time":536000000000,"state":"active","ping":91},{"user_id":930,"name":"VBadcatt","steam_id":76561198146413536,"connected_time":119000000000,"state":"active","ping":81},{"user_id":908,"name":"Kdash","steam_id":76561198043829155,"connected_time":1378000000000,"state":"active","ping":70},{"user_id":927,"name":"godtierJack.jpeg","steam_id":76561198089827454,"connected_time":195000000000,"state":"active","ping":62},{"user_id":924,"name":"Pootsworthy™","steam_id":76561198058802333,"connected_time":436000000000,"state":"active","ping":106},{"user_id":909,"name":"Nolan","steam_id":76561198169648081,"connected_time":1364000000000,"state":"active","ping":86},{"user_id":875,"name":"Lore","steam_id":76561198098407538,"connected_time":3607000000000,"state":"active","ping":46},{"user_id":920,"name":"I bomb atomically","steam_id":76561198009818412,"connected_time":908000000000,"state":"active","ping":67},{"user_id":906,"name":"prestige worldwide (wide)","steam_id":76561198045655893,"connected_time":1486000000000,"state":"active","ping":60},{"user_id":921,"name":"kiko","steam_id":76561198018564445,"connected_time":898000000000,"state":"active","ping":70},{"user_id":907,"name":"Chrisscar","steam_id":76561198086298130,"connected_time":1484000000000,"state":"active","ping":105},{"user_id":896,"name":"Vladikr1","steam_id":76561198401495362,"connected_time":2597000000000,"state":"active","ping":63},{"user_id":886,"name":"trappy (showered)","steam_id":76561198402801140,"connected_time":2836000000000,"state":"active","ping":61},{"user_id":888,"name":"garbage (very bad)","steam_id":76561198172454407,"connected_time":2802000000000,"state":"active","ping":76},{"user_id":889,"name":"daemon","steam_id":76561198001541433,"connected_time":2799000000000,"state":"active","ping":60},{"user_id":900,"name":"gato","steam_id":76561198097588802,"connected_time":2140000000000,"state":"active","ping":45},{"user_id":890,"name":"most stable bladee enjoyer","steam_id":76561198321277216,"connected_time":2777000000000,"state":"active","ping":125},{"user_id":919,"name":"for the king","steam_id":76561197973488858,"connected_time":926000000000,"state":"active","ping":57},{"user_id":917,"name":"Pharthus","steam_id":76561198093866050,"connected_time":954000000000,"state":"active","ping":89},{"user_id":911,"name":"NovaSc6ut","steam_id":76561198277163301,"connected_time":1248000000000,"state":"active","ping":64},{"user_id":902,"name":"Bliztank | RGL.gg","steam_id":76561198019252798,"connected_time":1632000000000,"state":"active","ping":59},{"user_id":929,"name":"Throckmorton627","steam_id":76561199147734259,"connected_time":144000000000,"state":"active","ping":71}]},{"server_id":106,"name":"Uncletopia | Chicago | 2 | All Maps","name_short":"chi-2","host":"chi-1.us.uncletopia.com","port":27025,"enabled":true,"region":"us-central","cc":"us","latitude":41.881832,"longitude":-87.62318,"reserved":0,"last_update":"0001-01-01T00:00:00Z","name_a2s":"Uncletopia | Chicago | 2 | All Maps","protocol":17,"map":"pl_pier","folder":"tf","game":"Team Fortress","app_id":440,"player_count":8,"max_players":24,"Bots":0,"server_type":"Dedicated","server_os":"Linux","password":true,"vac":true,"version":"7757534","steam_id":85568392924469985,"keywords":["nocrits","nodmgspread","payload","uncletopia"],"game_id":440,"stv_port":27026,"stv_name":"Uncletopia | Chicago | 2 | All Maps | STV","players":[{"user_id":652,"name":"Epsilon","steam_id":76561198446977327,"connected_time":249000000000,"state":"active","ping":77},{"user_id":622,"name":"tools","steam_id":76561199010542612,"connected_time":2612000000000,"state":"active","ping":44},{"user_id":647,"name":"Oniko","steam_id":76561198087703138,"connected_time":443000000000,"state":"active","ping":64},{"user_id":650,"name":"MrhobbitRequiem","steam_id":76561198976215013,"connected_time":286000000000,"state":"active","ping":72},{"user_id":648,"name":"MotherlyMistress","steam_id":76561199049881551,"connected_time":415000000000,"state":"active","ping":62},{"user_id":651,"name":"Butterfly Pancakes","steam_id":76561198286158414,"connected_time":276000000000,"state":"active","ping":105},{"user_id":637,"name":"heisenberg","steam_id":76561198075341060,"connected_time":2110000000000,"state":"active","ping":113},{"user_id":524,"name":"ZombieSkeletor2","steam_id":76561198244937990,"connected_time":13529000000000,"state":"active","ping":101}]},{"server_id":402,"name":"Uncletopia | Chicago | 3 | All Maps","name_short":"chi-3","host":"chi-1.us.uncletopia.com","port":27035,"enabled":true,"region":"us-central","cc":"us","latitude":41.881832,"longitude":-87.62318,"reserved":0,"last_update":"0001-01-01T00:00:00Z","name_a2s":"Uncletopia | Chicago | 3 | All Maps","protocol":17,"map":"pl_upward","folder":"tf","game":"Team Fortress","app_id":440,"player_count":0,"max_players":24,"Bots":0,"server_type":"Dedicated","server_os":"Linux","password":true,"vac":true,"version":"7757534","steam_id":85568392924515191,"keywords":["nocrits","nodmgspread","payload","uncletopia"],"game_id":440,"stv_port":27036,"stv_name":"Uncletopia | Chicago | 3 | All Maps | STV","players":null},{"server_id":403,"name":"Uncletopia | Chicago | 4 | All Maps","name_short":"chi-4","host":"chi-1.us.uncletopia.com","port":27045,"enabled":true,"region":"us-central","cc":"us","latitude":41.881832,"longitude":-87.62318,"reserved":0,"last_update":"0001-01-01T00:00:00Z","name_a2s":"Uncletopia | Chicago | 4 | All Maps","protocol":17,"map":"pl_badwater","folder":"tf","game":"Team Fortress","app_id":440,"player_count":24,"max_players":24,"Bots":0,"server_type":"Dedicated","server_os":"Linux","password":true,"vac":true,"version":"7757534","steam_id":85568392924515193,"keywords":["nocrits","nodmgspread","payload","uncletopia"],"game_id":440,"stv_port":27046,"stv_name":"Uncletopia | Chicago | 4 | All Maps | STV","players":[{"user_id":860,"name":"dwnkins","steam_id":76561198856016840,"connected_time":806000000000,"state":"active","ping":88},{"user_id":813,"name":"Ahptika","steam_id":76561198436698762,"connected_time":3677000000000,"state":"active","ping":100},{"user_id":856,"name":"Whirblewind","steam_id":76561197964722449,"connected_time":851000000000,"state":"active","ping":71},{"user_id":786,"name":"Sebass","steam_id":76561198073406077,"connected_time":4658000000000,"state":"active","ping":100},{"user_id":758,"name":"Nickel D","steam_id":76561197993588996,"connected_time":7017000000000,"state":"active","ping":67},{"user_id":816,"name":"AliCat","steam_id":76561198308360862,"connected_time":3512000000000,"state":"active","ping":73},{"user_id":845,"name":"TheUKnowWho","steam_id":76561198181418159,"connected_time":1689000000000,"state":"active","ping":74},{"user_id":857,"name":"Rx Auntie","steam_id":76561198051618393,"connected_time":814000000000,"state":"active","ping":62},{"user_id":858,"name":"enolteiii","steam_id":76561198140843225,"connected_time":813000000000,"state":"active","ping":110},{"user_id":869,"name":"king of bogers","steam_id":76561198045731295,"connected_time":436000000000,"state":"active","ping":63},{"user_id":861,"name":"Socialism Doesn't Work","steam_id":76561198044115698,"connected_time":801000000000,"state":"active","ping":70},{"user_id":844,"name":"Praxis","steam_id":76561197960794303,"connected_time":1700000000000,"state":"active","ping":106},{"user_id":850,"name":"Nermal Fan 2000","steam_id":76561198255823904,"connected_time":1414000000000,"state":"active","ping":82},{"user_id":870,"name":"RaidBoss","steam_id":76561198138777659,"connected_time":250000000000,"state":"active","ping":151},{"user_id":851,"name":"ManicButtonMasher","steam_id":76561198026725131,"connected_time":1383000000000,"state":"active","ping":97},{"user_id":843,"name":"rudy","steam_id":76561198088712799,"connected_time":1800000000000,"state":"active","ping":78},{"user_id":852,"name":"Meat Dragon","steam_id":76561198120319256,"connected_time":1370000000000,"state":"active","ping":74},{"user_id":846,"name":"Squid121","steam_id":76561198038832034,"connected_time":1535000000000,"state":"active","ping":106},{"user_id":854,"name":"Beastlierbag","steam_id":76561199014720187,"connected_time":1198000000000,"state":"active","ping":58},{"user_id":868,"name":"The Trash Man","steam_id":76561198071375772,"connected_time":504000000000,"state":"active","ping":55},{"user_id":847,"name":"k1tty","steam_id":76561198869348268,"connected_time":1502000000000,"state":"active","ping":103},{"user_id":867,"name":"seats","steam_id":76561197998756039,"connected_time":598000000000,"state":"active","ping":103},{"user_id":839,"name":"CeigeBirb","steam_id":76561198068538473,"connected_time":2596000000000,"state":"active","ping":82},{"user_id":840,"name":"Fluffeline","steam_id":76561198352909489,"connected_time":2586000000000,"state":"active","ping":135}]},{"server_id":36,"name":"Uncletopia | Chicago | 5 | All Maps","name_short":"chi-5","host":"chi-2.us.uncletopia.com","port":27015,"enabled":true,"region":"us-central","cc":"us","latitude":41.881832,"longitude":-87.62318,"reserved":0,"last_update":"0001-01-01T00:00:00Z","name_a2s":"Uncletopia | Chicago | 5 | All Maps","protocol":17,"map":"pl_snowycoast","folder":"tf","game":"Team Fortress","app_id":440,"player_count":24,"max_players":24,"Bots":0,"server_type":"Dedicated","server_os":"Linux","password":true,"vac":true,"version":"7757534","steam_id":85568392924866362,"keywords":["nocrits","nodmgspread","payload","uncletopia"],"game_id":440,"stv_port":27016,"stv_name":"Uncletopia | Chicago | 5 | All Maps | STV","players":[{"user_id":986,"name":"dog23","steam_id":76561198202018494,"connected_time":3112000000000,"state":"active","ping":90},{"user_id":993,"name":"fallacy","steam_id":76561198057374871,"connected_time":2526000000000,"state":"active","ping":61},{"user_id":1008,"name":"Nnyllazxz","steam_id":76561198247797436,"connected_time":1492000000000,"state":"active","ping":88},{"user_id":922,"name":"Blobulonn","steam_id":76561198247949502,"connected_time":7474000000000,"state":"active","ping":51},{"user_id":992,"name":"Windex","steam_id":76561198105561395,"connected_time":2633000000000,"state":"active","ping":85},{"user_id":987,"name":"Nim","steam_id":76561198041236943,"connected_time":3106000000000,"state":"active","ping":58},{"user_id":1006,"name":"Sapphireblitz","steam_id":76561198272635379,"connected_time":1562000000000,"state":"active","ping":78},{"user_id":1011,"name":"breadtangle of pizza","steam_id":76561198045832398,"connected_time":1428000000000,"state":"active","ping":88},{"user_id":988,"name":"tylre","steam_id":76561198128198748,"connected_time":3105000000000,"state":"active","ping":57},{"user_id":1004,"name":"Miserable Little Pile of Secret","steam_id":76561198007696932,"connected_time":1680000000000,"state":"active","ping":115},{"user_id":989,"name":"Lucille II","steam_id":76561198138543746,"connected_time":3101000000000,"state":"active","ping":86},{"user_id":1019,"name":"Slippery","steam_id":76561199469441947,"connected_time":203000000000,"state":"active","ping":56},{"user_id":972,"name":"Tony Hawk Underground 2 for PSP","steam_id":76561197999901620,"connected_time":4246000000000,"state":"active","ping":70},{"user_id":1007,"name":"SuperFresh","steam_id":76561198200723198,"connected_time":1513000000000,"state":"active","ping":41},{"user_id":1012,"name":"Jon Snuh","steam_id":76561198075298635,"connected_time":1381000000000,"state":"active","ping":60},{"user_id":1016,"name":"SHADOW (he/him)","steam_id":76561198207768148,"connected_time":994000000000,"state":"active","ping":116},{"user_id":1013,"name":"TonesMcGroans","steam_id":76561197996691606,"connected_time":1360000000000,"state":"active","ping":69},{"user_id":998,"name":"Yukon Cornelius","steam_id":76561198261512781,"connected_time":2133000000000,"state":"active","ping":69},{"user_id":1017,"name":"Psychosis","steam_id":76561198078659070,"connected_time":890000000000,"state":"active","ping":76},{"user_id":1020,"name":"JZ","steam_id":76561198377029198,"connected_time":169000000000,"state":"active","ping":68},{"user_id":1015,"name":"Grandpa Baozhai","steam_id":76561198086667725,"connected_time":1226000000000,"state":"active","ping":116},{"user_id":1022,"name":"Crombun","steam_id":76561198031559642,"connected_time":11000000000,"state":"spawning","ping":74},{"user_id":975,"name":"Squirt Reynolds","steam_id":76561197999753555,"connected_time":4189000000000,"state":"active","ping":63},{"user_id":1005,"name":"RedSock","steam_id":76561198161243404,"connected_time":1679000000000,"state":"active","ping":45}]},{"server_id":37,"name":"Uncletopia | Chicago | 6 | All Maps","name_short":"chi-6","host":"chi-2.us.uncletopia.com","port":27025,"enabled":true,"region":"us-central","cc":"us","latitude":41.881832,"longitude":-87.62318,"reserved":0,"last_update":"0001-01-01T00:00:00Z","name_a2s":"Uncletopia | Chicago | 6 | All Maps","protocol":17,"map":"pl_badwater","folder":"tf","game":"Team Fortress","app_id":440,"player_count":22,"max_players":24,"Bots":0,"server_type":"Dedicated","server_os":"Linux","password":true,"vac":true,"version":"7757534","steam_id":85568392924866363,"keywords":["nocrits","nodmgspread","payload","uncletopia"],"game_id":440,"stv_port":27026,"stv_name":"Uncletopia | Chicago | 6 | All Maps | STV","players":[{"user_id":392,"name":"Nymiir","steam_id":76561198029352880,"connected_time":2954000000000,"state":"active","ping":76},{"user_id":411,"name":"Snoopist","steam_id":76561198144023761,"connected_time":8000000000,"state":"spawning","ping":73},{"user_id":378,"name":"Too Lame 2 Name","steam_id":76561198390863385,"connected_time":4685000000000,"state":"active","ping":87},{"user_id":293,"name":"The_Skull_boy","steam_id":76561198227692664,"connected_time":10251000000000,"state":"active","ping":116},{"user_id":395,"name":"gasparmx","steam_id":76561197998611994,"connected_time":2484000000000,"state":"active","ping":100},{"user_id":385,"name":"Wub","steam_id":76561198072947773,"connected_time":3660000000000,"state":"active","ping":60},{"user_id":396,"name":"CheeseCake488","steam_id":76561199407617942,"connected_time":2425000000000,"state":"active","ping":171},{"user_id":402,"name":"Big Cock Brock","steam_id":76561198093244204,"connected_time":1916000000000,"state":"active","ping":69},{"user_id":361,"name":"Vortigaunt","steam_id":76561198058653274,"connected_time":5874000000000,"state":"active","ping":92},{"user_id":393,"name":"Random Crit","steam_id":76561198334676366,"connected_time":2846000000000,"state":"active","ping":63},{"user_id":398,"name":"Bocchi the Rock","steam_id":76561198025668771,"connected_time":2211000000000,"state":"active","ping":122},{"user_id":407,"name":"big ol' buford","steam_id":76561198290675957,"connected_time":686000000000,"state":"active","ping":49},{"user_id":404,"name":"Zubats |TAOZ|","steam_id":76561198041819445,"connected_time":1567000000000,"state":"active","ping":59},{"user_id":400,"name":"Ghostmeal","steam_id":76561198042380299,"connected_time":1969000000000,"state":"active","ping":70},{"user_id":357,"name":"captainspatklz","steam_id":76561198432167270,"connected_time":6199000000000,"state":"active","ping":73},{"user_id":406,"name":"Charlie","steam_id":76561199098209171,"connected_time":898000000000,"state":"active","ping":72},{"user_id":405,"name":"Small tiny feet","steam_id":76561199141538581,"connected_time":1098000000000,"state":"active","ping":114},{"user_id":355,"name":"Black Mesa Scientist","steam_id":76561198064466577,"connected_time":6263000000000,"state":"active","ping":75},{"user_id":397,"name":"Lorberry","steam_id":76561198023706058,"connected_time":2420000000000,"state":"active","ping":34},{"user_id":356,"name":"xivRocky","steam_id":76561198083184351,"connected_time":6249000000000,"state":"active","ping":83},{"user_id":363,"name":"Grayson","steam_id":76561198072228259,"connected_time":5506000000000,"state":"active","ping":81},{"user_id":409,"name":"Nickson1","steam_id":76561198175839309,"connected_time":421000000000,"state":"active","ping":74}]},{"server_id":38,"name":"Uncletopia | Chicago | 7 | Stopwatch Beta","name_short":"chi-7","host":"chi-2.us.uncletopia.com","port":27035,"enabled":true,"region":"us-central","cc":"us","latitude":41.881832,"longitude":-87.62318,"reserved":0,"last_update":"0001-01-01T00:00:00Z","name_a2s":"Uncletopia | Chicago | 7 | Stopwatch Beta","protocol":17,"map":"pl_upward","folder":"tf","game":"Team Fortress","app_id":440,"player_count":0,"max_players":24,"Bots":0,"server_type":"Dedicated","server_os":"Linux","password":true,"vac":true,"version":"7757534","steam_id":85568392924866364,"keywords":["nocrits","nodmgspread","payload","uncletopia"],"game_id":440,"stv_port":27036,"stv_name":"Uncletopia | Chicago | 7 | Stopwatch Beta | STV","players":null},{"server_id":39,"name":"Uncletopia | Chicago | 8 | Community","name_short":"chi-8","host":"chi-2.us.uncletopia.com","port":27045,"enabled":true,"region":"us-central","cc":"us","latitude":41.881832,"longitude":-87.62318,"reserved":0,"last_update":"0001-01-01T00:00:00Z","name_a2s":"Uncletopia | Chicago | 8 | Community","protocol":17,"map":"workshop/cp_snowbase_b18.ugc2081770490","folder":"tf","game":"Team Fortress","app_id":440,"player_count":0,"max_players":24,"Bots":0,"server_type":"Dedicated","server_os":"Linux","password":true,"vac":true,"version":"7757534","steam_id":85568392924866365,"keywords":["cp","nocrits","nodmgspread","uncletopia"],"game_id":440,"stv_port":27046,"stv_name":"Uncletopia | Chicago | 8 | Community | STV","players":null},{"server_id":8,"name":"Uncletopia | Dallas | 1 | All Maps","name_short":"dal-1","host":"dal-1.us.uncletopia.com","port":27015,"enabled":true,"region":"us-central","cc":"us","latitude":32.779167,"longitude":-96.80889,"reserved":0,"last_update":"0001-01-01T00:00:00Z","name_a2s":"Uncletopia | Dallas | 1 | All Maps","protocol":17,"map":"koth_lakeside_final","folder":"tf","game":"Team Fortress","app_id":440,"player_count":0,"max_players":24,"Bots":0,"server_type":"Dedicated","server_os":"Linux","password":true,"vac":true,"version":"7757534","steam_id":85568392924469986,"keywords":["cp","nocrits","nodmgspread","uncletopia"],"game_id":440,"stv_port":27016,"stv_name":"Uncletopia | Dallas | 1 | All Maps | STV","players":null},{"server_id":108,"name":"Uncletopia | Dallas | 2 | All Maps","name_short":"dal-2","host":"dal-1.us.uncletopia.com","port":27025,"enabled":true,"region":"us-central","cc":"us","latitude":32.779167,"longitude":-96.80889,"reserved":0,"last_update":"0001-01-01T00:00:00Z","name_a2s":"Uncletopia | Dallas | 2 | All Maps","protocol":17,"map":"cp_mountainlab","folder":"tf","game":"Team Fortress","app_id":440,"player_count":24,"max_players":24,"Bots":0,"server_type":"Dedicated","server_os":"Linux","password":true,"vac":true,"version":"7757534","steam_id":85568392924469988,"keywords":["cp","nocrits","nodmgspread","uncletopia"],"game_id":440,"stv_port":27026,"stv_name":"Uncletopia | Dallas | 2 | All Maps | STV","players":[{"user_id":354,"name":"xZackAttack27x","steam_id":76561198035446639,"connected_time":6057000000000,"state":"active","ping":35},{"user_id":398,"name":"3713biggest:bug:FEAR:IT","steam_id":76561198126386686,"connected_time":3755000000000,"state":"active","ping":74},{"user_id":385,"name":"s p a c e k a t","steam_id":76561198066852209,"connected_time":5084000000000,"state":"active","ping":60},{"user_id":427,"name":"Professor Sex","steam_id":76561198396414319,"connected_time":1120000000000,"state":"active","ping":77},{"user_id":379,"name":"Kjorque","steam_id":76561198091978710,"connected_time":5326000000000,"state":"active","ping":116},{"user_id":382,"name":"01000101","steam_id":76561198027981956,"connected_time":5268000000000,"state":"active","ping":62},{"user_id":433,"name":"FearTheJynx","steam_id":76561198136487957,"connected_time":110000000000,"state":"active","ping":68},{"user_id":413,"name":"tapewyrm","steam_id":76561198072632696,"connected_time":2195000000000,"state":"active","ping":53},{"user_id":399,"name":"BONK!","steam_id":76561198090666223,"connected_time":3753000000000,"state":"active","ping":45},{"user_id":356,"name":"Pleiades, the Sorceror","steam_id":76561198079590693,"connected_time":5996000000000,"state":"active","ping":68},{"user_id":431,"name":"Hans Burr","steam_id":76561197994592491,"connected_time":447000000000,"state":"active","ping":84},{"user_id":342,"name":"totally not a pile of beans","steam_id":76561198119851931,"connected_time":6942000000000,"state":"active","ping":95},{"user_id":426,"name":"bash -lc ./asshat.sh","steam_id":76561198004584315,"connected_time":1342000000000,"state":"active","ping":76},{"user_id":375,"name":"Gary","steam_id":76561198133309753,"connected_time":5524000000000,"state":"active","ping":86},{"user_id":432,"name":"Sushi Cookies","steam_id":76561199008634102,"connected_time":436000000000,"state":"active","ping":74},{"user_id":412,"name":"SPREAD CHRISTMAS CHEER AND JOY","steam_id":76561198800386026,"connected_time":2200000000000,"state":"active","ping":95},{"user_id":415,"name":"Rin \"Hindwing\" Redtail","steam_id":76561199074865638,"connected_time":2164000000000,"state":"active","ping":53},{"user_id":390,"name":"october","steam_id":76561199435885514,"connected_time":4849000000000,"state":"active","ping":73},{"user_id":358,"name":"Miss Pauling Gaming","steam_id":76561198078479083,"connected_time":5973000000000,"state":"active","ping":68},{"user_id":420,"name":"Chris Pratt's pocket spaghetti","steam_id":76561198138347045,"connected_time":1917000000000,"state":"active","ping":79},{"user_id":429,"name":"Lezabel","steam_id":76561198970753261,"connected_time":741000000000,"state":"active","ping":73},{"user_id":404,"name":"Etomb","steam_id":76561198210017208,"connected_time":3635000000000,"state":"active","ping":69},{"user_id":417,"name":"SuaveFrenchman","steam_id":76561198043762683,"connected_time":2140000000000,"state":"active","ping":83},{"user_id":421,"name":"WhoWee!","steam_id":76561198269471732,"connected_time":1912000000000,"state":"active","ping":54}]},{"server_id":5,"name":"Uncletopia | Frankfurt | 1 | All Maps","name_short":"frk-1","host":"frk-1.de.uncletopia.com","port":27015,"enabled":true,"region":"eu","cc":"de","latitude":50.110924,"longitude":8.682127,"reserved":0,"last_update":"0001-01-01T00:00:00Z","name_a2s":"Uncletopia | Frankfurt | 1 | All Maps","protocol":17,"map":"koth_highpass","folder":"tf","game":"Team Fortress","app_id":440,"player_count":0,"max_players":24,"Bots":0,"server_type":"Dedicated","server_os":"Linux","password":true,"vac":true,"version":"7757534","steam_id":85568392924469989,"keywords":["cp","nocrits","nodmgspread","uncletopia"],"game_id":440,"stv_port":27016,"stv_name":"Uncletopia | Frankfurt | 1 | All Maps | STV","players":null},{"server_id":110,"name":"Uncletopia | Frankfurt | 2 | All Maps","name_short":"frk-2","host":"frk-1.de.uncletopia.com","port":27025,"enabled":true,"region":"eu","cc":"de","latitude":50.110924,"longitude":8.682127,"reserved":0,"last_update":"0001-01-01T00:00:00Z","name_a2s":"Uncletopia | Frankfurt | 2 | All Maps","protocol":17,"map":"pl_snowycoast","folder":"tf","game":"Team Fortress","app_id":440,"player_count":0,"max_players":24,"Bots":0,"server_type":"Dedicated","server_os":"Linux","password":true,"vac":true,"version":"7757534","steam_id":85568392924469990,"keywords":["nocrits","nodmgspread","payload","uncletopia"],"game_id":440,"stv_port":27026,"stv_name":"Uncletopia | Frankfurt | 2 | All Maps | STV","players":null},{"server_id":308,"name":"Uncletopia | Frankfurt | 3 | All Maps","name_short":"frk-3","host":"frk-1.de.uncletopia.com","port":27035,"enabled":true,"region":"eu","cc":"de","latitude":50.110924,"longitude":8.682127,"reserved":0,"last_update":"0001-01-01T00:00:00Z","name_a2s":"Uncletopia | Frankfurt | 3 | All Maps","protocol":17,"map":"cp_altitude","folder":"tf","game":"Team Fortress","app_id":440,"player_count":0,"max_players":24,"Bots":0,"server_type":"Dedicated","server_os":"Linux","password":true,"vac":true,"version":"7757534","steam_id":85568392924504274,"keywords":["cp","nocrits","nodmgspread","uncletopia"],"game_id":440,"stv_port":27036,"stv_name":"Uncletopia | Frankfurt | 3 | All Maps | STV","players":null},{"server_id":309,"name":"Uncletopia | Frankfurt | 4 | All Maps","name_short":"frk-4","host":"frk-1.de.uncletopia.com","port":27045,"enabled":true,"region":"eu","cc":"de","latitude":50.110924,"longitude":8.682127,"reserved":0,"last_update":"0001-01-01T00:00:00Z","name_a2s":"Uncletopia | Frankfurt | 4 | All Maps","protocol":17,"map":"cp_altitude","folder":"tf","game":"Team Fortress","app_id":440,"player_count":0,"max_players":24,"Bots":0,"server_type":"Dedicated","server_os":"Linux","password":true,"vac":true,"version":"7757534","steam_id":85568392924504275,"keywords":["cp","nocrits","nodmgspread","uncletopia"],"game_id":440,"stv_port":27046,"stv_name":"Uncletopia | Frankfurt | 4 | All Maps | STV","players":null},{"server_id":310,"name":"Uncletopia | Frankfurt | 5 | All Maps","name_short":"frk-5","host":"frk-1.de.uncletopia.com","port":27055,"enabled":true,"region":"eu","cc":"de","latitude":50.110924,"longitude":8.682127,"reserved":0,"last_update":"0001-01-01T00:00:00Z","name_a2s":"Uncletopia | Frankfurt | 5 | All Maps","protocol":17,"map":"cp_altitude","folder":"tf","game":"Team Fortress","app_id":440,"player_count":0,"max_players":24,"Bots":0,"server_type":"Dedicated","server_os":"Linux","password":true,"vac":true,"version":"7757534","steam_id":85568392924504277,"keywords":["cp","nocrits","nodmgspread","uncletopia"],"game_id":440,"stv_port":27056,"stv_name":"Uncletopia | Frankfurt | 5 | All Maps | STV","players":null},{"server_id":311,"name":"Uncletopia | Frankfurt | 6 | All Maps","name_short":"frk-6","host":"frk-1.de.uncletopia.com","port":27065,"enabled":true,"region":"eu","cc":"de","latitude":50.110924,"longitude":8.682127,"reserved":0,"last_update":"0001-01-01T00:00:00Z","name_a2s":"Uncletopia | Frankfurt | 6 | All Maps","protocol":17,"map":"koth_highpass","folder":"tf","game":"Team Fortress","app_id":440,"player_count":0,"max_players":24,"Bots":0,"server_type":"Dedicated","server_os":"Linux","password":true,"vac":true,"version":"7757534","steam_id":85568392924504278,"keywords":["cp","nocrits","nodmgspread","uncletopia"],"game_id":440,"stv_port":27066,"stv_name":"Uncletopia | Frankfurt | 6 | All Maps | STV","players":null},{"server_id":23,"name":"Uncletopia | Frankfurt | 7 | Stopwatch Beta","name_short":"frk-7","host":"frk-1.de.uncletopia.com","port":27075,"enabled":true,"region":"eu","cc":"de","latitude":50.110924,"longitude":8.682127,"reserved":0,"last_update":"0001-01-01T00:00:00Z","name_a2s":"Uncletopia | Frankfurt | 7 | Stopwatch Beta","protocol":17,"map":"pl_frontier_final","folder":"tf","game":"Team Fortress","app_id":440,"player_count":0,"max_players":24,"Bots":0,"server_type":"Dedicated","server_os":"Linux","password":true,"vac":true,"version":"7757534","steam_id":85568392924742827,"keywords":["nocrits","nodmgspread","payload","uncletopia"],"game_id":440,"stv_port":27076,"stv_name":"Uncletopia | Frankfurt | 7 | Stopwatch Beta | STV","players":null},{"server_id":24,"name":"Uncletopia | Frankfurt | 8 | Community","name_short":"frk-8","host":"frk-1.de.uncletopia.com","port":27085,"enabled":true,"region":"eu","cc":"de","latitude":50.110924,"longitude":8.682127,"reserved":0,"last_update":"0001-01-01T00:00:00Z","name_a2s":"Uncletopia | Frankfurt | 8 | Community","protocol":17,"map":"pl_badwater","folder":"tf","game":"Team Fortress","app_id":440,"player_count":0,"max_players":24,"Bots":0,"server_type":"Dedicated","server_os":"Linux","password":true,"vac":true,"version":"7757534","steam_id":85568392924742828,"keywords":["nocrits","nodmgspread","payload","uncletopia"],"game_id":440,"stv_port":27086,"stv_name":"Uncletopia | Frankfurt | 8 | Community | STV","players":null},{"server_id":202,"name":"Uncletopia | Hong Kong | 1 | All Maps","name_short":"hgk-1","host":"hgk-1.hk.uncletopia.com","port":27015,"enabled":true,"region":"asia","cc":"hk","latitude":22.302711,"longitude":114.177216,"reserved":0,"last_update":"0001-01-01T00:00:00Z","name_a2s":"Uncletopia | Hong Kong | 1 | All Maps","protocol":17,"map":"pl_badwater","folder":"tf","game":"Team Fortress","app_id":440,"player_count":24,"max_players":24,"Bots":0,"server_type":"Dedicated","server_os":"Linux","password":true,"vac":true,"version":"7757534","steam_id":85568392924494504,"keywords":["nocrits","nodmgspread","payload","uncletopia"],"game_id":440,"stv_port":27016,"stv_name":"Uncletopia | Hong Kong | 1 | All Maps | STV","players":[{"user_id":192,"name":"greeny","steam_id":76561198024666371,"connected_time":939000000000,"state":"active","ping":89},{"user_id":193,"name":"MR. BUTTER","steam_id":76561198329902657,"connected_time":937000000000,"state":"active","ping":106},{"user_id":195,"name":"Dobby","steam_id":76561198076823643,"connected_time":642000000000,"state":"active","ping":88},{"user_id":184,"name":"sterzun","steam_id":76561198300004922,"connected_time":1563000000000,"state":"active","ping":114},{"user_id":200,"name":"Dude Time","steam_id":76561198092991160,"connected_time":66000000000,"state":"active","ping":168},{"user_id":197,"name":"chaechae","steam_id":76561198240627872,"connected_time":343000000000,"state":"active","ping":50},{"user_id":187,"name":"Teampangit","steam_id":76561198087774626,"connected_time":1381000000000,"state":"active","ping":136},{"user_id":166,"name":"Phou","steam_id":76561198322136756,"connected_time":2917000000000,"state":"active","ping":90},{"user_id":132,"name":"Pillboi","steam_id":76561198011172886,"connected_time":5145000000000,"state":"active","ping":42},{"user_id":194,"name":"uptriste","steam_id":76561198158666692,"connected_time":910000000000,"state":"active","ping":34},{"user_id":79,"name":"煙海 | Enkai","steam_id":76561198050460825,"connected_time":8083000000000,"state":"active","ping":76},{"user_id":190,"name":"malas solat","steam_id":76561198154470283,"connected_time":1131000000000,"state":"active","ping":81},{"user_id":151,"name":"Shinobimono","steam_id":76561198343322788,"connected_time":3579000000000,"state":"active","ping":130},{"user_id":153,"name":"CHEESE","steam_id":76561198013197822,"connected_time":3425000000000,"state":"active","ping":71},{"user_id":106,"name":"ironhelmet8","steam_id":76561198354900426,"connected_time":5990000000000,"state":"active","ping":78},{"user_id":183,"name":"母の肉団子@hao123.com","steam_id":76561198069561896,"connected_time":1743000000000,"state":"active","ping":42},{"user_id":179,"name":"Topaz","steam_id":76561198097350308,"connected_time":2188000000000,"state":"active","ping":86},{"user_id":169,"name":"Sir Stupido","steam_id":76561199174449723,"connected_time":2629000000000,"state":"active","ping":112},{"user_id":182,"name":"Mabok","steam_id":76561198010249658,"connected_time":1806000000000,"state":"active","ping":90},{"user_id":199,"name":"tortiglioni","steam_id":76561199131857098,"connected_time":143000000000,"state":"active","ping":71},{"user_id":170,"name":"an idiot","steam_id":76561199245124028,"connected_time":2616000000000,"state":"active","ping":112},{"user_id":176,"name":"Vesha","steam_id":76561199208233146,"connected_time":2366000000000,"state":"active","ping":86},{"user_id":181,"name":"Telekhine","steam_id":76561198387120618,"connected_time":2070000000000,"state":"active","ping":57},{"user_id":196,"name":"ChlonieCalva","steam_id":76561199055740510,"connected_time":618000000000,"state":"active","ping":84}]},{"server_id":1,"name":"Uncletopia | Los Angeles | 1 | All Maps","name_short":"lax-1","host":"lax-1.us.uncletopia.com","port":27015,"enabled":true,"region":"us-west","cc":"us","latitude":33.94279,"longitude":-118.41004,"reserved":0,"last_update":"0001-01-01T00:00:00Z","name_a2s":"Uncletopia | Los Angeles | 1 | All Maps","protocol":17,"map":"pl_thundermountain","folder":"tf","game":"Team Fortress","app_id":440,"player_count":21,"max_players":24,"Bots":0,"server_type":"Dedicated","server_os":"Linux","password":true,"vac":true,"version":"7757534","steam_id":85568392924469991,"keywords":["nocrits","nodmgspread","payload","uncletopia"],"game_id":440,"stv_port":27016,"stv_name":"Uncletopia | Los Angeles | 1 | All Maps | STV","players":[{"user_id":489,"name":"Amogous Supreme","steam_id":76561198025476774,"connected_time":2434000000000,"state":"active","ping":63},{"user_id":529,"name":"Rakk","steam_id":76561198855176174,"connected_time":51000000000,"state":"connecting","ping":0},{"user_id":506,"name":"Jhon Xina","steam_id":76561198411174051,"connected_time":1316000000000,"state":"active","ping":85},{"user_id":505,"name":"greens beans","steam_id":76561198153611491,"connected_time":1330000000000,"state":"active","ping":68},{"user_id":497,"name":"lol","steam_id":76561198026491738,"connected_time":2168000000000,"state":"active","ping":60},{"user_id":511,"name":"evan_is_sauce","steam_id":76561199086802383,"connected_time":1063000000000,"state":"active","ping":112},{"user_id":526,"name":"epic stlye","steam_id":76561198082971363,"connected_time":188000000000,"state":"active","ping":95},{"user_id":466,"name":"Proskills50","steam_id":76561198986181888,"connected_time":4469000000000,"state":"active","ping":57},{"user_id":513,"name":"Sheev Palpatine","steam_id":76561198252332430,"connected_time":1032000000000,"state":"active","ping":99},{"user_id":520,"name":"jesus christ","steam_id":76561198315825042,"connected_time":623000000000,"state":"active","ping":64},{"user_id":522,"name":"BucketofIce","steam_id":76561199108563726,"connected_time":494000000000,"state":"active","ping":55},{"user_id":418,"name":"hotdog every meal","steam_id":76561198392514273,"connected_time":8786000000000,"state":"active","ping":76},{"user_id":530,"name":"Excalibrine","steam_id":76561198129312118,"connected_time":29000000000,"state":"active","ping":65},{"user_id":519,"name":"bingo bango","steam_id":76561198068933412,"connected_time":718000000000,"state":"active","ping":76},{"user_id":452,"name":"Tetra","steam_id":76561198012329955,"connected_time":5623000000000,"state":"active","ping":86},{"user_id":496,"name":"Seanspeciale","steam_id":76561198091831966,"connected_time":2268000000000,"state":"active","ping":88},{"user_id":512,"name":"zam","steam_id":76561199010236650,"connected_time":1052000000000,"state":"active","ping":113},{"user_id":527,"name":"I like sour dough","steam_id":76561198408595791,"connected_time":182000000000,"state":"active","ping":94},{"user_id":528,"name":"Kiwimpediment","steam_id":76561198322781400,"connected_time":149000000000,"state":"active","ping":133},{"user_id":514,"name":"moe","steam_id":76561198929586245,"connected_time":1015000000000,"state":"active","ping":44},{"user_id":516,"name":"you got games on your phone?","steam_id":76561198981135699,"connected_time":998000000000,"state":"active","ping":114}]},{"server_id":112,"name":"Uncletopia | Los Angeles | 2 | All Maps","name_short":"lax-2","host":"lax-1.us.uncletopia.com","port":27025,"enabled":true,"region":"us-west","cc":"us","latitude":33.94279,"longitude":-118.41004,"reserved":0,"last_update":"0001-01-01T00:00:00Z","name_a2s":"Uncletopia | Los Angeles | 2 | All Maps","protocol":17,"map":"koth_harvest_final","folder":"tf","game":"Team Fortress","app_id":440,"player_count":24,"max_players":24,"Bots":0,"server_type":"Dedicated","server_os":"Linux","password":true,"vac":true,"version":"7757534","steam_id":85568392924469992,"keywords":["cp","nocrits","nodmgspread","uncletopia"],"game_id":440,"stv_port":27026,"stv_name":"Uncletopia | Los Angeles | 2 | All Maps | STV","players":[{"user_id":464,"name":"Bring Inside Job Back","steam_id":76561198033885983,"connected_time":1327000000000,"state":"active","ping":59},{"user_id":470,"name":"SpinnerSpecial","steam_id":76561198065661869,"connected_time":210000000000,"state":"active","ping":105},{"user_id":394,"name":"Wenlost","steam_id":76561198292026612,"connected_time":7221000000000,"state":"active","ping":58},{"user_id":467,"name":"choi","steam_id":76561198053669887,"connected_time":1240000000000,"state":"active","ping":57},{"user_id":436,"name":"Bomb Squirtle™","steam_id":76561197998931145,"connected_time":4062000000000,"state":"active","ping":129},{"user_id":456,"name":"ol' b","steam_id":76561198088759047,"connected_time":2118000000000,"state":"active","ping":64},{"user_id":431,"name":"jrmadmallard","steam_id":76561198275994616,"connected_time":4959000000000,"state":"active","ping":89},{"user_id":452,"name":"Maid 'n' China","steam_id":76561198423392976,"connected_time":2700000000000,"state":"active","ping":57},{"user_id":455,"name":"Drake from State Farm","steam_id":76561199069029812,"connected_time":2408000000000,"state":"active","ping":83},{"user_id":434,"name":"Tintin's Hair","steam_id":76561198049006007,"connected_time":4451000000000,"state":"active","ping":59},{"user_id":447,"name":"Chalupa Jones","steam_id":76561198335855588,"connected_time":2964000000000,"state":"active","ping":45},{"user_id":435,"name":"IMPACT!","steam_id":76561198131458027,"connected_time":4327000000000,"state":"active","ping":118},{"user_id":381,"name":"Soap Man","steam_id":76561198000490235,"connected_time":8534000000000,"state":"active","ping":101},{"user_id":373,"name":"nothowon","steam_id":76561198937601452,"connected_time":8998000000000,"state":"active","ping":113},{"user_id":424,"name":"Quacc???","steam_id":76561198844428250,"connected_time":5190000000000,"state":"active","ping":85},{"user_id":441,"name":"The Arm","steam_id":76561197983066285,"connected_time":3336000000000,"state":"active","ping":72},{"user_id":462,"name":"ApplesMate","steam_id":76561198832763278,"connected_time":1575000000000,"state":"active","ping":46},{"user_id":425,"name":"Sxotty_","steam_id":76561198873820457,"connected_time":5189000000000,"state":"active","ping":86},{"user_id":468,"name":"Kraftlos","steam_id":76561198074350350,"connected_time":1196000000000,"state":"active","ping":116},{"user_id":442,"name":"HeroOfTime","steam_id":76561199096218001,"connected_time":3301000000000,"state":"active","ping":56},{"user_id":469,"name":"PinguEnjoyer6","steam_id":76561199186723516,"connected_time":481000000000,"state":"active","ping":46},{"user_id":465,"name":"Monky duh luppy","steam_id":76561198035410427,"connected_time":1326000000000,"state":"active","ping":54},{"user_id":457,"name":"Andreshatesmondays","steam_id":76561198889349797,"connected_time":2000000000000,"state":"active","ping":52},{"user_id":454,"name":"Satori Komeiji","steam_id":76561198158211423,"connected_time":2462000000000,"state":"active","ping":44}]},{"server_id":324,"name":"Uncletopia | Los Angeles | 3 | All Maps","name_short":"lax-3","host":"lax-1.us.uncletopia.com","port":27035,"enabled":true,"region":"us-west","cc":"us","latitude":33.94279,"longitude":-118.41004,"reserved":0,"last_update":"0001-01-01T00:00:00Z","name_a2s":"Uncletopia | Los Angeles | 3 | All Maps","protocol":17,"map":"pl_frontier_final","folder":"tf","game":"Team Fortress","app_id":440,"player_count":24,"max_players":24,"Bots":0,"server_type":"Dedicated","server_os":"Linux","password":true,"vac":true,"version":"7757534","steam_id":85568392924510198,"keywords":["nocrits","nodmgspread","payload","uncletopia"],"game_id":440,"stv_port":27036,"stv_name":"Uncletopia | Los Angeles | 3 | All Maps | STV","players":[{"user_id":463,"name":"Lilac","steam_id":76561198977523626,"connected_time":450000000000,"state":"active","ping":64},{"user_id":451,"name":"Thequirka","steam_id":76561198968058652,"connected_time":701000000000,"state":"active","ping":79},{"user_id":452,"name":"El Monte","steam_id":76561198263562991,"connected_time":638000000000,"state":"active","ping":70},{"user_id":409,"name":"El Gato Paranoico","steam_id":76561198116567116,"connected_time":3324000000000,"state":"active","ping":89},{"user_id":437,"name":"Fajita Master","steam_id":76561198329150962,"connected_time":1504000000000,"state":"active","ping":106},{"user_id":453,"name":"Florida man","steam_id":76561198074743971,"connected_time":627000000000,"state":"active","ping":106},{"user_id":443,"name":"Daddy Topps","steam_id":76561198203594332,"connected_time":1010000000000,"state":"active","ping":76},{"user_id":447,"name":"MissMatches_                   ","steam_id":76561198048925904,"connected_time":872000000000,"state":"active","ping":59},{"user_id":448,"name":"honked off the bobo","steam_id":76561198123287268,"connected_time":865000000000,"state":"active","ping":105},{"user_id":454,"name":"check hims pc","steam_id":76561198027052378,"connected_time":624000000000,"state":"active","ping":106},{"user_id":455,"name":"Iron Argus","steam_id":76561198181088245,"connected_time":621000000000,"state":"active","ping":139},{"user_id":456,"name":"-r","steam_id":76561198089649422,"connected_time":587000000000,"state":"active","ping":51},{"user_id":467,"name":"Van Tastic","steam_id":76561198063855523,"connected_time":233000000000,"state":"active","ping":70},{"user_id":461,"name":"craxyt","steam_id":76561198050192689,"connected_time":501000000000,"state":"active","ping":51},{"user_id":458,"name":"Chicken.SRT","steam_id":76561198282147927,"connected_time":577000000000,"state":"active","ping":117},{"user_id":459,"name":"Vertron47","steam_id":76561198835606342,"connected_time":555000000000,"state":"active","ping":114},{"user_id":460,"name":"YHH face","steam_id":76561198035629877,"connected_time":529000000000,"state":"active","ping":90},{"user_id":464,"name":"TheLuckyPear","steam_id":76561198125501490,"connected_time":363000000000,"state":"active","ping":44},{"user_id":428,"name":"frappe444","steam_id":76561199032973937,"connected_time":2274000000000,"state":"active","ping":67},{"user_id":465,"name":"alex bird","steam_id":76561198360719932,"connected_time":337000000000,"state":"active","ping":55},{"user_id":429,"name":"Fi \u003c3","steam_id":76561198315348942,"connected_time":2256000000000,"state":"active","ping":79},{"user_id":466,"name":"Platino","steam_id":76561198410957728,"connected_time":269000000000,"state":"active","ping":97},{"user_id":468,"name":"DaBeatGoOff?","steam_id":76561198106507400,"connected_time":171000000000,"state":"active","ping":53},{"user_id":430,"name":"Makali","steam_id":76561198839601234,"connected_time":2244000000000,"state":"active","ping":57}]},{"server_id":25,"name":"Uncletopia | Los Angeles | 4 | Stopwatch Beta","name_short":"lax-4","host":"lax-1.us.uncletopia.com","port":27045,"enabled":true,"region":"us-west","cc":"us","latitude":33.94279,"longitude":-118.41004,"reserved":0,"last_update":"0001-01-01T00:00:00Z","name_a2s":"Uncletopia | Los Angeles | 4 | Stopwatch Beta","protocol":17,"map":"pl_frontier_final","folder":"tf","game":"Team Fortress","app_id":440,"player_count":0,"max_players":24,"Bots":0,"server_type":"Dedicated","server_os":"Linux","password":true,"vac":true,"version":"7757534","steam_id":85568392924510199,"keywords":["nocrits","nodmgspread","payload","uncletopia"],"game_id":440,"stv_port":27046,"stv_name":"Uncletopia | Los Angeles | 4 | Stopwatch Beta | STV","players":null},{"server_id":11,"name":"Uncletopia | London | 1 | All Maps","name_short":"lon-1","host":"lon-1.uk.uncletopia.com","port":27015,"enabled":true,"region":"eu","cc":"gb","latitude":51.509865,"longitude":-0.118092,"reserved":0,"last_update":"0001-01-01T00:00:00Z","name_a2s":"Uncletopia | London | 1 | All Maps","protocol":17,"map":"koth_viaduct","folder":"tf","game":"Team Fortress","app_id":440,"player_count":0,"max_players":24,"Bots":0,"server_type":"Dedicated","server_os":"Linux","password":true,"vac":true,"version":"7757534","steam_id":85568392924367362,"keywords":["cp","nocrits","nodmgspread","uncletopia"],"game_id":440,"stv_port":27016,"stv_name":"Uncletopia | London | 1 | All Maps | STV","players":null},{"server_id":114,"name":"Uncletopia | London | 2 | All Maps","name_short":"lon-2","host":"lon-1.uk.uncletopia.com","port":27025,"enabled":true,"region":"eu","cc":"gb","latitude":51.509865,"longitude":-0.118092,"reserved":0,"last_update":"0001-01-01T00:00:00Z","name_a2s":"Uncletopia | London | 2 | All Maps","protocol":17,"map":"cp_dustbowl","folder":"tf","game":"Team Fortress","app_id":440,"player_count":0,"max_players":24,"Bots":0,"server_type":"Dedicated","server_os":"Linux","password":true,"vac":true,"version":"7757534","steam_id":85568392924470941,"keywords":["cp","nocrits","nodmgspread","uncletopia"],"game_id":440,"stv_port":27026,"stv_name":"Uncletopia | London | 2 | All Maps | STV","players":null},{"server_id":320,"name":"Uncletopia | London | 3 | All Maps","name_short":"lon-3","host":"lon-1.uk.uncletopia.com","port":27035,"enabled":true,"region":"eu","cc":"gb","latitude":51.509865,"longitude":-0.118092,"reserved":0,"last_update":"0001-01-01T00:00:00Z","name_a2s":"Uncletopia | London | 3 | All Maps","protocol":17,"map":"pl_badwater","folder":"tf","game":"Team Fortress","app_id":440,"player_count":0,"max_players":24,"Bots":0,"server_type":"Dedicated","server_os":"Linux","password":true,"vac":true,"version":"7757534","steam_id":85568392924510192,"keywords":["nocrits","nodmgspread","payload","uncletopia"],"game_id":440,"stv_port":27036,"stv_name":"Uncletopia | London | 3 | All Maps | STV","players":null},{"server_id":321,"name":"Uncletopia | London | 4 | All Maps","name_short":"lon-4","host":"lon-1.uk.uncletopia.com","port":27045,"enabled":true,"region":"eu","cc":"gb","latitude":51.509865,"longitude":-0.118092,"reserved":0,"last_update":"0001-01-01T00:00:00Z","name_a2s":"Uncletopia | London | 4 | All Maps","protocol":17,"map":"koth_viaduct","folder":"tf","game":"Team Fortress","app_id":440,"player_count":0,"max_players":24,"Bots":0,"server_type":"Dedicated","server_os":"Linux","password":true,"vac":true,"version":"7757534","steam_id":85568392924510193,"keywords":["cp","nocrits","nodmgspread","uncletopia"],"game_id":440,"stv_port":27046,"stv_name":"Uncletopia | London | 4 | All Maps | STV","players":null},{"server_id":21,"name":"Uncletopia | London | 5 | All Maps","name_short":"lon-5","host":"lon-1.uk.uncletopia.com","port":27055,"enabled":true,"region":"eu","cc":"gb","latitude":51.509865,"longitude":-0.118092,"reserved":0,"last_update":"0001-01-01T00:00:00Z","name_a2s":"Uncletopia | London | 5 | All Maps","protocol":17,"map":"cp_snakewater_final1","folder":"tf","game":"Team Fortress","app_id":440,"player_count":0,"max_players":24,"Bots":0,"server_type":"Dedicated","server_os":"Linux","password":true,"vac":true,"version":"7757534","steam_id":85568392924742829,"keywords":["cp","nocrits","nodmgspread","uncletopia"],"game_id":440,"stv_port":27056,"stv_name":"Uncletopia | London | 5 | All Maps | STV","players":null},{"server_id":22,"name":"Uncletopia | London | 6 | All Maps","name_short":"lon-6","host":"lon-1.uk.uncletopia.com","port":27065,"enabled":true,"region":"eu","cc":"gb","latitude":51.509865,"longitude":-0.118092,"reserved":0,"last_update":"0001-01-01T00:00:00Z","name_a2s":"Uncletopia | London | 6 | All Maps","protocol":17,"map":"koth_cascade","folder":"tf","game":"Team Fortress","app_id":440,"player_count":0,"max_players":24,"Bots":0,"server_type":"Dedicated","server_os":"Linux","password":true,"vac":true,"version":"7757534","steam_id":85568392924742830,"keywords":["cp","nocrits","nodmgspread","uncletopia"],"game_id":440,"stv_port":27066,"stv_name":"Uncletopia | London | 6 | All Maps | STV","players":null},{"server_id":40,"name":"Uncletopia | London | 7 | No Payload","name_short":"lon-7","host":"lon-1.uk.uncletopia.com","port":27075,"enabled":true,"region":"eu","cc":"gb","latitude":51.509865,"longitude":-0.118092,"reserved":0,"last_update":"0001-01-01T00:00:00Z","name_a2s":"Uncletopia | London | 7 | No Payload","protocol":17,"map":"cp_process_final","folder":"tf","game":"Team Fortress","app_id":440,"player_count":0,"max_players":24,"Bots":0,"server_type":"Dedicated","server_os":"Linux","password":true,"vac":true,"version":"7757534","steam_id":85568392924964314,"keywords":["cp","nocrits","nodmgspread","uncletopia"],"game_id":440,"stv_port":27076,"stv_name":"Uncletopia | London | 7 | No Payload | STV","players":null},{"server_id":41,"name":"Uncletopia | London | 8 | Community","name_short":"lon-8","host":"lon-1.uk.uncletopia.com","port":27085,"enabled":true,"region":"eu","cc":"gb","latitude":51.509865,"longitude":-0.118092,"reserved":0,"last_update":"0001-01-01T00:00:00Z","name_a2s":"Uncletopia | London | 8 | Community","protocol":17,"map":"pl_upward","folder":"tf","game":"Team Fortress","app_id":440,"player_count":0,"max_players":24,"Bots":0,"server_type":"Dedicated","server_os":"Linux","password":true,"vac":true,"version":"7757534","steam_id":85568392924964315,"keywords":["nocrits","nodmgspread","payload","uncletopia"],"game_id":440,"stv_port":27086,"stv_name":"Uncletopia | London | 8 | Community | STV","players":null},{"server_id":300,"name":"Uncletopia | Montréal | 1 | All Maps","name_short":"mtl-1","host":"mtl-1.ca.uncletopia.com","port":27015,"enabled":true,"region":"us-east","cc":"ca","latitude":45.50889,"longitude":-73.56167,"reserved":0,"last_update":"0001-01-01T00:00:00Z","name_a2s":"Uncletopia | Montréal | 1 | All Maps","protocol":17,"map":"koth_lakeside_final","folder":"tf","game":"Team Fortress","app_id":440,"player_count":0,"max_players":24,"Bots":0,"server_type":"Dedicated","server_os":"Linux","password":true,"vac":true,"version":"7757534","steam_id":85568392924500087,"keywords":["cp","nocrits","nodmgspread","uncletopia"],"game_id":440,"stv_port":27016,"stv_name":"Uncletopia | Montréal | 1 | All Maps | STV","players":null},{"server_id":301,"name":"Uncletopia | Montréal | 2 | All Maps","name_short":"mtl-2","host":"mtl-1.ca.uncletopia.com","port":27025,"enabled":true,"region":"us-east","cc":"ca","latitude":45.50889,"longitude":-73.56167,"reserved":0,"last_update":"0001-01-01T00:00:00Z","name_a2s":"Uncletopia | Montréal | 2 | All Maps","protocol":17,"map":"koth_cascade","folder":"tf","game":"Team Fortress","app_id":440,"player_count":3,"max_players":24,"Bots":0,"server_type":"Dedicated","server_os":"Linux","password":true,"vac":true,"version":"7757534","steam_id":85568392924500088,"keywords":["cp","nocrits","nodmgspread","uncletopia"],"game_id":440,"stv_port":27026,"stv_name":"Uncletopia | Montréal | 2 | All Maps | STV","players":[{"user_id":6,"name":"Miami","steam_id":76561198316753540,"connected_time":868000000000,"state":"active","ping":64},{"user_id":26,"name":"itsgearfear","steam_id":76561198801849281,"connected_time":111000000000,"state":"spawning","ping":0},{"user_id":8,"name":"uperlip","steam_id":76561199027475297,"connected_time":863000000000,"state":"active","ping":95}]},{"server_id":302,"name":"Uncletopia | Montréal | 3 | All Maps","name_short":"mtl-3","host":"mtl-1.ca.uncletopia.com","port":27035,"enabled":true,"region":"us-east","cc":"ca","latitude":45.50889,"longitude":-73.56167,"reserved":0,"last_update":"0001-01-01T00:00:00Z","name_a2s":"Uncletopia | Montréal | 3 | All Maps","protocol":17,"map":"cp_dustbowl","folder":"tf","game":"Team Fortress","app_id":440,"player_count":3,"max_players":24,"Bots":0,"server_type":"Dedicated","server_os":"Linux","password":true,"vac":true,"version":"7757534","steam_id":85568392924500089,"keywords":["cp","nocrits","nodmgspread","uncletopia"],"game_id":440,"stv_port":27036,"stv_name":"Uncletopia | Montréal | 3 | All Maps | STV","players":[{"user_id":239,"name":"Werakzz","steam_id":76561199043947806,"connected_time":3868000000000,"state":"active","ping":131},{"user_id":203,"name":"Vibess","steam_id":76561199086964735,"connected_time":6078000000000,"state":"active","ping":66},{"user_id":243,"name":"Yesterday's Grouse's Son","steam_id":76561198259873083,"connected_time":3734000000000,"state":"active","ping":125}]},{"server_id":303,"name":"Uncletopia | Montréal | 4 | No Payload","name_short":"mtl-4","host":"mtl-1.ca.uncletopia.com","port":27045,"enabled":true,"region":"us-east","cc":"ca","latitude":45.50889,"longitude":-73.56167,"reserved":0,"last_update":"0001-01-01T00:00:00Z","name_a2s":"Uncletopia | Montréal | 4 | No Payload","protocol":17,"map":"koth_viaduct","folder":"tf","game":"Team Fortress","app_id":440,"player_count":0,"max_players":24,"Bots":0,"server_type":"Dedicated","server_os":"Linux","password":true,"vac":true,"version":"7757534","steam_id":85568392924500090,"keywords":["cp","nocrits","nodmgspread","uncletopia"],"game_id":440,"stv_port":27046,"stv_name":"Uncletopia | Montréal | 4 | No Payload | STV","players":null},{"server_id":13,"name":"Uncletopia | New York City | 1 | All Maps","name_short":"nyc-1","host":"nyc-1.us.uncletopia.com","port":27015,"enabled":true,"region":"us-east","cc":"us","latitude":40.73061,"longitude":-73.93524,"reserved":0,"last_update":"0001-01-01T00:00:00Z","name_a2s":"Uncletopia | New York City | 1 | All Maps","protocol":17,"map":"pl_pier","folder":"tf","game":"Team Fortress","app_id":440,"player_count":14,"max_players":24,"Bots":0,"server_type":"Dedicated","server_os":"Linux","password":true,"vac":true,"version":"7757534","steam_id":85568392924469993,"keywords":["nocrits","nodmgspread","payload","uncletopia"],"game_id":440,"stv_port":27016,"stv_name":"Uncletopia | New York City | 1 | All Maps | STV","players":[{"user_id":691,"name":"Lawtumn","steam_id":76561198347286009,"connected_time":2930000000000,"state":"active","ping":54},{"user_id":715,"name":"obamo","steam_id":76561199192686708,"connected_time":157000000000,"state":"active","ping":109},{"user_id":710,"name":"Gandalf Gaming","steam_id":76561198368151490,"connected_time":507000000000,"state":"active","ping":58},{"user_id":692,"name":"ndvr","steam_id":76561199379200102,"connected_time":2847000000000,"state":"active","ping":50},{"user_id":716,"name":"pretty lady :3","steam_id":76561198337705174,"connected_time":98000000000,"state":"active","ping":77},{"user_id":711,"name":"Jazz Hands","steam_id":76561199225708271,"connected_time":484000000000,"state":"active","ping":118},{"user_id":714,"name":"pine","steam_id":76561198156891654,"connected_time":296000000000,"state":"active","ping":55},{"user_id":713,"name":"Lane4765but","steam_id":76561199015073229,"connected_time":390000000000,"state":"active","ping":141},{"user_id":694,"name":"Bart Harley Jarvis","steam_id":76561199215811448,"connected_time":2523000000000,"state":"active","ping":66},{"user_id":646,"name":"BONZ","steam_id":76561199445629071,"connected_time":6373000000000,"state":"active","ping":56},{"user_id":675,"name":"Rythmiki","steam_id":76561198398952454,"connected_time":4111000000000,"state":"active","ping":43},{"user_id":652,"name":"groond","steam_id":76561198309426720,"connected_time":5900000000000,"state":"active","ping":63},{"user_id":695,"name":"scooterre","steam_id":76561198055068182,"connected_time":2061000000000,"state":"active","ping":78},{"user_id":712,"name":"ciliorkun18","steam_id":76561198228942500,"connected_time":483000000000,"state":"active","ping":162}]},{"server_id":14,"name":"Uncletopia | New York City | 2 | All Maps","name_short":"nyc-2","host":"nyc-1.us.uncletopia.com","port":27025,"enabled":true,"region":"us-east","cc":"us","latitude":40.73061,"longitude":-73.93524,"reserved":0,"last_update":"0001-01-01T00:00:00Z","name_a2s":"Uncletopia | New York City | 2 | All Maps","protocol":17,"map":"pl_badwater","folder":"tf","game":"Team Fortress","app_id":440,"player_count":24,"max_players":24,"Bots":0,"server_type":"Dedicated","server_os":"Linux","password":true,"vac":true,"version":"7757534","steam_id":85568392924469994,"keywords":["nocrits","nodmgspread","payload","uncletopia"],"game_id":440,"stv_port":27026,"stv_name":"Uncletopia | New York City | 2 | All Maps | STV","players":[{"user_id":543,"name":"The Demented Dr. Pussy","steam_id":76561198047557533,"connected_time":1335000000000,"state":"active","ping":58},{"user_id":535,"name":"Vaude","steam_id":76561198369187511,"connected_time":2508000000000,"state":"active","ping":56},{"user_id":546,"name":"zrsp1","steam_id":76561199030845505,"connected_time":487000000000,"state":"active","ping":55},{"user_id":547,"name":"The Notorious P.U.E.R.","steam_id":76561198046715542,"connected_time":481000000000,"state":"active","ping":56},{"user_id":545,"name":"old slimey ichabod","steam_id":76561198043900518,"connected_time":569000000000,"state":"active","ping":60},{"user_id":538,"name":"Howoriginal","steam_id":76561197993701184,"connected_time":2417000000000,"state":"active","ping":32},{"user_id":541,"name":"Little King Trash Mouth","steam_id":76561198241162728,"connected_time":2156000000000,"state":"active","ping":47},{"user_id":540,"name":"Alphadin.EXE -Tamamo","steam_id":76561198010005351,"connected_time":2325000000000,"state":"active","ping":77},{"user_id":527,"name":"Tay1Qr","steam_id":76561198082809935,"connected_time":4117000000000,"state":"active","ping":48},{"user_id":549,"name":"Just Business","steam_id":76561198106600085,"connected_time":365000000000,"state":"active","ping":48},{"user_id":473,"name":"Landjrin","steam_id":76561198415410003,"connected_time":7454000000000,"state":"active","ping":120},{"user_id":548,"name":"Revenge of the Jews in 3D","steam_id":76561199381623663,"connected_time":476000000000,"state":"active","ping":172},{"user_id":550,"name":"ASingleCrow","steam_id":76561199050104793,"connected_time":331000000000,"state":"active","ping":93},{"user_id":510,"name":"Monkey","steam_id":76561198031015186,"connected_time":5276000000000,"state":"active","ping":56},{"user_id":457,"name":"Best_Garbage","steam_id":76561199070436446,"connected_time":8037000000000,"state":"active","ping":69},{"user_id":552,"name":"GoreDem","steam_id":76561198412725620,"connected_time":193000000000,"state":"active","ping":137},{"user_id":539,"name":"Birdhorse Of Course","steam_id":76561198038997485,"connected_time":2408000000000,"state":"active","ping":50},{"user_id":551,"name":"The Sauce Boss","steam_id":76561198056556496,"connected_time":286000000000,"state":"active","ping":120},{"user_id":511,"name":"Hydroxianchaos","steam_id":76561198043786828,"connected_time":5138000000000,"state":"active","ping":67},{"user_id":512,"name":"Mr. Sandman","steam_id":76561198316206249,"connected_time":5051000000000,"state":"active","ping":89},{"user_id":477,"name":"DiscoTraveler","steam_id":76561199240168088,"connected_time":7335000000000,"state":"active","ping":48},{"user_id":553,"name":"Hifumi Togo","steam_id":76561198074930636,"connected_time":188000000000,"state":"active","ping":72},{"user_id":556,"name":"flappyflap2","steam_id":76561198285048973,"connected_time":22000000000,"state":"active","ping":51},{"user_id":555,"name":"StinkFist RotOff","steam_id":76561198079102999,"connected_time":174000000000,"state":"active","ping":83}]},{"server_id":15,"name":"Uncletopia | New York City | 3 | Stopwatch Beta","name_short":"nyc-3","host":"nyc-1.us.uncletopia.com","port":27035,"enabled":true,"region":"us-east","cc":"us","latitude":40.73061,"longitude":-73.93524,"reserved":0,"last_update":"0001-01-01T00:00:00Z","name_a2s":"Uncletopia | New York City | 3 | Stopwatch Beta","protocol":17,"map":"workshop/koth_ramjam_rc1.ugc459778887","folder":"tf","game":"Team Fortress","app_id":440,"player_count":0,"max_players":24,"Bots":0,"server_type":"Dedicated","server_os":"Linux","password":true,"vac":true,"version":"7757534","steam_id":85568392924742820,"keywords":["cp","nocrits","nodmgspread","uncletopia"],"game_id":440,"stv_port":27036,"stv_name":"Uncletopia | New York City | 3 | Stopwatch Beta | STV","players":null},{"server_id":16,"name":"Uncletopia | New York City | 4 | Community","name_short":"nyc-4","host":"nyc-1.us.uncletopia.com","port":27045,"enabled":true,"region":"us-east","cc":"us","latitude":40.73061,"longitude":-73.93524,"reserved":0,"last_update":"0001-01-01T00:00:00Z","name_a2s":"Uncletopia | New York City | 4 | Community","protocol":17,"map":"workshop/pl_divulgence_b4b.ugc2884808746","folder":"tf","game":"Team Fortress","app_id":440,"player_count":0,"max_players":24,"Bots":0,"server_type":"Dedicated","server_os":"Linux","password":true,"vac":true,"version":"7757534","steam_id":85568392924742821,"keywords":["nocrits","nodmgspread","payload","uncletopia"],"game_id":440,"stv_port":27046,"stv_name":"Uncletopia | New York City | 4 | Community | STV","players":null},{"server_id":142,"name":"Uncletopia | São Paulo | 1 | All Maps","name_short":"sao-1","host":"sao-1.br.uncletopia.com","port":27015,"enabled":true,"region":"sa","cc":"br","latitude":-23.533773,"longitude":-46.62529,"reserved":0,"last_update":"0001-01-01T00:00:00Z","name_a2s":"Uncletopia | São Paulo | 1 | All Maps","protocol":17,"map":"koth_viaduct","folder":"tf","game":"Team Fortress","app_id":440,"player_count":0,"max_players":24,"Bots":0,"server_type":"Dedicated","server_os":"Linux","password":true,"vac":true,"version":"7757534","steam_id":85568392924469996,"keywords":["cp","nocrits","nodmgspread","uncletopia"],"game_id":440,"stv_port":27016,"stv_name":"Uncletopia | São Paulo | 1 | All Maps | STV","players":null},{"server_id":143,"name":"Uncletopia | São Paulo | 2 | All Maps","name_short":"sao-2","host":"sao-2.br.uncletopia.com","port":27015,"enabled":true,"region":"sa","cc":"br","latitude":-23.533773,"longitude":-46.62529,"reserved":0,"last_update":"0001-01-01T00:00:00Z","name_a2s":"Uncletopia | São Paulo | 2 | All Maps","protocol":17,"map":"koth_lakeside_final","folder":"tf","game":"Team Fortress","app_id":440,"player_count":0,"max_players":24,"Bots":0,"server_type":"Dedicated","server_os":"Linux","password":true,"vac":true,"version":"7757534","steam_id":85568392924485349,"keywords":["cp","nocrits","nodmgspread","uncletopia"],"game_id":440,"stv_port":27016,"stv_name":"Uncletopia | São Paulo | 2 | All Maps | STV","players":null},{"server_id":7,"name":"Uncletopia | Seattle | 1 | All Maps","name_short":"sea-1","host":"sea-1.us.uncletopia.com","port":27015,"enabled":true,"region":"us-west","cc":"us","latitude":47.608013,"longitude":-122.33517,"reserved":0,"last_update":"0001-01-01T00:00:00Z","name_a2s":"Uncletopia | Seattle | 1 | All Maps","protocol":17,"map":"koth_harvest_final","folder":"tf","game":"Team Fortress","app_id":440,"player_count":24,"max_players":24,"Bots":0,"server_type":"Dedicated","server_os":"Linux","password":true,"vac":true,"version":"7757534","steam_id":85568392924469997,"keywords":["cp","nocrits","nodmgspread","uncletopia"],"game_id":440,"stv_port":27016,"stv_name":"Uncletopia | Seattle | 1 | All Maps | STV","players":[{"user_id":779,"name":"Xenagos","steam_id":76561198045678290,"connected_time":153000000000,"state":"active","ping":59},{"user_id":756,"name":"Strikerbolt","steam_id":76561199095622897,"connected_time":2052000000000,"state":"active","ping":91},{"user_id":765,"name":"Tungsten","steam_id":76561198312854342,"connected_time":868000000000,"state":"active","ping":63},{"user_id":773,"name":"Lime","steam_id":76561198080786408,"connected_time":465000000000,"state":"active","ping":54},{"user_id":722,"name":"Elias","steam_id":76561198031295139,"connected_time":5148000000000,"state":"active","ping":47},{"user_id":757,"name":"Bryce Gobo","steam_id":76561199411560141,"connected_time":1753000000000,"state":"active","ping":46},{"user_id":751,"name":"ikuyo","steam_id":76561198996950205,"connected_time":2627000000000,"state":"active","ping":66},{"user_id":602,"name":"soup","steam_id":76561198043209046,"connected_time":10272000000000,"state":"active","ping":81},{"user_id":764,"name":"brobtlcehc","steam_id":76561198043558709,"connected_time":880000000000,"state":"active","ping":45},{"user_id":717,"name":"Arsonist Goose","steam_id":76561198147441830,"connected_time":5199000000000,"state":"active","ping":74},{"user_id":715,"name":"[TrC] Dackstrus","steam_id":76561197973518509,"connected_time":5258000000000,"state":"active","ping":59},{"user_id":777,"name":"Thanks Ants","steam_id":76561197966221018,"connected_time":217000000000,"state":"active","ping":56},{"user_id":760,"name":"rorywashere /ᐠ - ˕ -マ Ⳋ","steam_id":76561198065825165,"connected_time":1727000000000,"state":"active","ping":116},{"user_id":704,"name":"rat gets the cheese","steam_id":76561198031234032,"connected_time":5721000000000,"state":"active","ping":96},{"user_id":775,"name":"Aldos","steam_id":76561198210968752,"connected_time":377000000000,"state":"active","ping":141},{"user_id":724,"name":"[TrC] Nosy","steam_id":76561197978859310,"connected_time":4977000000000,"state":"active","ping":60},{"user_id":727,"name":"KnotsAreUs","steam_id":76561198306522669,"connected_time":4915000000000,"state":"active","ping":82},{"user_id":752,"name":"gorlab","steam_id":76561198025089694,"connected_time":2411000000000,"state":"active","ping":60},{"user_id":766,"name":"Cam(era)","steam_id":76561198285054047,"connected_time":735000000000,"state":"active","ping":74},{"user_id":737,"name":"Robert E.T.","steam_id":76561197986439371,"connected_time":3806000000000,"state":"active","ping":60},{"user_id":761,"name":"squash","steam_id":76561198150281353,"connected_time":1687000000000,"state":"active","ping":57},{"user_id":781,"name":"〣dust〣 -she/her-","steam_id":76561198045218909,"connected_time":116000000000,"state":"active","ping":38},{"user_id":750,"name":"Archimedes!","steam_id":76561199446023933,"connected_time":2669000000000,"state":"active","ping":80},{"user_id":755,"name":"Hassium","steam_id":76561198162541373,"connected_time":2114000000000,"state":"active","ping":58}]},{"server_id":119,"name":"Uncletopia | Seattle | 2 | All Maps","name_short":"sea-2","host":"sea-1.us.uncletopia.com","port":27025,"enabled":true,"region":"us-west","cc":"us","latitude":47.608013,"longitude":-122.33517,"reserved":0,"last_update":"0001-01-01T00:00:00Z","name_a2s":"Uncletopia | Seattle | 2 | All Maps","protocol":17,"map":"pl_badwater","folder":"tf","game":"Team Fortress","app_id":440,"player_count":24,"max_players":24,"Bots":0,"server_type":"Dedicated","server_os":"Linux","password":true,"vac":true,"version":"7757534","steam_id":85568392924469998,"keywords":["nocrits","nodmgspread","payload","uncletopia"],"game_id":440,"stv_port":27026,"stv_name":"Uncletopia | Seattle | 2 | All Maps | STV","players":[{"user_id":641,"name":"Villchip","steam_id":76561198198599982,"connected_time":587000000000,"state":"active","ping":50},{"user_id":624,"name":"Western_spy","steam_id":76561198968587046,"connected_time":1389000000000,"state":"active","ping":75},{"user_id":626,"name":"Camohno","steam_id":76561198283519918,"connected_time":1352000000000,"state":"active","ping":81},{"user_id":628,"name":"breathing meat donut","steam_id":76561198123566649,"connected_time":1236000000000,"state":"active","ping":120},{"user_id":643,"name":"Gary, 40, soul sucking 9-5","steam_id":76561198073812888,"connected_time":346000000000,"state":"active","ping":45},{"user_id":625,"name":"MrGruntington","steam_id":76561198081442888,"connected_time":1379000000000,"state":"active","ping":61},{"user_id":630,"name":"dysfunction.exe","steam_id":76561199034773785,"connected_time":1116000000000,"state":"active","ping":67},{"user_id":637,"name":"reymundo","steam_id":76561197989412830,"connected_time":850000000000,"state":"active","ping":88},{"user_id":585,"name":"Tom Skirrett","steam_id":76561198014600788,"connected_time":5267000000000,"state":"active","ping":70},{"user_id":639,"name":"sly1","steam_id":76561198049014977,"connected_time":695000000000,"state":"active","ping":59},{"user_id":567,"name":"shiftshock01","steam_id":76561199049488870,"connected_time":6310000000000,"state":"active","ping":69},{"user_id":582,"name":"Willy Wonker","steam_id":76561198082944789,"connected_time":5530000000000,"state":"active","ping":81},{"user_id":557,"name":"Moth","steam_id":76561198170253694,"connected_time":7104000000000,"state":"active","ping":66},{"user_id":633,"name":"2 Point Tom","steam_id":76561198087617008,"connected_time":1033000000000,"state":"active","ping":52},{"user_id":619,"name":"fukfuk the friendly dinosaur","steam_id":76561198111878431,"connected_time":1933000000000,"state":"active","ping":70},{"user_id":634,"name":"Megumin Tech Tips","steam_id":76561198375650360,"connected_time":1003000000000,"state":"active","ping":90},{"user_id":613,"name":"Zorlovo","steam_id":76561198006443283,"connected_time":2377000000000,"state":"active","ping":114},{"user_id":621,"name":"Ena","steam_id":76561198066986108,"connected_time":1642000000000,"state":"active","ping":41},{"user_id":597,"name":"goldhed","steam_id":76561198051751133,"connected_time":3991000000000,"state":"active","ping":51},{"user_id":583,"name":"TROY","steam_id":76561197983852176,"connected_time":5485000000000,"state":"active","ping":75},{"user_id":645,"name":"boba tea","steam_id":76561198319442494,"connected_time":138000000000,"state":"active","ping":89},{"user_id":617,"name":"Algibruh","steam_id":76561199221599415,"connected_time":2050000000000,"state":"active","ping":56},{"user_id":638,"name":"Kaluka","steam_id":76561198036861445,"connected_time":741000000000,"state":"active","ping":128},{"user_id":623,"name":"Ghoster","steam_id":76561198329367716,"connected_time":1483000000000,"state":"active","ping":83}]},{"server_id":406,"name":"Uncletopia | Seattle | 3 | Stopwatch Beta","name_short":"sea-3","host":"sea-1.us.uncletopia.com","port":27035,"enabled":true,"region":"us-west","cc":"us","latitude":47.608013,"longitude":-122.33517,"reserved":0,"last_update":"0001-01-01T00:00:00Z","name_a2s":"Uncletopia | Seattle | 3 | Stopwatch Beta","protocol":17,"map":"pl_borneo","folder":"tf","game":"Team Fortress","app_id":440,"player_count":0,"max_players":24,"Bots":0,"server_type":"Dedicated","server_os":"Linux","password":true,"vac":true,"version":"7757534","steam_id":85568392924515217,"keywords":["nocrits","nodmgspread","payload","uncletopia"],"game_id":440,"stv_port":27036,"stv_name":"Uncletopia | Seattle | 3 | Stopwatch Beta | STV","players":null},{"server_id":17,"name":"Uncletopia | San Francisco | 1 | All Maps","name_short":"sfo-1","host":"sfo-1.us.uncletopia.com","port":27015,"enabled":true,"region":"us-west","cc":"us","latitude":37.77397,"longitude":-122.4313,"reserved":0,"last_update":"0001-01-01T00:00:00Z","name_a2s":"Uncletopia | San Francisco | 1 | All Maps","protocol":17,"map":"pl_badwater","folder":"tf","game":"Team Fortress","app_id":440,"player_count":24,"max_players":24,"Bots":0,"server_type":"Dedicated","server_os":"Linux","password":true,"vac":true,"version":"7757534","steam_id":85568392924469999,"keywords":["nocrits","nodmgspread","payload","uncletopia"],"game_id":440,"stv_port":27016,"stv_name":"Uncletopia | San Francisco | 1 | All Maps | STV","players":[{"user_id":452,"name":"mechanicvirus","steam_id":76561198038161480,"connected_time":3199000000000,"state":"active","ping":68},{"user_id":482,"name":"Beeveelution","steam_id":76561198331526301,"connected_time":1193000000000,"state":"active","ping":55},{"user_id":480,"name":"Sleepy Zombie","steam_id":76561197999126875,"connected_time":1297000000000,"state":"active","ping":115},{"user_id":443,"name":"Stapler","steam_id":76561198099295077,"connected_time":3456000000000,"state":"active","ping":45},{"user_id":476,"name":"Some Drunken Bear","steam_id":76561199387415364,"connected_time":1447000000000,"state":"active","ping":75},{"user_id":488,"name":"Fargo","steam_id":76561198044703931,"connected_time":334000000000,"state":"active","ping":79},{"user_id":489,"name":"wzyazrael","steam_id":76561198844221455,"connected_time":318000000000,"state":"active","ping":63},{"user_id":462,"name":"Swag6","steam_id":76561198064110837,"connected_time":2396000000000,"state":"active","ping":45},{"user_id":478,"name":"Spy Sappin My Sentry","steam_id":76561199148191703,"connected_time":1407000000000,"state":"active","ping":78},{"user_id":495,"name":"Troy","steam_id":76561198005572722,"connected_time":61000000000,"state":"active","ping":116},{"user_id":483,"name":"Milotic","steam_id":76561198047995713,"connected_time":1134000000000,"state":"active","ping":78},{"user_id":463,"name":"Swag5","steam_id":76561198065311356,"connected_time":2392000000000,"state":"active","ping":47},{"user_id":474,"name":"Bindox","steam_id":76561198148430891,"connected_time":1610000000000,"state":"active","ping":95},{"user_id":484,"name":"John Wick's puppy","steam_id":76561198064662875,"connected_time":1066000000000,"state":"active","ping":50},{"user_id":419,"name":"the bulldozer","steam_id":76561198800334545,"connected_time":4892000000000,"state":"active","ping":53},{"user_id":485,"name":"Joker's Skull","steam_id":76561199185320627,"connected_time":1046000000000,"state":"active","ping":105},{"user_id":487,"name":"Tweeterhead","steam_id":76561198399117913,"connected_time":543000000000,"state":"active","ping":76},{"user_id":486,"name":"ferby","steam_id":76561198028229594,"connected_time":1033000000000,"state":"active","ping":45},{"user_id":491,"name":"HOG RIDER","steam_id":76561198298589502,"connected_time":254000000000,"state":"active","ping":58},{"user_id":492,"name":"fish","steam_id":76561198194508197,"connected_time":250000000000,"state":"active","ping":69},{"user_id":438,"name":"Markz","steam_id":76561197996278159,"connected_time":3840000000000,"state":"active","ping":69},{"user_id":494,"name":"mmmm","steam_id":76561198041744957,"connected_time":158000000000,"state":"active","ping":62},{"user_id":473,"name":"Are you retarded","steam_id":76561198072364702,"connected_time":1692000000000,"state":"active","ping":120},{"user_id":477,"name":"Candy-Man","steam_id":76561198051702098,"connected_time":1443000000000,"state":"active","ping":67}]},{"server_id":18,"name":"Uncletopia | San Francisco | 2 | All Maps","name_short":"sfo-2","host":"sfo-1.us.uncletopia.com","port":27025,"enabled":true,"region":"us-west","cc":"us","latitude":37.77397,"longitude":-122.4313,"reserved":0,"last_update":"0001-01-01T00:00:00Z","name_a2s":"Uncletopia | San Francisco | 2 | All Maps","protocol":17,"map":"cp_process_final","folder":"tf","game":"Team Fortress","app_id":440,"player_count":0,"max_players":24,"Bots":0,"server_type":"Dedicated","server_os":"Linux","password":true,"vac":true,"version":"7757534","steam_id":85568392924470000,"keywords":["cp","nocrits","nodmgspread","uncletopia"],"game_id":440,"stv_port":27026,"stv_name":"Uncletopia | San Francisco | 2 | All Maps | STV","players":null},{"server_id":19,"name":"Uncletopia | San Francisco | 3 | Stopwatch Beta","name_short":"sfo-3","host":"sfo-1.us.uncletopia.com","port":27035,"enabled":true,"region":"us-west","cc":"us","latitude":37.77397,"longitude":-122.4313,"reserved":0,"last_update":"0001-01-01T00:00:00Z","name_a2s":"Uncletopia | San Francisco | 3 | Stopwatch Beta","protocol":17,"map":"pl_borneo","folder":"tf","game":"Team Fortress","app_id":440,"player_count":0,"max_players":24,"Bots":0,"server_type":"Dedicated","server_os":"Linux","password":true,"vac":true,"version":"7757534","steam_id":85568392924742824,"keywords":["nocrits","nodmgspread","payload","uncletopia"],"game_id":440,"stv_port":27036,"stv_name":"Uncletopia | San Francisco | 3 | Stopwatch Beta | STV","players":null},{"server_id":20,"name":"Uncletopia | San Francisco | 4 | Community","name_short":"sfo-4","host":"sfo-1.us.uncletopia.com","port":27045,"enabled":true,"region":"us-west","cc":"us","latitude":37.77397,"longitude":-122.4313,"reserved":0,"last_update":"0001-01-01T00:00:00Z","name_a2s":"Uncletopia | San Francisco | 4 | Community","protocol":17,"map":"workshop/pl_corrode_rc2.ugc546577989","folder":"tf","game":"Team Fortress","app_id":440,"player_count":2,"max_players":24,"Bots":0,"server_type":"Dedicated","server_os":"Linux","password":true,"vac":true,"version":"7757534","steam_id":85568392924742826,"keywords":["nocrits","nodmgspread","payload","uncletopia"],"game_id":440,"stv_port":27046,"stv_name":"Uncletopia | San Francisco | 4 | Community | STV","players":[{"user_id":23,"name":"Sayori","steam_id":76561198957479336,"connected_time":528000000000,"state":"active","ping":95},{"user_id":24,"name":"gorse","steam_id":76561199046574121,"connected_time":231000000000,"state":"active","ping":76}]},{"server_id":141,"name":"Uncletopia | Sydney | 1 | All Maps","name_short":"syd-1","host":"syd-1.au.uncletopia.com","port":27015,"enabled":true,"region":"au","cc":"au","latitude":-33.865143,"longitude":151.2099,"reserved":0,"last_update":"0001-01-01T00:00:00Z","name_a2s":"Uncletopia | Sydney | 1 | All Maps","protocol":17,"map":"pl_swiftwater_final1","folder":"tf","game":"Team Fortress","app_id":440,"player_count":24,"max_players":24,"Bots":0,"server_type":"Dedicated","server_os":"Linux","password":true,"vac":true,"version":"7757534","steam_id":85568392924470001,"keywords":["nocrits","nodmgspread","payload","uncletopia"],"game_id":440,"stv_port":27016,"stv_name":"Uncletopia | Sydney | 1 | All Maps | STV","players":[{"user_id":309,"name":"Turb Durgler","steam_id":76561198055358448,"connected_time":1022000000000,"state":"active","ping":54},{"user_id":310,"name":"Lincoln2603","steam_id":76561198170236666,"connected_time":970000000000,"state":"active","ping":35},{"user_id":297,"name":"Commander","steam_id":76561199262196710,"connected_time":2005000000000,"state":"active","ping":34},{"user_id":298,"name":"Hally","steam_id":76561198045236233,"connected_time":1893000000000,"state":"active","ping":53},{"user_id":290,"name":"Toody","steam_id":76561198212656752,"connected_time":2458000000000,"state":"active","ping":49},{"user_id":318,"name":"honk knoh","steam_id":76561198054079203,"connected_time":769000000000,"state":"active","ping":89},{"user_id":322,"name":"AfroMeerkat","steam_id":76561197995499647,"connected_time":248000000000,"state":"active","ping":68},{"user_id":311,"name":"Dr Barry Mundy PhD","steam_id":76561198034512686,"connected_time":964000000000,"state":"active","ping":74},{"user_id":313,"name":"1ocalTechSuppor1","steam_id":76561198175547093,"connected_time":870000000000,"state":"active","ping":77},{"user_id":289,"name":"Grantymunk","steam_id":76561198051439179,"connected_time":2509000000000,"state":"active","ping":69},{"user_id":314,"name":"hive","steam_id":76561199099744527,"connected_time":861000000000,"state":"active","ping":45},{"user_id":240,"name":"Oysenberry","steam_id":76561198125443335,"connected_time":6791000000000,"state":"active","ping":42},{"user_id":294,"name":"bird up","steam_id":76561198347964028,"connected_time":2429000000000,"state":"active","ping":44},{"user_id":324,"name":"Barry Bougar M.D.","steam_id":76561198301282416,"connected_time":33000000000,"state":"spawning","ping":60},{"user_id":273,"name":"The Fungus","steam_id":76561199205924575,"connected_time":4182000000000,"state":"active","ping":55},{"user_id":321,"name":"CouldBeKarlos","steam_id":76561198956180767,"connected_time":608000000000,"state":"active","ping":52},{"user_id":317,"name":"Tantei Rotana","steam_id":76561198041204323,"connected_time":811000000000,"state":"active","ping":59},{"user_id":267,"name":"soupy","steam_id":76561198073734936,"connected_time":4742000000000,"state":"active","ping":89},{"user_id":320,"name":"SinisterMagnus","steam_id":76561198133867907,"connected_time":722000000000,"state":"active","ping":83},{"user_id":323,"name":"shaggee360","steam_id":76561198035409075,"connected_time":56000000000,"state":"active","ping":71},{"user_id":305,"name":"no teles 4 u","steam_id":76561198018478297,"connected_time":1515000000000,"state":"active","ping":72},{"user_id":281,"name":"blortzoing","steam_id":76561198063481761,"connected_time":3290000000000,"state":"active","ping":43},{"user_id":296,"name":"conga man","steam_id":76561198406959622,"connected_time":2226000000000,"state":"active","ping":55},{"user_id":326,"name":"yoga","steam_id":76561199163801558,"connected_time":9000000000,"state":"spawning","ping":131}]},{"server_id":123,"name":"Uncletopia | Sydney | 2 | All Maps","name_short":"syd-2","host":"syd-1.au.uncletopia.com","port":27025,"enabled":true,"region":"au","cc":"au","latitude":-33.865143,"longitude":151.2099,"reserved":0,"last_update":"0001-01-01T00:00:00Z","name_a2s":"Uncletopia | Sydney | 2 | All Maps","protocol":17,"map":"koth_viaduct","folder":"tf","game":"Team Fortress","app_id":440,"player_count":12,"max_players":24,"Bots":0,"server_type":"Dedicated","server_os":"Linux","password":true,"vac":true,"version":"7757534","steam_id":85568392924470002,"keywords":["cp","nocrits","nodmgspread","uncletopia"],"game_id":440,"stv_port":27026,"stv_name":"Uncletopia | Sydney | 2 | All Maps | STV","players":[{"user_id":9,"name":"Crumpet","steam_id":76561199096381193,"connected_time":1989000000000,"state":"active","ping":58},{"user_id":10,"name":"Qucumber","steam_id":76561199232727317,"connected_time":1854000000000,"state":"active","ping":69},{"user_id":19,"name":"GappyZero","steam_id":76561199270883180,"connected_time":404000000000,"state":"active","ping":152},{"user_id":12,"name":"KingJ0804","steam_id":76561199218447245,"connected_time":1663000000000,"state":"active","ping":74},{"user_id":15,"name":"Unidentified Flying Gardener","steam_id":76561199143081082,"connected_time":1355000000000,"state":"active","ping":41},{"user_id":17,"name":"KillerBlow","steam_id":76561198930232832,"connected_time":1002000000000,"state":"active","ping":80},{"user_id":26,"name":"jbobanno3","steam_id":76561199200267518,"connected_time":32000000000,"state":"active","ping":60},{"user_id":20,"name":"A_Gamer_Who_Games","steam_id":76561198061803967,"connected_time":389000000000,"state":"active","ping":58},{"user_id":22,"name":"FrameSlash","steam_id":76561199189169281,"connected_time":310000000000,"state":"active","ping":58},{"user_id":23,"name":"primal","steam_id":76561198257852006,"connected_time":210000000000,"state":"active","ping":55},{"user_id":24,"name":"Raypest","steam_id":76561197980678745,"connected_time":171000000000,"state":"active","ping":30},{"user_id":25,"name":"bowser","steam_id":76561198271462646,"connected_time":164000000000,"state":"active","ping":45}]},{"server_id":395,"name":"Uncletopia | Sydney | 3 | All Maps","name_short":"syd-3","host":"syd-1.au.uncletopia.com","port":27035,"enabled":true,"region":"au","cc":"au","latitude":-33.865143,"longitude":151.2099,"reserved":0,"last_update":"0001-01-01T00:00:00Z","name_a2s":"Uncletopia | Sydney | 3 | All Maps","protocol":17,"map":"koth_viaduct","folder":"tf","game":"Team Fortress","app_id":440,"player_count":0,"max_players":24,"Bots":0,"server_type":"Dedicated","server_os":"Linux","password":true,"vac":true,"version":"7757534","steam_id":85568392925194467,"keywords":["cp","nocrits","nodmgspread","uncletopia"],"game_id":440,"stv_port":27036,"stv_name":"Uncletopia | Sydney | 3 | All Maps | STV","players":null},{"server_id":396,"name":"Uncletopia | Sydney | 4 | All Maps","name_short":"syd-4","host":"syd-1.au.uncletopia.com","port":27045,"enabled":true,"region":"au","cc":"au","latitude":-33.865143,"longitude":151.2099,"reserved":0,"last_update":"0001-01-01T00:00:00Z","name_a2s":"Uncletopia | Sydney | 4 | All Maps","protocol":17,"map":"koth_viaduct","folder":"tf","game":"Team Fortress","app_id":440,"player_count":0,"max_players":24,"Bots":0,"server_type":"Dedicated","server_os":"Linux","password":true,"vac":true,"version":"7757534","steam_id":85568392925397958,"keywords":["cp","nocrits","nodmgspread","uncletopia"],"game_id":440,"stv_port":27046,"stv_name":"Uncletopia | Sydney | 4 | All Maps | STV","players":null},{"server_id":58,"name":"Uncletopia | Sydney | 5 | Stopwatch Beta","name_short":"syd-5","host":"syd-1.au.uncletopia.com","port":27055,"enabled":true,"region":"au","cc":"au","latitude":-33.865143,"longitude":151.2099,"reserved":0,"last_update":"0001-01-01T00:00:00Z","name_a2s":"Uncletopia | Sydney | 5 | Stopwatch Beta","protocol":17,"map":"workshop/pl_summercoast_rc8e.ugc1761528829","folder":"tf","game":"Team Fortress","app_id":440,"player_count":0,"max_players":24,"Bots":0,"server_type":"Dedicated","server_os":"Linux","password":true,"vac":true,"version":"7757534","steam_id":85568392925397959,"keywords":["nocrits","nodmgspread","payload","uncletopia"],"game_id":440,"stv_port":27056,"stv_name":"Uncletopia | Sydney | 5 | Stopwatch Beta | STV","players":null},{"server_id":59,"name":"Uncletopia | Sydney | 6 | Community","name_short":"syd-6","host":"syd-1.au.uncletopia.com","port":27065,"enabled":true,"region":"au","cc":"au","latitude":-33.865143,"longitude":151.2099,"reserved":0,"last_update":"0001-01-01T00:00:00Z","name_a2s":"Uncletopia | Sydney | 6 | Community","protocol":17,"map":"cp_sunshine","folder":"tf","game":"Team Fortress","app_id":440,"player_count":0,"max_players":24,"Bots":0,"server_type":"Dedicated","server_os":"Linux","password":true,"vac":true,"version":"7757534","steam_id":85568392925397960,"keywords":["cp","nocrits","nodmgspread","uncletopia"],"game_id":440,"stv_port":27066,"stv_name":"Uncletopia | Sydney | 6 | Community | STV","players":null},{"server_id":49,"name":"Uncletopia | Warsaw | 1 | All Maps","name_short":"waw-1","host":"waw-1.pl.uncletopia.com","port":27015,"enabled":true,"region":"eu","cc":"pl","latitude":52.2297,"longitude":21.017532,"reserved":0,"last_update":"0001-01-01T00:00:00Z","name_a2s":"","protocol":0,"map":"","folder":"","game":"","app_id":0,"player_count":0,"max_players":0,"Bots":0,"server_type":"","server_os":"","password":false,"vac":false,"version":"","steam_id":0,"keywords":null,"game_id":0,"stv_port":0,"stv_name":"","players":null},{"server_id":50,"name":"Uncletopia | Warsaw | 2 | All Maps","name_short":"waw-2","host":"waw-1.pl.uncletopia.com","port":27025,"enabled":true,"region":"eu","cc":"pl","latitude":52.2297,"longitude":21.017532,"reserved":0,"last_update":"0001-01-01T00:00:00Z","name_a2s":"Uncletopia | Warsaw | 2 | All Maps","protocol":17,"map":"cp_process_final","folder":"tf","game":"Team Fortress","app_id":440,"player_count":0,"max_players":24,"Bots":0,"server_type":"Dedicated","server_os":"Linux","password":true,"vac":true,"version":"7757534","steam_id":85568392925397851,"keywords":["cp","nocrits","nodmgspread","uncletopia"],"game_id":440,"stv_port":27026,"stv_name":"Uncletopia | Warsaw | 2 | All Maps | STV","players":null},{"server_id":51,"name":"Uncletopia | Warsaw | 3 | All Maps","name_short":"waw-3","host":"waw-1.pl.uncletopia.com","port":27035,"enabled":true,"region":"eu","cc":"pl","latitude":52.2297,"longitude":21.017532,"reserved":0,"last_update":"0001-01-01T00:00:00Z","name_a2s":"Uncletopia | Warsaw | 3 | All Maps","protocol":17,"map":"pl_barnblitz","folder":"tf","game":"Team Fortress","app_id":440,"player_count":0,"max_players":24,"Bots":0,"server_type":"Dedicated","server_os":"Linux","password":true,"vac":true,"version":"7757534","steam_id":85568392925397852,"keywords":["nocrits","nodmgspread","payload","uncletopia"],"game_id":440,"stv_port":27036,"stv_name":"Uncletopia | Warsaw | 3 | All Maps | STV","players":null},{"server_id":52,"name":"Uncletopia | Warsaw | 4 | All Maps","name_short":"waw-4","host":"waw-1.pl.uncletopia.com","port":27045,"enabled":true,"region":"eu","cc":"pl","latitude":52.2297,"longitude":21.017532,"reserved":0,"last_update":"0001-01-01T00:00:00Z","name_a2s":"Uncletopia | Warsaw | 4 | All Maps","protocol":17,"map":"pl_snowycoast","folder":"tf","game":"Team Fortress","app_id":440,"player_count":0,"max_players":24,"Bots":0,"server_type":"Dedicated","server_os":"Linux","password":true,"vac":true,"version":"7757534","steam_id":85568392925397853,"keywords":["nocrits","nodmgspread","payload","uncletopia"],"game_id":440,"stv_port":27046,"stv_name":"Uncletopia | Warsaw | 4 | All Maps | STV","players":null},{"server_id":53,"name":"Uncletopia | Warsaw | 5 | Stopwatch Beta","name_short":"waw-5","host":"waw-1.pl.uncletopia.com","port":27055,"enabled":true,"region":"eu","cc":"pl","latitude":52.2297,"longitude":21.017532,"reserved":0,"last_update":"0001-01-01T00:00:00Z","name_a2s":"Uncletopia | Warsaw | 5 | Stopwatch Beta","protocol":17,"map":"pl_barnblitz","folder":"tf","game":"Team Fortress","app_id":440,"player_count":0,"max_players":24,"Bots":0,"server_type":"Dedicated","server_os":"Linux","password":true,"vac":true,"version":"7757534","steam_id":85568392925397854,"keywords":["nocrits","nodmgspread","payload","uncletopia"],"game_id":440,"stv_port":27056,"stv_name":"Uncletopia | Warsaw | 5 | Stopwatch Beta | STV","players":null},{"server_id":54,"name":"Uncletopia | Warsaw | 6 | Community","name_short":"waw-6","host":"waw-1.pl.uncletopia.com","port":27065,"enabled":true,"region":"eu","cc":"pl","latitude":52.2297,"longitude":21.017532,"reserved":0,"last_update":"0001-01-01T00:00:00Z","name_a2s":"Uncletopia | Warsaw | 6 | Community","protocol":17,"map":"pl_swiftwater_final1","folder":"tf","game":"Team Fortress","app_id":440,"player_count":0,"max_players":24,"Bots":0,"server_type":"Dedicated","server_os":"Linux","password":true,"vac":true,"version":"7757534","steam_id":85568392925397856,"keywords":["nocrits","nodmgspread","payload","uncletopia"],"game_id":440,"stv_port":27066,"stv_name":"Uncletopia | Warsaw | 6 | Community | STV","players":null}]}