{"status":true,"message":"","result":[{"server_id":9,"name":"Uncletopia | Atlanta | 1 | All Maps","name_short":"atl-1","host":"atl-1.us.uncletopia.com","port":27015,"enabled":true,"region":"us-east","cc":"us","latitude":33.753746,"longitude":-84.38633,"reserved":0,"last_update":"0001-01-01T00:00:00Z","name_a2s":"Uncletopia | Atlanta | 1 | All Maps","protocol":17,"map":"pl_pier","folder":"tf","game":"Team Fortress","app_id":440,"player_count":24,"max_players":24,"Bots":0,"server_type":"Dedicated","server_os":"Linux","password":true,"vac":true,"version":"7882260","steam_id":85568392924469982,"keywords":["nocrits","nodmgspread","payload","uncletopia"],"game_id":440,"stv_port":27016,"stv_name":"Uncletopia | Atlanta | 1 | All Maps | STV","players":[{"user_id":503,"name":"Eazy_Peazy16","steam_id":76561198079056194,"connected_time":145000000000,"state":"active","ping":73},{"user_id":486,"name":"Ariscorech","steam_id":76561198117206414,"connected_time":1881000000000,"state":"active","ping":94},{"user_id":482,"name":"PunchTrees7","steam_id":76561198054328901,"connected_time":1972000000000,"state":"active","ping":104},{"user_id":477,"name":"DragonHeart","steam_id":76561198013245625,"connected_time":2018000000000,"state":"active","ping":80},{"user_id":501,"name":"The_Stomach_Stone_Surgeon","steam_id":76561198044643725,"connected_time":157000000000,"state":"active","ping":47},{"user_id":497,"name":"eish","steam_id":76561198089463603,"connected_time":723000000000,"state":"active","ping":116},{"user_id":498,"name":"white woman","steam_id":76561199116679777,"connected_time":336000000000,"state":"active","ping":104},{"user_id":465,"name":"bkiller","steam_id":76561198029265697,"connected_time":4514000000000,"state":"active","ping":64},{"user_id":499,"name":"Crystron","steam_id":76561198880437428,"connected_time":254000000000,"state":"active","ping":84},{"user_id":466,"name":"ZD","steam_id":76561198437273389,"connected_time":4423000000000,"state":"active","ping":82},{"user_id":467,"name":"Bodhi","steam_id":76561198103230995,"connected_time":3937000000000,"state":"active","ping":63},{"user_id":500,"name":"lil hog","steam_id":76561199230929836,"connected_time":168000000000,"state":"active","ping":86},{"user_id":475,"name":"Lilith","steam_id":76561198125102885,"connected_time":2541000000000,"state":"active","ping":63},{"user_id":488,"name":"Mickey","steam_id":76561197976868960,"connected_time":1836000000000,"state":"active","ping":162},{"user_id":487,"name":"[CTC] kooldan","steam_id":76561198136593625,"connected_time":1869000000000,"state":"active","ping":57},{"user_id":408,"name":"emily","steam_id":76561198148132163,"connected_time":8493000000000,"state":"active","ping":78},{"user_id":471,"name":"DragonFalcon™","steam_id":76561198044559930,"connected_time":3369000000000,"state":"active","ping":53},{"user_id":490,"name":"Aniz","steam_id":76561199226665024,"connected_time":1802000000000,"state":"active","ping":144},{"user_id":481,"name":"Le4n!!!","steam_id":76561198045522596,"connected_time":1996000000000,"state":"active","ping":70},{"user_id":394,"name":"Skinny pete","steam_id":76561198801608576,"connected_time":10140000000000,"state":"active","ping":75},{"user_id":473,"name":"Tue","steam_id":76561198181668501,"connected_time":3354000000000,"state":"active","ping":66},{"user_id":446,"name":"DiGiorno's Pizza","steam_id":76561198142244035,"connected_time":5955000000000,"state":"active","ping":74},{"user_id":392,"name":"Lucky","steam_id":76561198418262145,"connected_time":10278000000000,"state":"active","ping":109},{"user_id":496,"name":"joe","steam_id":76561198045781320,"connected_time":869000000000,"state":"active","ping":90}]},{"server_id":104,"name":"Uncletopia | Atlanta | 2 | All Maps","name_short":"atl-2","host":"atl-1.us.uncletopia.com","port":27025,"enabled":true,"region":"us-east","cc":"us","latitude":33.753746,"longitude":-84.38633,"reserved":0,"last_update":"0001-01-01T00:00:00Z","name_a2s":"Uncletopia | Atlanta | 2 | All Maps","protocol":17,"map":"pl_barnblitz","folder":"tf","game":"Team Fortress","app_id":440,"player_count":0,"max_players":24,"Bots":0,"server_type":"Dedicated","server_os":"Linux","password":true,"vac":true,"version":"7882260","steam_id":85568392924469983,"keywords":["nocrits","nodmgspread","payload","uncletopia"],"game_id":440,"stv_port":27026,"stv_name":"Uncletopia | Atlanta | 2 | All Maps | STV","players":null},{"server_id":400,"name":"Uncletopia | Atlanta | 3 | Community","name_short":"atl-3","host":"atl-1.us.uncletopia.com","port":27035,"enabled":true,"region":"us-east","cc":"us","latitude":33.753746,"longitude":-84.38633,"reserved":0,"last_update":"0001-01-01T00:00:00Z","name_a2s":"Uncletopia | Atlanta | 3 | Community","protocol":17,"map":"workshop/koth_slaughter_rc1.ugc1712845210","folder":"tf","game":"Team Fortress","app_id":440,"player_count":0,"max_players":24,"Bots":0,"server_type":"Dedicated","server_os":"Linux","password":true,"vac":true,"version":"7882260","steam_id":85568392924515187,"keywords":["cp","nocrits","nodmgspread","uncletopia"],"game_id":440,"stv_port":27036,"stv_name":"Uncletopia | Atlanta | 3 | Community | STV","players":null},{"server_id":401,"name":"Uncletopia | Atlanta | 4 | No Payload","name_short":"atl-4","host":"atl-1.us.uncletopia.com","port":27045,"enabled":true,"region":"us-east","cc":"us","latitude":33.753746,"longitude":-84.38633,"reserved":0,"last_update":"0001-01-01T00:00:00Z","name_a2s":"","protocol":0,"map":"","folder":"","game":"","app_id":0,"player_count":0,"max_players":0,"Bots":0,"server_type":"","server_os":"","password":false,"vac":false,"version":"","steam_id":0,"keywords":null,"game_id":0,"stv_port":0,"stv_name":"","players":null},{"server_id":2,"name":"Uncletopia | Chicago | 1 | All Maps","name_short":"chi-1","host":"chi-1.us.uncletopia.com","port":27015,"enabled":true,"region":"us-central","cc":"us","latitude":41.881832,"longitude":-87.62318,"reserved":0,"last_update":"0001-01-01T00:00:00Z","name_a2s":"Uncletopia | Chicago | 1 | All Maps","protocol":17,"map":"pl_upward","folder":"tf","game":"Team Fortress","app_id":440,"player_count":24,"max_players":24,"Bots":0,"server_type":"Dedicated","server_os":"Linux","password":true,"vac":true,"version":"7882260","steam_id":85568392924469984,"keywords":["nocrits","nodmgspread","payload","uncletopia"],"game_id":440,"stv_port":27016,"stv_name":"Uncletopia | Chicago | 1 | All Maps | STV","players":[{"user_id":839,"name":"Elias","steam_id":76561198106431732,"connected_time":907000000000,"state":"active","ping":31},{"user_id":785,"name":"Filthy Acts at Reasonable Price","steam_id":76561198354615890,"connected_time":4398000000000,"state":"active","ping":89},{"user_id":795,"name":"Alecto","steam_id":76561198042476864,"connected_time":3241000000000,"state":"active","ping":45},{"user_id":825,"name":"Dr. Wario","steam_id":76561198901238861,"connected_time":1337000000000,"state":"active","ping":103},{"user_id":832,"name":"girlpeen supreme","steam_id":76561198031242903,"connected_time":1180000000000,"state":"active","ping":62},{"user_id":810,"name":"vv","steam_id":76561198134813102,"connected_time":2535000000000,"state":"active","ping":58},{"user_id":823,"name":"Wizard Raccoon","steam_id":76561198072562591,"connected_time":1536000000000,"state":"active","ping":83},{"user_id":803,"name":"DAInstant","steam_id":76561198861615617,"connected_time":2974000000000,"state":"active","ping":126},{"user_id":782,"name":"Aegis","steam_id":76561198272052750,"connected_time":4702000000000,"state":"active","ping":81},{"user_id":777,"name":"CraftKitty","steam_id":76561198080775103,"connected_time":5251000000000,"state":"active","ping":60},{"user_id":842,"name":"Two","steam_id":76561198207078715,"connected_time":128000000000,"state":"active","ping":111},{"user_id":818,"name":"Bird","steam_id":76561198231624620,"connected_time":1952000000000,"state":"active","ping":74},{"user_id":784,"name":"noah","steam_id":76561198173310157,"connected_time":4563000000000,"state":"active","ping":53},{"user_id":783,"name":"BigDeac","steam_id":76561198091237274,"connected_time":4582000000000,"state":"active","ping":60},{"user_id":837,"name":"Blackbird","steam_id":76561198127818333,"connected_time":928000000000,"state":"active","ping":62},{"user_id":833,"name":"Spring Beans","steam_id":76561197978546259,"connected_time":1179000000000,"state":"active","ping":60},{"user_id":725,"name":"KVWI","steam_id":76561197971352904,"connected_time":8161000000000,"state":"active","ping":71},{"user_id":831,"name":"Fudge_Cake","steam_id":76561198059218167,"connected_time":1191000000000,"state":"active","ping":87},{"user_id":799,"name":"Wolf Hat","steam_id":76561198099996051,"connected_time":3089000000000,"state":"active","ping":65},{"user_id":830,"name":"buppie","steam_id":76561198084100604,"connected_time":1259000000000,"state":"active","ping":61},{"user_id":834,"name":"2D","steam_id":76561197995324870,"connected_time":1149000000000,"state":"active","ping":59},{"user_id":838,"name":"Sarbanes-Oxley","steam_id":76561197975898479,"connected_time":927000000000,"state":"active","ping":74},{"user_id":771,"name":"DivineBanana","steam_id":76561198026529731,"connected_time":6168000000000,"state":"active","ping":87},{"user_id":840,"name":"[ibb™]Shadow20X6-ENGI","steam_id":76561198019292755,"connected_time":903000000000,"state":"active","ping":97}]},{"server_id":106,"name":"Uncletopia | Chicago | 2 | All Maps","name_short":"chi-2","host":"chi-1.us.uncletopia.com","port":27025,"enabled":true,"region":"us-central","cc":"us","latitude":41.881832,"longitude":-87.62318,"reserved":0,"last_update":"0001-01-01T00:00:00Z","name_a2s":"Uncletopia | Chicago | 2 | All Maps","protocol":17,"map":"cp_altitude","folder":"tf","game":"Team Fortress","app_id":440,"player_count":0,"max_players":24,"Bots":0,"server_type":"Dedicated","server_os":"Linux","password":true,"vac":true,"version":"7882260","steam_id":85568392924469985,"keywords":["cp","nocrits","nodmgspread","uncletopia"],"game_id":440,"stv_port":27026,"stv_name":"Uncletopia | Chicago | 2 | All Maps | STV","players":null},{"server_id":402,"name":"Uncletopia | Chicago | 3 | All Maps","name_short":"chi-3","host":"chi-1.us.uncletopia.com","port":27035,"enabled":true,"region":"us-central","cc":"us","latitude":41.881832,"longitude":-87.62318,"reserved":0,"last_update":"0001-01-01T00:00:00Z","name_a2s":"Uncletopia | Chicago | 3 | All Maps","protocol":17,"map":"pl_upward","folder":"tf","game":"Team Fortress","app_id":440,"player_count":24,"max_players":24,"Bots":0,"server_type":"Dedicated","server_os":"Linux","password":true,"vac":true,"version":"7882260","steam_id":85568392924515191,"keywords":["nocrits","nodmgspread","payload","uncletopia"],"game_id":440,"stv_port":27036,"stv_name":"Uncletopia | Chicago | 3 | All Maps | STV","players":[{"user_id":508,"name":"Dinner","steam_id":76561198067294811,"connected_time":942000000000,"state":"active","ping":70},{"user_id":533,"name":"Wayrest","steam_id":76561198037847471,"connected_time":308000000000,"state":"active","ping":43},{"user_id":507,"name":"The local hobo","steam_id":76561198289650060,"connected_time":1028000000000,"state":"active","ping":83},{"user_id":510,"name":"stupid ape","steam_id":76561198350027075,"connected_time":831000000000,"state":"active","ping":49},{"user_id":534,"name":"Coolshroomish","steam_id":76561199109440924,"connected_time":243000000000,"state":"active","ping":95},{"user_id":503,"name":"rawgust","steam_id":76561198004523887,"connected_time":1815000000000,"state":"active","ping":105},{"user_id":527,"name":"DevilCake","steam_id":76561198101653430,"connected_time":622000000000,"state":"active","ping":68},{"user_id":513,"name":"RoyalBlueGamer","steam_id":76561198178831886,"connected_time":809000000000,"state":"active","ping":72},{"user_id":515,"name":"Dr.pineapple","steam_id":76561199174982418,"connected_time":762000000000,"state":"active","ping":56},{"user_id":516,"name":"The indomitable human spirit","steam_id":76561198282395338,"connected_time":754000000000,"state":"active","ping":107},{"user_id":529,"name":"kazoo2","steam_id":76561198260473504,"connected_time":372000000000,"state":"active","ping":87},{"user_id":518,"name":"Sage","steam_id":76561198143101697,"connected_time":736000000000,"state":"active","ping":99},{"user_id":488,"name":"I Eat Trains","steam_id":76561198054791624,"connected_time":2920000000000,"state":"active","ping":56},{"user_id":506,"name":"NotHughesy","steam_id":76561198113064655,"connected_time":1421000000000,"state":"active","ping":48},{"user_id":489,"name":"Gorgon Freeman","steam_id":76561198000367036,"connected_time":2919000000000,"state":"active","ping":60},{"user_id":535,"name":"sunny","steam_id":76561198069380992,"connected_time":89000000000,"state":"active","ping":78},{"user_id":520,"name":"leumas","steam_id":76561198240408540,"connected_time":720000000000,"state":"active","ping":58},{"user_id":521,"name":"eyepen","steam_id":76561198381154476,"connected_time":716000000000,"state":"active","ping":75},{"user_id":504,"name":"Brobespierre","steam_id":76561198022225667,"connected_time":1815000000000,"state":"active","ping":86},{"user_id":492,"name":"Harold of the Rocks","steam_id":76561198055891429,"connected_time":2853000000000,"state":"active","ping":68},{"user_id":493,"name":"invb","steam_id":76561197998263914,"connected_time":2837000000000,"state":"active","ping":72},{"user_id":524,"name":"The Cool Man","steam_id":76561198096420556,"connected_time":668000000000,"state":"active","ping":100},{"user_id":523,"name":"Big Guy","steam_id":76561198011675372,"connected_time":696000000000,"state":"active","ping":115},{"user_id":525,"name":"Satisfied Popeye","steam_id":76561198049476046,"connected_time":650000000000,"state":"active","ping":68}]},{"server_id":403,"name":"Uncletopia | Chicago | 4 | All Maps","name_short":"chi-4","host":"chi-1.us.uncletopia.com","port":27045,"enabled":true,"region":"us-central","cc":"us","latitude":41.881832,"longitude":-87.62318,"reserved":0,"last_update":"0001-01-01T00:00:00Z","name_a2s":"Uncletopia | Chicago | 4 | All Maps","protocol":17,"map":"pl_thundermountain","folder":"tf","game":"Team Fortress","app_id":440,"player_count":24,"max_players":24,"Bots":0,"server_type":"Dedicated","server_os":"Linux","password":true,"vac":true,"version":"7882260","steam_id":85568392924515193,"keywords":["nocrits","nodmgspread","payload","uncletopia"],"game_id":440,"stv_port":27046,"stv_name":"Uncletopia | Chicago | 4 | All Maps | STV","players":[{"user_id":428,"name":"robo gushy","steam_id":76561198060334743,"connected_time":302000000000,"state":"active","ping":46},{"user_id":416,"name":"idk100987","steam_id":76561199447977988,"connected_time":994000000000,"state":"active","ping":114},{"user_id":427,"name":"what she desires","steam_id":76561198935158462,"connected_time":402000000000,"state":"active","ping":94},{"user_id":425,"name":"Detective Parks","steam_id":76561198153415500,"connected_time":613000000000,"state":"active","ping":81},{"user_id":388,"name":"Laz","steam_id":76561197990879167,"connected_time":2230000000000,"state":"active","ping":45},{"user_id":351,"name":"i eated sand","steam_id":76561198062763756,"connected_time":4396000000000,"state":"active","ping":46},{"user_id":366,"name":"basilberry","steam_id":76561198145275937,"connected_time":3657000000000,"state":"active","ping":91},{"user_id":430,"name":"Boysenberry Syrup","steam_id":76561198243582986,"connected_time":38000000000,"state":"active","ping":62},{"user_id":382,"name":"CERTIFIED GOAT","steam_id":76561198119826352,"connected_time":2589000000000,"state":"active","ping":65},{"user_id":371,"name":"Vanish (big boob)","steam_id":76561198198815974,"connected_time":3188000000000,"state":"active","ping":59},{"user_id":372,"name":"Cheese","steam_id":76561199207081299,"connected_time":3184000000000,"state":"active","ping":157},{"user_id":419,"name":"We believe in you!","steam_id":76561198219252313,"connected_time":978000000000,"state":"active","ping":73},{"user_id":414,"name":"Hezxp","steam_id":76561198312931111,"connected_time":1059000000000,"state":"active","ping":84},{"user_id":429,"name":"That Canadian Dude","steam_id":76561198024985831,"connected_time":261000000000,"state":"active","ping":62},{"user_id":426,"name":"SlayAChicken","steam_id":76561198093787204,"connected_time":444000000000,"state":"active","ping":58},{"user_id":431,"name":"|AG| Level","steam_id":76561198063633592,"connected_time":18000000000,"state":"spawning","ping":181},{"user_id":404,"name":"playing tf2 in a van?","steam_id":76561198380018244,"connected_time":1923000000000,"state":"active","ping":74},{"user_id":405,"name":"Sneek","steam_id":76561198368636879,"connected_time":1834000000000,"state":"active","ping":83},{"user_id":420,"name":"Ayylmao","steam_id":76561198104780147,"connected_time":964000000000,"state":"active","ping":44},{"user_id":375,"name":"FLESH SCOUT (uber generator)","steam_id":76561198334999801,"connected_time":3165000000000,"state":"active","ping":76},{"user_id":422,"name":"airpipe ARF ARF","steam_id":76561198170381402,"connected_time":944000000000,"state":"active","ping":61},{"user_id":423,"name":"marvxpensiv3","steam_id":76561199020502894,"connected_time":944000000000,"state":"active","ping":129},{"user_id":403,"name":"euphoricfilth (it/her)","steam_id":76561198100160865,"connected_time":1992000000000,"state":"active","ping":52},{"user_id":412,"name":"LovingKindne2z","steam_id":76561199064932372,"connected_time":1201000000000,"state":"active","ping":106}]},{"server_id":36,"name":"Uncletopia | Chicago | 5 | All Maps","name_short":"chi-5","host":"chi-2.us.uncletopia.com","port":27015,"enabled":true,"region":"us-central","cc":"us","latitude":41.881832,"longitude":-87.62318,"reserved":0,"last_update":"0001-01-01T00:00:00Z","name_a2s":"Uncletopia | Chicago | 5 | All Maps","protocol":17,"map":"cp_yukon_final","folder":"tf","game":"Team Fortress","app_id":440,"player_count":1,"max_players":24,"Bots":0,"server_type":"Dedicated","server_os":"Linux","password":true,"vac":true,"version":"7882260","steam_id":85568392924866362,"keywords":["cp","nocrits","nodmgspread","uncletopia"],"game_id":440,"stv_port":27016,"stv_name":"Uncletopia | Chicago | 5 | All Maps | STV","players":[{"user_id":383,"name":"Urbanzpinapple","steam_id":76561198115426938,"connected_time":0,"state":"spawning","ping":22}]},{"server_id":37,"name":"Uncletopia | Chicago | 6 | All Maps","name_short":"chi-6","host":"chi-2.us.uncletopia.com","port":27025,"enabled":true,"region":"us-central","cc":"us","latitude":41.881832,"longitude":-87.62318,"reserved":0,"last_update":"0001-01-01T00:00:00Z","name_a2s":"Uncletopia | Chicago | 6 | All Maps","protocol":17,"map":"koth_viaduct","folder":"tf","game":"Team Fortress","app_id":440,"player_count":0,"max_players":24,"Bots":0,"server_type":"Dedicated","server_os":"Linux","password":true,"vac":true,"version":"7882260","steam_id":85568392924866363,"keywords":["cp","nocrits","nodmgspread","uncletopia"],"game_id":440,"stv_port":27026,"stv_name":"Uncletopia | Chicago | 6 | All Maps | STV","players":null},{"server_id":38,"name":"Uncletopia | Chicago | 7 | Stopwatch Beta","name_short":"chi-7","host":"chi-2.us.uncletopia.com","port":27035,"enabled":true,"region":"us-central","cc":"us","latitude":41.881832,"longitude":-87.62318,"reserved":0,"last_update":"0001-01-01T00:00:00Z","name_a2s":"Uncletopia | Chicago | 7 | Stopwatch Beta","protocol":17,"map":"pl_upward","folder":"tf","game":"Team Fortress","app_id":440,"player_count":0,"max_players":24,"Bots":0,"server_type":"Dedicated","server_os":"Linux","password":true,"vac":true,"version":"7882260","steam_id":85568392924866364,"keywords":["nocrits","nodmgspread","payload","uncletopia"],"game_id":440,"stv_port":27036,"stv_name":"Uncletopia | Chicago | 7 | Stopwatch Beta | STV","players":null},{"server_id":39,"name":"Uncletopia | Chicago | 8 | Community","name_short":"chi-8","host":"chi-2.us.uncletopia.com","port":27045,"enabled":true,"region":"us-central","cc":"us","latitude":41.881832,"longitude":-87.62318,"reserved":0,"last_update":"0001-01-01T00:00:00Z","name_a2s":"Uncletopia | Chicago | 8 | Community","protocol":17,"map":"workshop/koth_trenchfoot_b1a.ugc731436616","folder":"tf","game":"Team Fortress","app_id":440,"player_count":22,"max_players":24,"Bots":0,"server_type":"Dedicated","server_os":"Linux","password":true,"vac":true,"version":"7882260","steam_id":85568392924866365,"keywords":["cp","nocrits","nodmgspread","uncletopia"],"game_id":440,"stv_port":27046,"stv_name":"Uncletopia | Chicago | 8 | Community | STV","players":[{"user_id":178,"name":"gps","steam_id":76561198067492304,"connected_time":7206000000000,"state":"active","ping":81},{"user_id":237,"name":"Comfy Monkey","steam_id":76561197998434936,"connected_time":2523000000000,"state":"active","ping":49},{"user_id":249,"name":"Brendan","steam_id":76561198041079914,"connected_time":1701000000000,"state":"active","ping":70},{"user_id":262,"name":"frank","steam_id":76561198137777483,"connected_time":675000000000,"state":"active","ping":60},{"user_id":263,"name":"I am a mooshroom","steam_id":76561198104198295,"connected_time":627000000000,"state":"active","ping":87},{"user_id":200,"name":"Bolty","steam_id":76561198084199165,"connected_time":5776000000000,"state":"active","ping":75},{"user_id":221,"name":"Tay","steam_id":76561198059605568,"connected_time":3760000000000,"state":"active","ping":73},{"user_id":243,"name":"Tick","steam_id":76561198184161214,"connected_time":1948000000000,"state":"active","ping":50},{"user_id":239,"name":"sithreis","steam_id":76561198000564263,"connected_time":2522000000000,"state":"active","ping":61},{"user_id":242,"name":"Peazy","steam_id":76561198168365864,"connected_time":2056000000000,"state":"active","ping":83},{"user_id":246,"name":"Mr. Crispy Lips","steam_id":76561198028157625,"connected_time":1769000000000,"state":"active","ping":662},{"user_id":264,"name":"Curp","steam_id":76561198037381547,"connected_time":608000000000,"state":"active","ping":83},{"user_id":271,"name":"deltuh","steam_id":76561198121067719,"connected_time":56000000000,"state":"active","ping":66},{"user_id":270,"name":"Noelle","steam_id":76561199230989382,"connected_time":106000000000,"state":"active","ping":47},{"user_id":265,"name":"Toasty","steam_id":76561198363417298,"connected_time":608000000000,"state":"active","ping":80},{"user_id":258,"name":"beefmachine","steam_id":76561198001196512,"connected_time":846000000000,"state":"active","ping":49},{"user_id":259,"name":"Rafl","steam_id":76561198055222756,"connected_time":836000000000,"state":"active","ping":72},{"user_id":255,"name":"SaturnVII","steam_id":76561198263560946,"connected_time":1406000000000,"state":"active","ping":60},{"user_id":191,"name":"java","steam_id":76561198030276792,"connected_time":6099000000000,"state":"active","ping":58},{"user_id":236,"name":"crashymicsplody","steam_id":76561198213916765,"connected_time":2608000000000,"state":"active","ping":73},{"user_id":229,"name":"x❤x_1337_VVeed_VVizard_x❤x","steam_id":76561198067436825,"connected_time":3189000000000,"state":"active","ping":84},{"user_id":267,"name":"luisaguilarsanchez0722","steam_id":76561199415915693,"connected_time":566000000000,"state":"active","ping":84}]},{"server_id":8,"name":"Uncletopia | Dallas | 1 | All Maps","name_short":"dal-1","host":"dal-1.us.uncletopia.com","port":27015,"enabled":true,"region":"us-central","cc":"us","latitude":32.779167,"longitude":-96.80889,"reserved":0,"last_update":"0001-01-01T00:00:00Z","name_a2s":"Uncletopia | Dallas | 1 | All Maps","protocol":17,"map":"koth_harvest_final","folder":"tf","game":"Team Fortress","app_id":440,"player_count":23,"max_players":24,"Bots":0,"server_type":"Dedicated","server_os":"Linux","password":true,"vac":true,"version":"7882260","steam_id":85568392924469986,"keywords":["cp","nocrits","nodmgspread","uncletopia"],"game_id":440,"stv_port":27016,"stv_name":"Uncletopia | Dallas | 1 | All Maps | STV","players":[{"user_id":476,"name":"Tough Puffin","steam_id":76561198024011010,"connected_time":1117000000000,"state":"active","ping":93},{"user_id":462,"name":"TheXenoKing","steam_id":76561198127424141,"connected_time":2147000000000,"state":"active","ping":117},{"user_id":449,"name":"我需要天际口交d-_-b","steam_id":76561198159310724,"connected_time":3306000000000,"state":"active","ping":77},{"user_id":470,"name":"Hydroxianchaos","steam_id":76561198043786828,"connected_time":1752000000000,"state":"active","ping":89},{"user_id":481,"name":"CheeseLikeSubstance","steam_id":76561197977170646,"connected_time":741000000000,"state":"active","ping":67},{"user_id":439,"name":"Faefanger","steam_id":76561198201871002,"connected_time":4670000000000,"state":"active","ping":123},{"user_id":475,"name":"Battery Acid Slurper","steam_id":76561198439793697,"connected_time":1126000000000,"state":"active","ping":96},{"user_id":477,"name":"Person","steam_id":76561198073885832,"connected_time":1103000000000,"state":"active","ping":209},{"user_id":482,"name":"ttropic_","steam_id":76561198254529565,"connected_time":512000000000,"state":"active","ping":73},{"user_id":484,"name":"Rowdyshark101","steam_id":76561199019123695,"connected_time":316000000000,"state":"active","ping":49},{"user_id":447,"name":"FreshPrinceOfWelfare","steam_id":76561198369197376,"connected_time":3467000000000,"state":"active","ping":54},{"user_id":485,"name":"Lil' Dunky","steam_id":76561198163572748,"connected_time":285000000000,"state":"active","ping":92},{"user_id":486,"name":"Ekuseebia","steam_id":76561198037504112,"connected_time":283000000000,"state":"active","ping":68},{"user_id":460,"name":"M4tT","steam_id":76561198118764868,"connected_time":2412000000000,"state":"active","ping":60},{"user_id":468,"name":"AzuriousAlex","steam_id":76561198158026405,"connected_time":1984000000000,"state":"active","ping":71},{"user_id":464,"name":"BackToSchoolAds","steam_id":76561198870281128,"connected_time":2111000000000,"state":"active","ping":92},{"user_id":465,"name":"Goofball","steam_id":76561198074189084,"connected_time":2073000000000,"state":"active","ping":75},{"user_id":487,"name":"Amish Supremacist","steam_id":76561198396181197,"connected_time":279000000000,"state":"active","ping":73},{"user_id":466,"name":"ArnoldGamingﾠٴ","steam_id":76561198040140247,"connected_time":2058000000000,"state":"active","ping":98},{"user_id":461,"name":"MeMyBongusAndTheGreatOutdoors","steam_id":76561198097708978,"connected_time":2209000000000,"state":"active","ping":71},{"user_id":458,"name":"LtK","steam_id":76561197993180943,"connected_time":2626000000000,"state":"active","ping":43},{"user_id":488,"name":"dankman","steam_id":76561198977064186,"connected_time":231000000000,"state":"active","ping":75},{"user_id":429,"name":"Mando","steam_id":76561198139662905,"connected_time":5290000000000,"state":"active","ping":62}]},{"server_id":108,"name":"Uncletopia | Dallas | 2 | All Maps","name_short":"dal-2","host":"dal-1.us.uncletopia.com","port":27025,"enabled":true,"region":"us-central","cc":"us","latitude":32.779167,"longitude":-96.80889,"reserved":0,"last_update":"0001-01-01T00:00:00Z","name_a2s":"Uncletopia | Dallas | 2 | All Maps","protocol":17,"map":"pl_pier","folder":"tf","game":"Team Fortress","app_id":440,"player_count":24,"max_players":24,"Bots":0,"server_type":"Dedicated","server_os":"Linux","password":true,"vac":true,"version":"7882260","steam_id":85568392924469988,"keywords":["nocrits","nodmgspread","payload","uncletopia"],"game_id":440,"stv_port":27026,"stv_name":"Uncletopia | Dallas | 2 | All Maps | STV","players":[{"user_id":460,"name":"gorf?","steam_id":76561198142286417,"connected_time":504000000000,"state":"active","ping":76},{"user_id":461,"name":"ƐՌѴƳ","steam_id":76561198099470277,"connected_time":501000000000,"state":"active","ping":83},{"user_id":458,"name":"Gek Ambassador","steam_id":76561199080135821,"connected_time":1106000000000,"state":"active","ping":62},{"user_id":449,"name":"albert jones","steam_id":76561198404271005,"connected_time":1717000000000,"state":"active","ping":67},{"user_id":437,"name":"Yume","steam_id":76561198018060136,"connected_time":2385000000000,"state":"active","ping":78},{"user_id":468,"name":"allcownoboy","steam_id":76561198214053493,"connected_time":363000000000,"state":"active","ping":58},{"user_id":430,"name":"Yosh","steam_id":76561198027078899,"connected_time":3257000000000,"state":"active","ping":64},{"user_id":439,"name":"BLOOD !","steam_id":76561198004400850,"connected_time":2250000000000,"state":"active","ping":60},{"user_id":469,"name":"TheM8Mobile","steam_id":76561198094859029,"connected_time":166000000000,"state":"active","ping":76},{"user_id":471,"name":"Bürgör","steam_id":76561198315238067,"connected_time":123000000000,"state":"active","ping":67},{"user_id":440,"name":"professor penisfreak","steam_id":76561198435104989,"connected_time":2249000000000,"state":"active","ping":60},{"user_id":459,"name":"teatimesukka","steam_id":76561198978749594,"connected_time":531000000000,"state":"active","ping":33},{"user_id":464,"name":"frog slam","steam_id":76561197998392954,"connected_time":450000000000,"state":"active","ping":62},{"user_id":442,"name":"Nova Sentry","steam_id":76561198325826724,"connected_time":1985000000000,"state":"active","ping":89},{"user_id":465,"name":"CartNip","steam_id":76561198290916628,"connected_time":434000000000,"state":"active","ping":62},{"user_id":443,"name":"errant","steam_id":76561197961758410,"connected_time":1974000000000,"state":"active","ping":45},{"user_id":472,"name":"Painkiller","steam_id":76561198049787400,"connected_time":61000000000,"state":"active","ping":66},{"user_id":457,"name":"GlizzLord","steam_id":76561198321010427,"connected_time":1112000000000,"state":"active","ping":79},{"user_id":445,"name":"BlueDoodles","steam_id":76561198307526691,"connected_time":1908000000000,"state":"active","ping":84},{"user_id":473,"name":"WanderEase","steam_id":76561198068654078,"connected_time":13000000000,"state":"spawning","ping":80},{"user_id":432,"name":"leopardo123atl","steam_id":76561198872648238,"connected_time":3155000000000,"state":"active","ping":75},{"user_id":467,"name":"Aiko","steam_id":76561198262395873,"connected_time":422000000000,"state":"active","ping":85},{"user_id":470,"name":"Daanish","steam_id":76561198080556773,"connected_time":164000000000,"state":"active","ping":74},{"user_id":450,"name":"Squire Terry the Cute","steam_id":76561198099617116,"connected_time":1714000000000,"state":"active","ping":67}]},{"server_id":5,"name":"Uncletopia | Frankfurt | 1 | All Maps","name_short":"frk-1","host":"frk-1.de.uncletopia.com","port":27015,"enabled":true,"region":"eu","cc":"de","latitude":50.110924,"longitude":8.682127,"reserved":0,"last_update":"0001-01-01T00:00:00Z","name_a2s":"Uncletopia | Frankfurt | 1 | All Maps","protocol":17,"map":"cp_mountainlab","folder":"tf","game":"Team Fortress","app_id":440,"player_count":0,"max_players":24,"Bots":0,"server_type":"Dedicated","server_os":"Linux","password":true,"vac":true,"version":"7882260","steam_id":85568392924469989,"keywords":["cp","nocrits","nodmgspread","uncletopia"],"game_id":440,"stv_port":27016,"stv_name":"Uncletopia | Frankfurt | 1 | All Maps | STV","players":null},{"server_id":110,"name":"Uncletopia | Frankfurt | 2 | All Maps","name_short":"frk-2","host":"frk-1.de.uncletopia.com","port":27025,"enabled":true,"region":"eu","cc":"de","latitude":50.110924,"longitude":8.682127,"reserved":0,"last_update":"0001-01-01T00:00:00Z","name_a2s":"Uncletopia | Frankfurt | 2 | All Maps","protocol":17,"map":"koth_lakeside_final","folder":"tf","game":"Team Fortress","app_id":440,"player_count":0,"max_players":24,"Bots":0,"server_type":"Dedicated","server_os":"Linux","password":true,"vac":true,"version":"7882260","steam_id":85568392924469990,"keywords":["cp","nocrits","nodmgspread","uncletopia"],"game_id":440,"stv_port":27026,"stv_name":"Uncletopia | Frankfurt | 2 | All Maps | STV","players":null},{"server_id":308,"name":"Uncletopia | Frankfurt | 3 | All Maps","name_short":"frk-3","host":"frk-1.de.uncletopia.com","port":27035,"enabled":true,"region":"eu","cc":"de","latitude":50.110924,"longitude":8.682127,"reserved":0,"last_update":"0001-01-01T00:00:00Z","name_a2s":"Uncletopia | Frankfurt | 3 | All Maps","protocol":17,"map":"koth_lakeside_final","folder":"tf","game":"Team Fortress","app_id":440,"player_count":0,"max_players":24,"Bots":0,"server_type":"Dedicated","server_os":"Linux","password":true,"vac":true,"version":"7882260","steam_id":85568392924504274,"keywords":["cp","nocrits","nodmgspread","uncletopia"],"game_id":440,"stv_port":27036,"stv_name":"Uncletopia | Frankfurt | 3 | All Maps | STV","players":null},{"server_id":309,"name":"Uncletopia | Frankfurt | 4 | All Maps","name_short":"frk-4","host":"frk-1.de.uncletopia.com","port":27045,"enabled":true,"region":"eu","cc":"de","latitude":50.110924,"longitude":8.682127,"reserved":0,"last_update":"0001-01-01T00:00:00Z","name_a2s":"Uncletopia | Frankfurt | 4 | All Maps","protocol":17,"map":"koth_lakeside_final","folder":"tf","game":"Team Fortress","app_id":440,"player_count":0,"max_players":24,"Bots":0,"server_type":"Dedicated","server_os":"Linux","password":true,"vac":true,"version":"7882260","steam_id":85568392924504275,"keywords":["cp","nocrits","nodmgspread","uncletopia"],"game_id":440,"stv_port":27046,"stv_name":"Uncletopia | Frankfurt | 4 | All Maps | STV","players":null},{"server_id":310,"name":"Uncletopia | Frankfurt | 5 | All Maps","name_short":"frk-5","host":"frk-1.de.uncletopia.com","port":27055,"enabled":true,"region":"eu","cc":"de","latitude":50.110924,"longitude":8.682127,"reserved":0,"last_update":"0001-01-01T00:00:00Z","name_a2s":"Uncletopia | Frankfurt | 5 | All Maps","protocol":17,"map":"pl_frontier_final","folder":"tf","game":"Team Fortress","app_id":440,"player_count":0,"max_players":24,"Bots":0,"server_type":"Dedicated","server_os":"Linux","password":true,"vac":true,"version":"7882260","steam_id":85568392924504277,"keywords":["nocrits","nodmgspread","payload","uncletopia"],"game_id":440,"stv_port":27056,"stv_name":"Uncletopia | Frankfurt | 5 | All Maps | STV","players":null},{"server_id":311,"name":"Uncletopia | Frankfurt | 6 | All Maps","name_short":"frk-6","host":"frk-1.de.uncletopia.com","port":27065,"enabled":true,"region":"eu","cc":"de","latitude":50.110924,"longitude":8.682127,"reserved":0,"last_update":"0001-01-01T00:00:00Z","name_a2s":"Uncletopia | Frankfurt | 6 | All Maps","protocol":17,"map":"cp_mountainlab","folder":"tf","game":"Team Fortress","app_id":440,"player_count":1,"max_players":24,"Bots":0,"server_type":"Dedicated","server_os":"Linux","password":true,"vac":true,"version":"7882260","steam_id":85568392924504278,"keywords":["cp","nocrits","nodmgspread","uncletopia"],"game_id":440,"stv_port":27066,"stv_name":"Uncletopia | Frankfurt | 6 | All Maps | STV","players":[{"user_id":321,"name":"ASS?!?!?!?!?","steam_id":76561199159262388,"connected_time":138000000000,"state":"active","ping":95}]},{"server_id":23,"name":"Uncletopia | Frankfurt | 7 | Stopwatch Beta","name_short":"frk-7","host":"frk-1.de.uncletopia.com","port":27075,"enabled":true,"region":"eu","cc":"de","latitude":50.110924,"longitude":8.682127,"reserved":0,"last_update":"0001-01-01T00:00:00Z","name_a2s":"Uncletopia | Frankfurt | 7 | Stopwatch Beta","protocol":17,"map":"koth_lakeside_final","folder":"tf","game":"Team Fortress","app_id":440,"player_count":0,"max_players":24,"Bots":0,"server_type":"Dedicated","server_os":"Linux","password":true,"vac":true,"version":"7882260","steam_id":85568392924742827,"keywords":["cp","nocrits","nodmgspread","uncletopia"],"game_id":440,"stv_port":27076,"stv_name":"Uncletopia | Frankfurt | 7 | Stopwatch Beta | STV","players":null},{"server_id":24,"name":"Uncletopia | Frankfurt | 8 | Community","name_short":"frk-8","host":"frk-1.de.uncletopia.com","port":27085,"enabled":true,"region":"eu","cc":"de","latitude":50.110924,"longitude":8.682127,"reserved":0,"last_update":"0001-01-01T00:00:00Z","name_a2s":"Uncletopia | Frankfurt | 8 | Community","protocol":17,"map":"workshop/koth_product_final.ugc454272353","folder":"tf","game":"Team Fortress","app_id":440,"player_count":0,"max_players":24,"Bots":0,"server_type":"Dedicated","server_os":"Linux","password":true,"vac":true,"version":"7882260","steam_id":85568392924742828,"keywords":["cp","nocrits","nodmgspread","uncletopia"],"game_id":440,"stv_port":27086,"stv_name":"Uncletopia | Frankfurt | 8 | Community | STV","players":null},{"server_id":202,"name":"Uncletopia | Hong Kong | 1 | All Maps","name_short":"hgk-1","host":"hgk-1.hk.uncletopia.com","port":27015,"enabled":true,"region":"asia","cc":"hk","latitude":22.302711,"longitude":114.177216,"reserved":0,"last_update":"0001-01-01T00:00:00Z","name_a2s":"Uncletopia | Hong Kong | 1 | All Maps","protocol":17,"map":"cp_altitude","folder":"tf","game":"Team Fortress","app_id":440,"player_count":2,"max_players":24,"Bots":0,"server_type":"Dedicated","server_os":"Linux","password":true,"vac":true,"version":"7882260","steam_id":85568392924494504,"keywords":["cp","nocrits","nodmgspread","uncletopia"],"game_id":440,"stv_port":27016,"stv_name":"Uncletopia | Hong Kong | 1 | All Maps | STV","players":[{"user_id":6,"name":"D43mons","steam_id":76561199162404661,"connected_time":478000000000,"state":"active","ping":90},{"user_id":7,"name":"4th Wall \"Breaker\"","steam_id":76561199328855877,"connected_time":305000000000,"state":"active","ping":108}]},{"server_id":1,"name":"Uncletopia | Los Angeles | 1 | All Maps","name_short":"lax-1","host":"lax-1.us.uncletopia.com","port":27015,"enabled":true,"region":"us-west","cc":"us","latitude":33.94279,"longitude":-118.41004,"reserved":0,"last_update":"0001-01-01T00:00:00Z","name_a2s":"Uncletopia | Los Angeles | 1 | All Maps","protocol":17,"map":"pl_pier","folder":"tf","game":"Team Fortress","app_id":440,"player_count":23,"max_players":24,"Bots":0,"server_type":"Dedicated","server_os":"Linux","password":true,"vac":true,"version":"7882260","steam_id":85568392924469991,"keywords":["nocrits","nodmgspread","payload","uncletopia"],"game_id":440,"stv_port":27016,"stv_name":"Uncletopia | Los Angeles | 1 | All Maps | STV","players":[{"user_id":156,"name":"Taijo","steam_id":76561199237601803,"connected_time":1960000000000,"state":"active","ping":79},{"user_id":179,"name":"Delimeat","steam_id":76561198043824595,"connected_time":779000000000,"state":"active","ping":45},{"user_id":158,"name":"Chocc","steam_id":76561198068070211,"connected_time":1845000000000,"state":"active","ping":51},{"user_id":153,"name":"professional twelve year old","steam_id":76561198858796870,"connected_time":2115000000000,"state":"active","ping":75},{"user_id":183,"name":"bcizzo","steam_id":76561197994399953,"connected_time":484000000000,"state":"active","ping":60},{"user_id":166,"name":"RagingRoosevelt","steam_id":76561197985483153,"connected_time":1735000000000,"state":"active","ping":75},{"user_id":154,"name":"Aibroc","steam_id":76561199164997748,"connected_time":2050000000000,"state":"active","ping":62},{"user_id":160,"name":"BertWert","steam_id":76561198308277681,"connected_time":1834000000000,"state":"active","ping":102},{"user_id":173,"name":"C O M F Y","steam_id":76561198072101210,"connected_time":1641000000000,"state":"active","ping":114},{"user_id":162,"name":"p9 jorts","steam_id":76561199041179985,"connected_time":1788000000000,"state":"active","ping":93},{"user_id":144,"name":"Power Jake","steam_id":76561198051510260,"connected_time":2573000000000,"state":"active","ping":60},{"user_id":178,"name":"Frazzer","steam_id":76561198088679707,"connected_time":781000000000,"state":"active","ping":45},{"user_id":177,"name":"Korn Dawg","steam_id":76561198026941076,"connected_time":1328000000000,"state":"active","ping":41},{"user_id":165,"name":"Major_Pippy","steam_id":76561198004482878,"connected_time":1746000000000,"state":"active","ping":69},{"user_id":180,"name":"Drakon","steam_id":76561198078210822,"connected_time":747000000000,"state":"active","ping":64},{"user_id":168,"name":"noblehallett","steam_id":76561197990994280,"connected_time":1729000000000,"state":"active","ping":88},{"user_id":182,"name":"Cheesed Burger","steam_id":76561198066425198,"connected_time":708000000000,"state":"active","ping":54},{"user_id":185,"name":"HAT-WEARING™ Maggot Gamer Cat","steam_id":76561197973992705,"connected_time":108000000000,"state":"active","ping":70},{"user_id":171,"name":"Babyface","steam_id":76561199240579044,"connected_time":1702000000000,"state":"active","ping":78},{"user_id":146,"name":"Cave Dweller","steam_id":76561198374825685,"connected_time":2524000000000,"state":"active","ping":73},{"user_id":172,"name":"BERLIN BAEST","steam_id":76561199407580843,"connected_time":1658000000000,"state":"active","ping":67},{"user_id":186,"name":"SadChicken λ","steam_id":76561198082458968,"connected_time":92000000000,"state":"active","ping":67},{"user_id":184,"name":"Wool","steam_id":76561198332704108,"connected_time":289000000000,"state":"active","ping":107}]},{"server_id":112,"name":"Uncletopia | Los Angeles | 2 | All Maps","name_short":"lax-2","host":"lax-1.us.uncletopia.com","port":27025,"enabled":true,"region":"us-west","cc":"us","latitude":33.94279,"longitude":-118.41004,"reserved":0,"last_update":"0001-01-01T00:00:00Z","name_a2s":"Uncletopia | Los Angeles | 2 | All Maps","protocol":17,"map":"koth_harvest_final","folder":"tf","game":"Team Fortress","app_id":440,"player_count":22,"max_players":24,"Bots":0,"server_type":"Dedicated","server_os":"Linux","password":true,"vac":true,"version":"7882260","steam_id":85568392924469992,"keywords":["cp","nocrits","nodmgspread","uncletopia"],"game_id":440,"stv_port":27026,"stv_name":"Uncletopia | Los Angeles | 2 | All Maps | STV","players":[{"user_id":285,"name":"cielael","steam_id":76561198043971956,"connected_time":3544000000000,"state":"active","ping":44},{"user_id":304,"name":"OneLess","steam_id":76561198150870338,"connected_time":1574000000000,"state":"active","ping":100},{"user_id":284,"name":"Scorpianswag","steam_id":76561198260651036,"connected_time":3575000000000,"state":"active","ping":39},{"user_id":286,"name":"gatorbelt","steam_id":76561198145784505,"connected_time":3532000000000,"state":"active","ping":33},{"user_id":176,"name":"DrWilloughby","steam_id":76561198095260357,"connected_time":11734000000000,"state":"active","ping":70},{"user_id":317,"name":"Blitzy","steam_id":76561198149472890,"connected_time":78000000000,"state":"active","ping":92},{"user_id":299,"name":"BlitzTheBlock","steam_id":76561198239546394,"connected_time":2212000000000,"state":"active","ping":56},{"user_id":318,"name":"philio2010","steam_id":76561199086384636,"connected_time":16000000000,"state":"spawning","ping":47},{"user_id":277,"name":"danny screamo","steam_id":76561198064312388,"connected_time":4505000000000,"state":"active","ping":69},{"user_id":316,"name":"SCUD missile up your ass","steam_id":76561198066452726,"connected_time":127000000000,"state":"active","ping":49},{"user_id":267,"name":"Overhead","steam_id":76561199121968852,"connected_time":5946000000000,"state":"active","ping":128},{"user_id":225,"name":"HooDoo","steam_id":76561198088994018,"connected_time":8128000000000,"state":"active","ping":79},{"user_id":290,"name":"Mom","steam_id":76561198207936000,"connected_time":2743000000000,"state":"active","ping":44},{"user_id":288,"name":"MasterCrafter27","steam_id":76561198151035981,"connected_time":2904000000000,"state":"active","ping":80},{"user_id":315,"name":"jBracko","steam_id":76561198019261602,"connected_time":621000000000,"state":"active","ping":46},{"user_id":301,"name":"flo rida","steam_id":76561198226169704,"connected_time":2194000000000,"state":"active","ping":59},{"user_id":302,"name":"riSygneD","steam_id":76561198331618687,"connected_time":2192000000000,"state":"active","ping":39},{"user_id":293,"name":"venomew2","steam_id":76561198327081077,"connected_time":2443000000000,"state":"active","ping":93},{"user_id":312,"name":"Avem","steam_id":76561198058763710,"connected_time":1299000000000,"state":"active","ping":46},{"user_id":233,"name":"Psych03","steam_id":76561198061753667,"connected_time":7945000000000,"state":"active","ping":116},{"user_id":310,"name":"Drake from State Farm","steam_id":76561199069029812,"connected_time":1377000000000,"state":"active","ping":73},{"user_id":269,"name":"Raydn","steam_id":76561198418414338,"connected_time":5868000000000,"state":"active","ping":90}]},{"server_id":324,"name":"Uncletopia | Los Angeles | 3 | All Maps","name_short":"lax-3","host":"lax-1.us.uncletopia.com","port":27035,"enabled":true,"region":"us-west","cc":"us","latitude":33.94279,"longitude":-118.41004,"reserved":0,"last_update":"0001-01-01T00:00:00Z","name_a2s":"Uncletopia | Los Angeles | 3 | All Maps","protocol":17,"map":"pl_goldrush","folder":"tf","game":"Team Fortress","app_id":440,"player_count":24,"max_players":24,"Bots":0,"server_type":"Dedicated","server_os":"Linux","password":true,"vac":true,"version":"7882260","steam_id":85568392924510198,"keywords":["nocrits","nodmgspread","payload","uncletopia"],"game_id":440,"stv_port":27036,"stv_name":"Uncletopia | Los Angeles | 3 | All Maps | STV","players":[{"user_id":138,"name":"ronald","steam_id":76561197960691622,"connected_time":772000000000,"state":"active","ping":64},{"user_id":58,"name":"GrayHexos","steam_id":76561198328544460,"connected_time":9223000000000,"state":"active","ping":112},{"user_id":113,"name":"Tazaran","steam_id":76561198044002033,"connected_time":3378000000000,"state":"active","ping":66},{"user_id":116,"name":"stinky fresh","steam_id":76561198004022947,"connected_time":3264000000000,"state":"active","ping":73},{"user_id":148,"name":"Cheetose Intolerant","steam_id":76561198013399809,"connected_time":120000000000,"state":"active","ping":57},{"user_id":142,"name":"Tom Morello","steam_id":76561198087574100,"connected_time":328000000000,"state":"active","ping":56},{"user_id":101,"name":"Mycelius","steam_id":76561198324811385,"connected_time":5402000000000,"state":"active","ping":56},{"user_id":144,"name":"Amogous Supreme","steam_id":76561198025476774,"connected_time":268000000000,"state":"active","ping":57},{"user_id":152,"name":"Sleempreem","steam_id":76561198131987251,"connected_time":32000000000,"state":"active","ping":30},{"user_id":149,"name":"hannah1","steam_id":76561198094801861,"connected_time":105000000000,"state":"active","ping":74},{"user_id":54,"name":"Grand","steam_id":76561198290143399,"connected_time":9586000000000,"state":"active","ping":81},{"user_id":133,"name":"Silent","steam_id":76561198083647436,"connected_time":1374000000000,"state":"active","ping":89},{"user_id":136,"name":"› We Are You.j2 [NO SOUND]","steam_id":76561197995242200,"connected_time":965000000000,"state":"active","ping":58},{"user_id":124,"name":"PinguEnjoyer6","steam_id":76561199186723516,"connected_time":1743000000000,"state":"active","ping":42},{"user_id":137,"name":"Dambranlui16","steam_id":76561198984729069,"connected_time":782000000000,"state":"active","ping":117},{"user_id":88,"name":"...","steam_id":76561198121508845,"connected_time":6969000000000,"state":"active","ping":59},{"user_id":126,"name":"RaTtYc","steam_id":76561198954419354,"connected_time":1674000000000,"state":"active","ping":78},{"user_id":150,"name":"TheoneandOnlyAnt","steam_id":76561199227244919,"connected_time":102000000000,"state":"active","ping":127},{"user_id":147,"name":"bobbymcbobington","steam_id":76561199089411172,"connected_time":221000000000,"state":"active","ping":155},{"user_id":153,"name":"Fluffy","steam_id":76561198213561811,"connected_time":15000000000,"state":"spawning","ping":51},{"user_id":115,"name":"the hunchback of gay paris","steam_id":76561197987056308,"connected_time":3342000000000,"state":"active","ping":53},{"user_id":146,"name":"StarGuyVI","steam_id":76561199366304746,"connected_time":223000000000,"state":"active","ping":108},{"user_id":130,"name":"Noremac_","steam_id":76561198074701001,"connected_time":1611000000000,"state":"active","ping":142},{"user_id":52,"name":"Truffles","steam_id":76561198095868800,"connected_time":9765000000000,"state":"active","ping":97}]},{"server_id":25,"name":"Uncletopia | Los Angeles | 4 | Stopwatch Beta","name_short":"lax-4","host":"lax-1.us.uncletopia.com","port":27045,"enabled":true,"region":"us-west","cc":"us","latitude":33.94279,"longitude":-118.41004,"reserved":0,"last_update":"0001-01-01T00:00:00Z","name_a2s":"Uncletopia | Los Angeles | 4 | Stopwatch Beta","protocol":17,"map":"koth_viaduct","folder":"tf","game":"Team Fortress","app_id":440,"player_count":0,"max_players":24,"Bots":0,"server_type":"Dedicated","server_os":"Linux","password":true,"vac":true,"version":"7882260","steam_id":85568392924510199,"keywords":["cp","nocrits","nodmgspread","uncletopia"],"game_id":440,"stv_port":27046,"stv_name":"Uncletopia | Los Angeles | 4 | Stopwatch Beta | STV","players":null},{"server_id":11,"name":"Uncletopia | London | 1 | All Maps","name_short":"lon-1","host":"lon-1.uk.uncletopia.com","port":27015,"enabled":true,"region":"eu","cc":"gb","latitude":51.509865,"longitude":-0.118092,"reserved":0,"last_update":"0001-01-01T00:00:00Z","name_a2s":"Uncletopia | London | 1 | All Maps","protocol":17,"map":"koth_lakeside_final","folder":"tf","game":"Team Fortress","app_id":440,"player_count":0,"max_players":24,"Bots":0,"server_type":"Dedicated","server_os":"Linux","password":true,"vac":true,"version":"7882260","steam_id":85568392924367362,"keywords":["cp","nocrits","nodmgspread","uncletopia"],"game_id":440,"stv_port":27016,"stv_name":"Uncletopia | London | 1 | All Maps | STV","players":null},{"server_id":114,"name":"Uncletopia | London | 2 | All Maps","name_short":"lon-2","host":"lon-1.uk.uncletopia.com","port":27025,"enabled":true,"region":"eu","cc":"gb","latitude":51.509865,"longitude":-0.118092,"reserved":0,"last_update":"0001-01-01T00:00:00Z","name_a2s":"Uncletopia | London | 2 | All Maps","protocol":17,"map":"ctf_2fort","folder":"tf","game":"Team Fortress","app_id":440,"player_count":19,"max_players":24,"Bots":0,"server_type":"Dedicated","server_os":"Linux","password":true,"vac":true,"version":"7882260","steam_id":85568392924470941,"keywords":["ctf","nocrits","nodmgspread","uncletopia"],"game_id":440,"stv_port":27026,"stv_name":"Uncletopia | London | 2 | All Maps | STV","players":[{"user_id":965,"name":"gman borat","steam_id":76561198041051148,"connected_time":21000000000,"state":"spawning","ping":45},{"user_id":916,"name":"Devious","steam_id":76561198035576811,"connected_time":4142000000000,"state":"active","ping":62},{"user_id":926,"name":"MarkBV","steam_id":76561198427014506,"connected_time":3048000000000,"state":"active","ping":134},{"user_id":939,"name":"snowycoast","steam_id":76561198346638308,"connected_time":2168000000000,"state":"active","ping":54},{"user_id":956,"name":"m4thematics","steam_id":76561198035512093,"connected_time":712000000000,"state":"active","ping":45},{"user_id":957,"name":"jonbob","steam_id":76561197963506620,"connected_time":666000000000,"state":"active","ping":52},{"user_id":930,"name":"fettos vän","steam_id":76561199258890641,"connected_time":2612000000000,"state":"active","ping":71},{"user_id":959,"name":"Salesman Doren","steam_id":76561198076098142,"connected_time":411000000000,"state":"active","ping":38},{"user_id":853,"name":"Jiipeeze","steam_id":76561198316154333,"connected_time":8824000000000,"state":"active","ping":88},{"user_id":938,"name":"Cosmetic brain","steam_id":76561198055936410,"connected_time":2253000000000,"state":"active","ping":75},{"user_id":960,"name":"Bada Bing!","steam_id":76561198073332036,"connected_time":338000000000,"state":"active","ping":105},{"user_id":941,"name":"Luigi","steam_id":76561199194954220,"connected_time":1802000000000,"state":"active","ping":68},{"user_id":942,"name":"Zygocact","steam_id":76561197990776598,"connected_time":1799000000000,"state":"active","ping":138},{"user_id":944,"name":"drako","steam_id":76561198133024493,"connected_time":1700000000000,"state":"active","ping":131},{"user_id":962,"name":"Fly Like A Bird","steam_id":76561199384861214,"connected_time":247000000000,"state":"active","ping":137},{"user_id":963,"name":"on that weebshit","steam_id":76561199474448245,"connected_time":213000000000,"state":"active","ping":89},{"user_id":948,"name":"TF2Girl","steam_id":76561198061437907,"connected_time":1487000000000,"state":"active","ping":97},{"user_id":949,"name":"The destroyer of foreskin","steam_id":76561198135275966,"connected_time":1430000000000,"state":"active","ping":151},{"user_id":964,"name":"spxcy","steam_id":76561198080296853,"connected_time":159000000000,"state":"active","ping":99}]},{"server_id":320,"name":"Uncletopia | London | 3 | All Maps","name_short":"lon-3","host":"lon-1.uk.uncletopia.com","port":27035,"enabled":true,"region":"eu","cc":"gb","latitude":51.509865,"longitude":-0.118092,"reserved":0,"last_update":"0001-01-01T00:00:00Z","name_a2s":"Uncletopia | London | 3 | All Maps","protocol":17,"map":"pl_pier","folder":"tf","game":"Team Fortress","app_id":440,"player_count":0,"max_players":24,"Bots":0,"server_type":"Dedicated","server_os":"Linux","password":true,"vac":true,"version":"7882260","steam_id":85568392924510192,"keywords":["nocrits","nodmgspread","payload","uncletopia"],"game_id":440,"stv_port":27036,"stv_name":"Uncletopia | London | 3 | All Maps | STV","players":null},{"server_id":321,"name":"Uncletopia | London | 4 | All Maps","name_short":"lon-4","host":"lon-1.uk.uncletopia.com","port":27045,"enabled":true,"region":"eu","cc":"gb","latitude":51.509865,"longitude":-0.118092,"reserved":0,"last_update":"0001-01-01T00:00:00Z","name_a2s":"Uncletopia | London | 4 | All Maps","protocol":17,"map":"cp_sunshine","folder":"tf","game":"Team Fortress","app_id":440,"player_count":0,"max_players":24,"Bots":0,"server_type":"Dedicated","server_os":"Linux","password":true,"vac":true,"version":"7882260","steam_id":85568392924510193,"keywords":["cp","nocrits","nodmgspread","uncletopia"],"game_id":440,"stv_port":27046,"stv_name":"Uncletopia | London | 4 | All Maps | STV","players":null},{"server_id":21,"name":"Uncletopia | London | 5 | All Maps","name_short":"lon-5","host":"lon-1.uk.uncletopia.com","port":27055,"enabled":true,"region":"eu","cc":"gb","latitude":51.509865,"longitude":-0.118092,"reserved":0,"last_update":"0001-01-01T00:00:00Z","name_a2s":"Uncletopia | London | 5 | All Maps","protocol":17,"map":"cp_dustbowl","folder":"tf","game":"Team Fortress","app_id":440,"player_count":0,"max_players":24,"Bots":0,"server_type":"Dedicated","server_os":"Linux","password":true,"vac":true,"version":"7882260","steam_id":85568392924742829,"keywords":["cp","nocrits","nodmgspread","uncletopia"],"game_id":440,"stv_port":27056,"stv_name":"Uncletopia | London | 5 | All Maps | STV","players":null},{"server_id":22,"name":"Uncletopia | London | 6 | All Maps","name_short":"lon-6","host":"lon-1.uk.uncletopia.com","port":27065,"enabled":true,"region":"eu","cc":"gb","latitude":51.509865,"longitude":-0.118092,"reserved":0,"last_update":"0001-01-01T00:00:00Z","name_a2s":"Uncletopia | London | 6 | All Maps","protocol":17,"map":"koth_cascade","folder":"tf","game":"Team Fortress","app_id":440,"player_count":0,"max_players":24,"Bots":0,"server_type":"Dedicated","server_os":"Linux","password":true,"vac":true,"version":"7882260","steam_id":85568392924742830,"keywords":["cp","nocrits","nodmgspread","uncletopia"],"game_id":440,"stv_port":27066,"stv_name":"Uncletopia | London | 6 | All Maps | STV","players":null},{"server_id":40,"name":"Uncletopia | London | 7 | No Payload","name_short":"lon-7","host":"lon-1.uk.uncletopia.com","port":27075,"enabled":true,"region":"eu","cc":"gb","latitude":51.509865,"longitude":-0.118092,"reserved":0,"last_update":"0001-01-01T00:00:00Z","name_a2s":"Uncletopia | London | 7 | No Payload","protocol":17,"map":"koth_harvest_final","folder":"tf","game":"Team Fortress","app_id":440,"player_count":0,"max_players":24,"Bots":0,"server_type":"Dedicated","server_os":"Linux","password":true,"vac":true,"version":"7882260","steam_id":85568392924964314,"keywords":["cp","nocrits","nodmgspread","uncletopia"],"game_id":440,"stv_port":27076,"stv_name":"Uncletopia | London | 7 | No Payload | STV","players":null},{"server_id":41,"name":"Uncletopia | London | 8 | Community","name_short":"lon-8","host":"lon-1.uk.uncletopia.com","port":27085,"enabled":true,"region":"eu","cc":"gb","latitude":51.509865,"longitude":-0.118092,"reserved":0,"last_update":"0001-01-01T00:00:00Z","name_a2s":"Uncletopia | London | 8 | Community","protocol":17,"map":"workshop/koth_bagel_rc6.ugc2514036946","folder":"tf","game":"Team Fortress","app_id":440,"player_count":0,"max_players":24,"Bots":0,"server_type":"Dedicated","server_os":"Linux","password":true,"vac":true,"version":"7882260","steam_id":85568392924964315,"keywords":["cp","nocrits","nodmgspread","uncletopia"],"game_id":440,"stv_port":27086,"stv_name":"Uncletopia | London | 8 | Community | STV","players":null},{"server_id":300,"name":"Uncletopia | Montréal | 1 | All Maps","name_short":"mtl-1","host":"mtl-1.ca.uncletopia.com","port":27015,"enabled":true,"region":"us-east","cc":"ca","latitude":45.50889,"longitude":-73.56167,"reserved":0,"last_update":"0001-01-01T00:00:00Z","name_a2s":"Uncletopia | Montréal | 1 | All Maps","protocol":17,"map":"cp_mountainlab","folder":"tf","game":"Team Fortress","app_id":440,"player_count":6,"max_players":24,"Bots":0,"server_type":"Dedicated","server_os":"Linux","password":true,"vac":true,"version":"7882260","steam_id":85568392924500087,"keywords":["cp","nocrits","nodmgspread","uncletopia"],"game_id":440,"stv_port":27016,"stv_name":"Uncletopia | Montréal | 1 | All Maps | STV","players":[{"user_id":202,"name":"BÉBÉ BOSS","steam_id":76561198072893379,"connected_time":1872000000000,"state":"active","ping":49},{"user_id":198,"name":"Lumi","steam_id":76561198089978036,"connected_time":2359000000000,"state":"active","ping":64},{"user_id":207,"name":"Moonadoo","steam_id":76561198133377546,"connected_time":1192000000000,"state":"active","ping":84},{"user_id":208,"name":"Cornelius","steam_id":76561198123447388,"connected_time":65000000000,"state":"active","ping":64},{"user_id":204,"name":"A Zillion dollars","steam_id":76561198846276351,"connected_time":1507000000000,"state":"active","ping":81},{"user_id":168,"name":"Ceej","steam_id":76561198416822503,"connected_time":5611000000000,"state":"active","ping":83}]},{"server_id":301,"name":"Uncletopia | Montréal | 2 | All Maps","name_short":"mtl-2","host":"mtl-1.ca.uncletopia.com","port":27025,"enabled":true,"region":"us-east","cc":"ca","latitude":45.50889,"longitude":-73.56167,"reserved":0,"last_update":"0001-01-01T00:00:00Z","name_a2s":"Uncletopia | Montréal | 2 | All Maps","protocol":17,"map":"cp_process_final","folder":"tf","game":"Team Fortress","app_id":440,"player_count":0,"max_players":24,"Bots":0,"server_type":"Dedicated","server_os":"Linux","password":true,"vac":true,"version":"7882260","steam_id":85568392924500088,"keywords":["cp","nocrits","nodmgspread","uncletopia"],"game_id":440,"stv_port":27026,"stv_name":"Uncletopia | Montréal | 2 | All Maps | STV","players":null},{"server_id":302,"name":"Uncletopia | Montréal | 3 | All Maps","name_short":"mtl-3","host":"mtl-1.ca.uncletopia.com","port":27035,"enabled":true,"region":"us-east","cc":"ca","latitude":45.50889,"longitude":-73.56167,"reserved":0,"last_update":"0001-01-01T00:00:00Z","name_a2s":"Uncletopia | Montréal | 3 | All Maps","protocol":17,"map":"koth_highpass","folder":"tf","game":"Team Fortress","app_id":440,"player_count":0,"max_players":24,"Bots":0,"server_type":"Dedicated","server_os":"Linux","password":true,"vac":true,"version":"7882260","steam_id":85568392924500089,"keywords":["cp","nocrits","nodmgspread","uncletopia"],"game_id":440,"stv_port":27036,"stv_name":"Uncletopia | Montréal | 3 | All Maps | STV","players":null},{"server_id":303,"name":"Uncletopia | Montréal | 4 | No Payload","name_short":"mtl-4","host":"mtl-1.ca.uncletopia.com","port":27045,"enabled":true,"region":"us-east","cc":"ca","latitude":45.50889,"longitude":-73.56167,"reserved":0,"last_update":"0001-01-01T00:00:00Z","name_a2s":"Uncletopia | Montréal | 4 | No Payload","protocol":17,"map":"koth_highpass","folder":"tf","game":"Team Fortress","app_id":440,"player_count":0,"max_players":24,"Bots":0,"server_type":"Dedicated","server_os":"Linux","password":true,"vac":true,"version":"7882260","steam_id":85568392924500090,"keywords":["cp","nocrits","nodmgspread","uncletopia"],"game_id":440,"stv_port":27046,"stv_name":"Uncletopia | Montréal | 4 | No Payload | STV","players":null},{"server_id":13,"name":"Uncletopia | New York City | 1 | All Maps","name_short":"nyc-1","host":"nyc-1.us.uncletopia.com","port":27015,"enabled":true,"region":"us-east","cc":"us","latitude":40.73061,"longitude":-73.93524,"reserved":0,"last_update":"0001-01-01T00:00:00Z","name_a2s":"Uncletopia | New York City | 1 | All Maps","protocol":17,"map":"cp_dustbowl","folder":"tf","game":"Team Fortress","app_id":440,"player_count":24,"max_players":24,"Bots":0,"server_type":"Dedicated","server_os":"Linux","password":true,"vac":true,"version":"7882260","steam_id":85568392924469993,"keywords":["cp","nocrits","nodmgspread","uncletopia"],"game_id":440,"stv_port":27016,"stv_name":"Uncletopia | New York City | 1 | All Maps | STV","players":[{"user_id":569,"name":"hashmap","steam_id":76561198043794014,"connected_time":1024000000000,"state":"active","ping":60},{"user_id":582,"name":"RaixaR","steam_id":76561198025289430,"connected_time":527000000000,"state":"active","ping":101},{"user_id":566,"name":"Monkey Mode","steam_id":76561197961267543,"connected_time":1112000000000,"state":"active","ping":71},{"user_id":574,"name":"GOLDIE","steam_id":76561199375258674,"connected_time":906000000000,"state":"active","ping":111},{"user_id":560,"name":"Isilawuli","steam_id":76561198084150503,"connected_time":1389000000000,"state":"active","ping":44},{"user_id":570,"name":"MStoving","steam_id":76561198001244476,"connected_time":1018000000000,"state":"active","ping":119},{"user_id":516,"name":"echo","steam_id":76561199411724732,"connected_time":5761000000000,"state":"active","ping":39},{"user_id":556,"name":"Captain Zyrin","steam_id":76561197983121824,"connected_time":1551000000000,"state":"active","ping":89},{"user_id":571,"name":"rice","steam_id":76561198119326733,"connected_time":999000000000,"state":"active","ping":90},{"user_id":438,"name":"SHADY SWEATER SALESMAN","steam_id":76561198014616865,"connected_time":14876000000000,"state":"active","ping":59},{"user_id":572,"name":"Dr. Lisa Su","steam_id":76561197992192716,"connected_time":957000000000,"state":"active","ping":129},{"user_id":581,"name":"Yoloisnotded","steam_id":76561198995043589,"connected_time":591000000000,"state":"active","ping":104},{"user_id":544,"name":"Truffleoil","steam_id":76561198114689041,"connected_time":2532000000000,"state":"active","ping":56},{"user_id":576,"name":"OrochiBman","steam_id":76561197979282421,"connected_time":812000000000,"state":"active","ping":126},{"user_id":555,"name":"sqerkbo","steam_id":76561198080012700,"connected_time":1599000000000,"state":"active","ping":44},{"user_id":577,"name":"Goat","steam_id":76561198068447650,"connected_time":795000000000,"state":"active","ping":100},{"user_id":539,"name":"Little Minty","steam_id":76561198070061535,"connected_time":3174000000000,"state":"active","ping":91},{"user_id":528,"name":"Sully","steam_id":76561198055418425,"connected_time":4186000000000,"state":"active","ping":94},{"user_id":578,"name":"Phillip Jeffries","steam_id":76561198064052174,"connected_time":790000000000,"state":"active","ping":56},{"user_id":583,"name":"Rallo","steam_id":76561198324357861,"connected_time":409000000000,"state":"active","ping":60},{"user_id":584,"name":"Trusty","steam_id":76561198123441319,"connected_time":2000000000,"state":"spawning","ping":56},{"user_id":545,"name":"scarecrow (kind and good)","steam_id":76561198082979347,"connected_time":2496000000000,"state":"active","ping":59},{"user_id":554,"name":"flamingcookies","steam_id":76561198280864779,"connected_time":1766000000000,"state":"active","ping":65},{"user_id":580,"name":"trobin120","steam_id":76561199122420273,"connected_time":682000000000,"state":"active","ping":57}]},{"server_id":14,"name":"Uncletopia | New York City | 2 | All Maps","name_short":"nyc-2","host":"nyc-1.us.uncletopia.com","port":27025,"enabled":true,"region":"us-east","cc":"us","latitude":40.73061,"longitude":-73.93524,"reserved":0,"last_update":"0001-01-01T00:00:00Z","name_a2s":"Uncletopia | New York City | 2 | All Maps","protocol":17,"map":"pl_snowycoast","folder":"tf","game":"Team Fortress","app_id":440,"player_count":24,"max_players":24,"Bots":0,"server_type":"Dedicated","server_os":"Linux","password":true,"vac":true,"version":"7882260","steam_id":85568392924469994,"keywords":["nocrits","nodmgspread","payload","uncletopia"],"game_id":440,"stv_port":27026,"stv_name":"Uncletopia | New York City | 2 | All Maps | STV","players":[{"user_id":492,"name":"Red Hot Fish Princess [Dexgod]","steam_id":76561198017130786,"connected_time":793000000000,"state":"active","ping":70},{"user_id":474,"name":"Hydrochlorination","steam_id":76561198369241423,"connected_time":1779000000000,"state":"active","ping":84},{"user_id":493,"name":"thecal","steam_id":76561198307893384,"connected_time":365000000000,"state":"active","ping":69},{"user_id":485,"name":"Poonzy","steam_id":76561198120367815,"connected_time":1299000000000,"state":"active","ping":60},{"user_id":408,"name":"Tan_Rat","steam_id":76561198313629344,"connected_time":6761000000000,"state":"active","ping":102},{"user_id":391,"name":"Periculosum PhD in Funny","steam_id":76561198123370914,"connected_time":8564000000000,"state":"active","ping":88},{"user_id":438,"name":"WALL-E","steam_id":76561198154701370,"connected_time":4778000000000,"state":"active","ping":69},{"user_id":472,"name":"Neltron","steam_id":76561199383809027,"connected_time":2310000000000,"state":"active","ping":62},{"user_id":481,"name":"Anax Alter","steam_id":76561198110249546,"connected_time":1543000000000,"state":"active","ping":42},{"user_id":484,"name":"Gamba","steam_id":76561198069264650,"connected_time":1324000000000,"state":"active","ping":81},{"user_id":470,"name":"Aloha :3","steam_id":76561198148517055,"connected_time":2346000000000,"state":"active","ping":120},{"user_id":496,"name":"you are amazing!","steam_id":76561198102681457,"connected_time":77000000000,"state":"active","ping":88},{"user_id":416,"name":"Player","steam_id":76561199482290132,"connected_time":6213000000000,"state":"active","ping":45},{"user_id":451,"name":"Marshall","steam_id":76561198042570322,"connected_time":4178000000000,"state":"active","ping":74},{"user_id":418,"name":"TOYSIPO2","steam_id":76561198042183304,"connected_time":6204000000000,"state":"active","ping":47},{"user_id":495,"name":"it's peanut time","steam_id":76561198236028020,"connected_time":290000000000,"state":"active","ping":110},{"user_id":490,"name":"emseaeye","steam_id":76561198161499803,"connected_time":891000000000,"state":"active","ping":59},{"user_id":473,"name":"Jill Sandwich","steam_id":76561198841783789,"connected_time":1852000000000,"state":"active","ping":43},{"user_id":482,"name":"K O I S H I V I B E [F2P]","steam_id":76561198418070607,"connected_time":1345000000000,"state":"active","ping":118},{"user_id":491,"name":"MENTAL ATHLETE","steam_id":76561198100942212,"connected_time":815000000000,"state":"active","ping":82},{"user_id":406,"name":"Chhaam","steam_id":76561198058508132,"connected_time":6940000000000,"state":"active","ping":44},{"user_id":494,"name":"Dreamzapp","steam_id":76561199084936632,"connected_time":345000000000,"state":"active","ping":128},{"user_id":489,"name":"TheGhostThatWas","steam_id":76561198055836483,"connected_time":1067000000000,"state":"active","ping":45},{"user_id":483,"name":"Trepan Stan","steam_id":76561198103243847,"connected_time":1329000000000,"state":"active","ping":71}]},{"server_id":15,"name":"Uncletopia | New York City | 3 | Stopwatch Beta","name_short":"nyc-3","host":"nyc-1.us.uncletopia.com","port":27035,"enabled":true,"region":"us-east","cc":"us","latitude":40.73061,"longitude":-73.93524,"reserved":0,"last_update":"0001-01-01T00:00:00Z","name_a2s":"Uncletopia | New York City | 3 | Stopwatch Beta","protocol":17,"map":"pl_borneo","folder":"tf","game":"Team Fortress","app_id":440,"player_count":0,"max_players":24,"Bots":0,"server_type":"Dedicated","server_os":"Linux","password":true,"vac":true,"version":"7882260","steam_id":85568392924742820,"keywords":["nocrits","nodmgspread","payload","uncletopia"],"game_id":440,"stv_port":27036,"stv_name":"Uncletopia | New York City | 3 | Stopwatch Beta | STV","players":null},{"server_id":16,"name":"Uncletopia | New York City | 4 | Community","name_short":"nyc-4","host":"nyc-1.us.uncletopia.com","port":27045,"enabled":true,"region":"us-east","cc":"us","latitude":40.73061,"longitude":-73.93524,"reserved":0,"last_update":"0001-01-01T00:00:00Z","name_a2s":"Uncletopia | New York City | 4 | Community","protocol":17,"map":"workshop/koth_product_final.ugc454272353","folder":"tf","game":"Team Fortress","app_id":440,"player_count":23,"max_players":24,"Bots":0,"server_type":"Dedicated","server_os":"Linux","password":true,"vac":true,"version":"7882260","steam_id":85568392924742821,"keywords":["cp","nocrits","nodmgspread","uncletopia"],"game_id":440,"stv_port":27046,"stv_name":"Uncletopia | New York City | 4 | Community | STV","players":[{"user_id":180,"name":"Cooldog","steam_id":76561198080548713,"connected_time":2426000000000,"state":"active","ping":56},{"user_id":199,"name":"A Cranky Cassowary","steam_id":76561198037372342,"connected_time":1318000000000,"state":"active","ping":80},{"user_id":194,"name":"JollyVG","steam_id":76561198044919633,"connected_time":1564000000000,"state":"active","ping":70},{"user_id":195,"name":"drdoofus123","steam_id":76561198016826181,"connected_time":1444000000000,"state":"active","ping":73},{"user_id":143,"name":"MagikarpEX","steam_id":76561198166172279,"connected_time":5474000000000,"state":"active","ping":54},{"user_id":177,"name":"Kaywan","steam_id":76561198068271015,"connected_time":2691000000000,"state":"active","ping":74},{"user_id":214,"name":"Genuine","steam_id":76561198253471115,"connected_time":52000000000,"state":"active","ping":59},{"user_id":148,"name":"rollypollyolie","steam_id":76561198039539380,"connected_time":4700000000000,"state":"active","ping":131},{"user_id":209,"name":"Farseer Ulwithy","steam_id":76561197965179245,"connected_time":295000000000,"state":"active","ping":117},{"user_id":196,"name":"All 24 Pokémon movies at once","steam_id":76561198164738311,"connected_time":1415000000000,"state":"active","ping":85},{"user_id":187,"name":"Versuski","steam_id":76561198085193084,"connected_time":2167000000000,"state":"active","ping":66},{"user_id":198,"name":"A Fool","steam_id":76561198029853893,"connected_time":1324000000000,"state":"active","ping":90},{"user_id":154,"name":"Black Chan","steam_id":76561198053355299,"connected_time":4359000000000,"state":"active","ping":103},{"user_id":200,"name":"Psychosis","steam_id":76561198078659070,"connected_time":1274000000000,"state":"active","ping":62},{"user_id":201,"name":"erf","steam_id":76561198078203677,"connected_time":1251000000000,"state":"active","ping":53},{"user_id":202,"name":"paste!","steam_id":76561198085388962,"connected_time":1236000000000,"state":"active","ping":66},{"user_id":212,"name":"Zerwee","steam_id":76561198181368101,"connected_time":182000000000,"state":"active","ping":145},{"user_id":211,"name":"pigfarmer.gov","steam_id":76561199071167548,"connected_time":200000000000,"state":"active","ping":76},{"user_id":213,"name":"Joey Lemons","steam_id":76561198068104187,"connected_time":173000000000,"state":"active","ping":45},{"user_id":208,"name":"xXur_m0m_g3yXx","steam_id":76561198061488151,"connected_time":398000000000,"state":"active","ping":79},{"user_id":204,"name":"Paul Allen","steam_id":76561198205346760,"connected_time":1232000000000,"state":"active","ping":60},{"user_id":205,"name":"Jerry?","steam_id":76561198046401833,"connected_time":1226000000000,"state":"active","ping":133},{"user_id":207,"name":"slow subaru driver","steam_id":76561198061552103,"connected_time":1042000000000,"state":"active","ping":60}]},{"server_id":142,"name":"Uncletopia | São Paulo | 1 | All Maps","name_short":"sao-1","host":"sao-1.br.uncletopia.com","port":27015,"enabled":true,"region":"sa","cc":"br","latitude":-23.533773,"longitude":-46.62529,"reserved":0,"last_update":"0001-01-01T00:00:00Z","name_a2s":"Uncletopia | São Paulo | 1 | All Maps","protocol":17,"map":"koth_nucleus","folder":"tf","game":"Team Fortress","app_id":440,"player_count":0,"max_players":24,"Bots":0,"server_type":"Dedicated","server_os":"Linux","password":true,"vac":true,"version":"7882260","steam_id":85568392924469996,"keywords":["cp","nocrits","nodmgspread","uncletopia"],"game_id":440,"stv_port":27016,"stv_name":"Uncletopia | São Paulo | 1 | All Maps | STV","players":null},{"server_id":143,"name":"Uncletopia | São Paulo | 2 | All Maps","name_short":"sao-2","host":"sao-2.br.uncletopia.com","port":27015,"enabled":true,"region":"sa","cc":"br","latitude":-23.533773,"longitude":-46.62529,"reserved":0,"last_update":"0001-01-01T00:00:00Z","name_a2s":"Uncletopia | São Paulo | 2 | All Maps","protocol":17,"map":"koth_highpass","folder":"tf","game":"Team Fortress","app_id":440,"player_count":0,"max_players":24,"Bots":0,"server_type":"Dedicated","server_os":"Linux","password":true,"vac":true,"version":"7882260","steam_id":85568392924485349,"keywords":["cp","nocrits","nodmgspread","uncletopia"],"game_id":440,"stv_port":27016,"stv_name":"Uncletopia | São Paulo | 2 | All Maps | STV","players":null},{"server_id":7,"name":"Uncletopia | Seattle | 1 | All Maps","name_short":"sea-1","host":"sea-1.us.uncletopia.com","port":27015,"enabled":true,"region":"us-west","cc":"us","latitude":47.608013,"longitude":-122.33517,"reserved":0,"last_update":"0001-01-01T00:00:00Z","name_a2s":"Uncletopia | Seattle | 1 | All Maps","protocol":17,"map":"pl_borneo","folder":"tf","game":"Team Fortress","app_id":440,"player_count":24,"max_players":24,"Bots":0,"server_type":"Dedicated","server_os":"Linux","password":true,"vac":true,"version":"7882260","steam_id":85568392924469997,"keywords":["nocrits","nodmgspread","payload","uncletopia"],"game_id":440,"stv_port":27016,"stv_name":"Uncletopia | Seattle | 1 | All Maps | STV","players":[{"user_id":676,"name":"Vincent Van Bro","steam_id":76561197966919802,"connected_time":3537000000000,"state":"active","ping":58},{"user_id":690,"name":"Jolly","steam_id":76561198116357972,"connected_time":2328000000000,"state":"active","ping":70},{"user_id":704,"name":"Henchie!","steam_id":76561198047567464,"connected_time":1152000000000,"state":"active","ping":189},{"user_id":716,"name":"quaq","steam_id":76561198059604047,"connected_time":197000000000,"state":"active","ping":36},{"user_id":715,"name":"MantisToboggan","steam_id":76561197969447887,"connected_time":207000000000,"state":"active","ping":69},{"user_id":717,"name":"Kiilys","steam_id":76561198326068377,"connected_time":173000000000,"state":"active","ping":100},{"user_id":697,"name":"Saccaed","steam_id":76561197977151640,"connected_time":1781000000000,"state":"active","ping":48},{"user_id":721,"name":"Ayayayayayahuasca","steam_id":76561199002906056,"connected_time":127000000000,"state":"active","ping":50},{"user_id":703,"name":"mike, ski bum","steam_id":76561198225411004,"connected_time":1305000000000,"state":"active","ping":66},{"user_id":705,"name":"sillymoder2005","steam_id":76561198202235495,"connected_time":748000000000,"state":"active","ping":37},{"user_id":722,"name":"Wheat","steam_id":76561198106270789,"connected_time":121000000000,"state":"active","ping":98},{"user_id":710,"name":"NEBULA","steam_id":76561198086878595,"connected_time":319000000000,"state":"active","ping":72},{"user_id":720,"name":"spenca","steam_id":76561198025371154,"connected_time":147000000000,"state":"active","ping":72},{"user_id":714,"name":"Stev the Prurient Oxymoron","steam_id":76561197999442625,"connected_time":219000000000,"state":"active","ping":65},{"user_id":637,"name":"evilOlive","steam_id":76561198106222025,"connected_time":7512000000000,"state":"active","ping":83},{"user_id":712,"name":"Drapph","steam_id":76561199384213314,"connected_time":228000000000,"state":"active","ping":119},{"user_id":711,"name":"dust | she/it","steam_id":76561198045218909,"connected_time":251000000000,"state":"active","ping":41},{"user_id":689,"name":"Catnap","steam_id":76561197991738817,"connected_time":2366000000000,"state":"active","ping":75},{"user_id":708,"name":"DaBigA","steam_id":76561198326492538,"connected_time":669000000000,"state":"active","ping":51},{"user_id":679,"name":"medd","steam_id":76561198078238722,"connected_time":3484000000000,"state":"active","ping":51},{"user_id":670,"name":"Keamy","steam_id":76561199471434875,"connected_time":4442000000000,"state":"active","ping":47},{"user_id":669,"name":"lusty","steam_id":76561198138478947,"connected_time":4627000000000,"state":"active","ping":43},{"user_id":674,"name":"Peppy","steam_id":76561198866629645,"connected_time":3847000000000,"state":"active","ping":60},{"user_id":713,"name":"NEЯO","steam_id":76561197965450216,"connected_time":224000000000,"state":"active","ping":67}]},{"server_id":119,"name":"Uncletopia | Seattle | 2 | All Maps","name_short":"sea-2","host":"sea-1.us.uncletopia.com","port":27025,"enabled":true,"region":"us-west","cc":"us","latitude":47.608013,"longitude":-122.33517,"reserved":0,"last_update":"0001-01-01T00:00:00Z","name_a2s":"Uncletopia | Seattle | 2 | All Maps","protocol":17,"map":"pl_frontier_final","folder":"tf","game":"Team Fortress","app_id":440,"player_count":24,"max_players":24,"Bots":0,"server_type":"Dedicated","server_os":"Linux","password":true,"vac":true,"version":"7882260","steam_id":85568392924469998,"keywords":["nocrits","nodmgspread","payload","uncletopia"],"game_id":440,"stv_port":27026,"stv_name":"Uncletopia | Seattle | 2 | All Maps | STV","players":[{"user_id":547,"name":"General Fisticuffs","steam_id":76561198255721392,"connected_time":927000000000,"state":"active","ping":114},{"user_id":546,"name":"Ridrum","steam_id":76561198191224478,"connected_time":1020000000000,"state":"active","ping":59},{"user_id":550,"name":"Mapachito Lindo","steam_id":76561198031359995,"connected_time":116000000000,"state":"active","ping":45},{"user_id":519,"name":"Imperial_Legacy","steam_id":76561198280099084,"connected_time":4104000000000,"state":"active","ping":109},{"user_id":483,"name":"Samvich","steam_id":76561198263319227,"connected_time":6489000000000,"state":"active","ping":57},{"user_id":544,"name":"Strikerbolt","steam_id":76561199095622897,"connected_time":1482000000000,"state":"active","ping":77},{"user_id":529,"name":"MayaBon","steam_id":76561198797968261,"connected_time":2813000000000,"state":"active","ping":59},{"user_id":538,"name":"krum","steam_id":76561198158910518,"connected_time":2266000000000,"state":"active","ping":72},{"user_id":540,"name":"PainInTheRuss","steam_id":76561197977960543,"connected_time":1958000000000,"state":"active","ping":61},{"user_id":507,"name":"PigeonBurd","steam_id":76561198118798394,"connected_time":5023000000000,"state":"active","ping":49},{"user_id":516,"name":"Blasterus","steam_id":76561198859486814,"connected_time":4397000000000,"state":"active","ping":128},{"user_id":539,"name":"SAP","steam_id":76561198005186905,"connected_time":2090000000000,"state":"active","ping":69},{"user_id":545,"name":"saina","steam_id":76561198057685475,"connected_time":1160000000000,"state":"active","ping":90},{"user_id":527,"name":"Tom Skirrett","steam_id":76561198014600788,"connected_time":3272000000000,"state":"active","ping":65},{"user_id":551,"name":"laggy mcstab","steam_id":76561198106379962,"connected_time":89000000000,"state":"active","ping":66},{"user_id":518,"name":"regular_consuelo","steam_id":76561198327831852,"connected_time":4316000000000,"state":"active","ping":125},{"user_id":504,"name":"TROY","steam_id":76561197983852176,"connected_time":5164000000000,"state":"active","ping":76},{"user_id":541,"name":"magunyamu","steam_id":76561198823083676,"connected_time":1875000000000,"state":"active","ping":86},{"user_id":552,"name":"❤ Ashley ❤","steam_id":76561198056428303,"connected_time":60000000000,"state":"active","ping":77},{"user_id":548,"name":"Elfy","steam_id":76561199166448617,"connected_time":616000000000,"state":"active","ping":60},{"user_id":473,"name":"A UsedNom","steam_id":76561198402832756,"connected_time":6910000000000,"state":"active","ping":71},{"user_id":533,"name":"R5-D4","steam_id":76561198025196439,"connected_time":2421000000000,"state":"active","ping":55},{"user_id":508,"name":"super smash2josh","steam_id":76561198140864125,"connected_time":4930000000000,"state":"active","ping":66},{"user_id":549,"name":"bubblebunz","steam_id":76561198391984788,"connected_time":459000000000,"state":"active","ping":68}]},{"server_id":406,"name":"Uncletopia | Seattle | 3 | Stopwatch Beta","name_short":"sea-3","host":"sea-1.us.uncletopia.com","port":27035,"enabled":true,"region":"us-west","cc":"us","latitude":47.608013,"longitude":-122.33517,"reserved":0,"last_update":"0001-01-01T00:00:00Z","name_a2s":"Uncletopia | Seattle | 3 | Stopwatch Beta","protocol":17,"map":"workshop/koth_bagel_rc6.ugc2514036946","folder":"tf","game":"Team Fortress","app_id":440,"player_count":22,"max_players":24,"Bots":0,"server_type":"Dedicated","server_os":"Linux","password":true,"vac":true,"version":"7882260","steam_id":85568392924515217,"keywords":["cp","nocrits","nodmgspread","uncletopia"],"game_id":440,"stv_port":27036,"stv_name":"Uncletopia | Seattle | 3 | Stopwatch Beta | STV","players":[{"user_id":61,"name":"oo","steam_id":76561198119626492,"connected_time":1333000000000,"state":"active","ping":72},{"user_id":72,"name":"Vapor","steam_id":76561198850475407,"connected_time":512000000000,"state":"active","ping":110},{"user_id":69,"name":"Wick","steam_id":76561198090764386,"connected_time":584000000000,"state":"active","ping":126},{"user_id":62,"name":"semillams cuenta","steam_id":76561199223089296,"connected_time":1328000000000,"state":"active","ping":166},{"user_id":65,"name":"catrinaisahuman","steam_id":76561198281355729,"connected_time":1166000000000,"state":"active","ping":73},{"user_id":87,"name":"Wham Mistress","steam_id":76561198115422032,"connected_time":47000000000,"state":"active","ping":63},{"user_id":48,"name":"goldhed","steam_id":76561198051751133,"connected_time":3097000000000,"state":"active","ping":61},{"user_id":73,"name":"Mr_ShaDv","steam_id":76561199100386731,"connected_time":491000000000,"state":"active","ping":157},{"user_id":53,"name":"Petrivus","steam_id":76561198202152453,"connected_time":2037000000000,"state":"active","ping":53},{"user_id":74,"name":"James","steam_id":76561198041578404,"connected_time":452000000000,"state":"active","ping":138},{"user_id":77,"name":"mmmBoyo","steam_id":76561198821360261,"connected_time":295000000000,"state":"active","ping":54},{"user_id":75,"name":"firstlastmcgee","steam_id":76561198170187989,"connected_time":424000000000,"state":"active","ping":94},{"user_id":57,"name":"mafia is mafia","steam_id":76561198042574722,"connected_time":1796000000000,"state":"active","ping":49},{"user_id":76,"name":"CareFree Brie","steam_id":76561198868697407,"connected_time":340000000000,"state":"active","ping":72},{"user_id":70,"name":"johnman gooberguy","steam_id":76561199014859764,"connected_time":584000000000,"state":"active","ping":79},{"user_id":78,"name":"Sentient Trash Can","steam_id":76561199438622491,"connected_time":275000000000,"state":"active","ping":43},{"user_id":80,"name":"troutsupply.net | shitass","steam_id":76561198210572481,"connected_time":199000000000,"state":"active","ping":75},{"user_id":81,"name":"Special Gorilla","steam_id":76561198120705900,"connected_time":173000000000,"state":"active","ping":75},{"user_id":82,"name":"TheOnlyItchy","steam_id":76561198964202303,"connected_time":170000000000,"state":"active","ping":53},{"user_id":83,"name":"Antreuse","steam_id":76561198219721132,"connected_time":143000000000,"state":"active","ping":82},{"user_id":84,"name":"Geore","steam_id":76561198348274875,"connected_time":113000000000,"state":"active","ping":103},{"user_id":86,"name":"Gruncle PUXXY's MeatyTales","steam_id":76561197995465137,"connected_time":75000000000,"state":"active","ping":90}]},{"server_id":17,"name":"Uncletopia | San Francisco | 1 | All Maps","name_short":"sfo-1","host":"sfo-1.us.uncletopia.com","port":27015,"enabled":true,"region":"us-west","cc":"us","latitude":37.77397,"longitude":-122.4313,"reserved":0,"last_update":"0001-01-01T00:00:00Z","name_a2s":"Uncletopia | San Francisco | 1 | All Maps","protocol":17,"map":"pl_barnblitz","folder":"tf","game":"Team Fortress","app_id":440,"player_count":24,"max_players":24,"Bots":0,"server_type":"Dedicated","server_os":"Linux","password":true,"vac":true,"version":"7882260","steam_id":85568392924469999,"keywords":["nocrits","nodmgspread","payload","uncletopia"],"game_id":440,"stv_port":27016,"stv_name":"Uncletopia | San Francisco | 1 | All Maps | STV","players":[{"user_id":696,"name":"Odd Life","steam_id":76561198244979998,"connected_time":1336000000000,"state":"active","ping":56},{"user_id":708,"name":"Ruckminn","steam_id":76561198040779297,"connected_time":1097000000000,"state":"active","ping":81},{"user_id":682,"name":"Deep Sea Diver","steam_id":76561198336807745,"connected_time":2124000000000,"state":"active","ping":47},{"user_id":670,"name":"Captain Underbelly","steam_id":76561198811270935,"connected_time":3384000000000,"state":"active","ping":99},{"user_id":716,"name":"YASAI JUICE","steam_id":76561198131971992,"connected_time":97000000000,"state":"active","ping":84},{"user_id":674,"name":"arsenic","steam_id":76561198176391550,"connected_time":2939000000000,"state":"active","ping":96},{"user_id":694,"name":"Frank [LIVE ON TWITCH]","steam_id":76561198126681511,"connected_time":1430000000000,"state":"active","ping":62},{"user_id":712,"name":"[ G R * T T Y ]","steam_id":76561198048986218,"connected_time":289000000000,"state":"active","ping":94},{"user_id":699,"name":"Rasputia","steam_id":76561198132051047,"connected_time":1322000000000,"state":"active","ping":65},{"user_id":675,"name":"SanitysEdge","steam_id":76561198130732813,"connected_time":2810000000000,"state":"active","ping":55},{"user_id":700,"name":"RyanTheKat","steam_id":76561198261728547,"connected_time":1318000000000,"state":"active","ping":65},{"user_id":706,"name":"OpossumStyle","steam_id":76561199230107171,"connected_time":1219000000000,"state":"active","ping":98},{"user_id":702,"name":"HOG RIDER","steam_id":76561198298589502,"connected_time":1302000000000,"state":"active","ping":60},{"user_id":660,"name":"lol","steam_id":76561198026491738,"connected_time":3728000000000,"state":"active","ping":62},{"user_id":671,"name":"Tom Crúaich","steam_id":76561197999439911,"connected_time":3383000000000,"state":"active","ping":77},{"user_id":707,"name":"meme spy","steam_id":76561198206922028,"connected_time":1178000000000,"state":"active","ping":58},{"user_id":713,"name":"RUF","steam_id":76561198062315805,"connected_time":271000000000,"state":"active","ping":65},{"user_id":718,"name":"noellehound","steam_id":76561198108844158,"connected_time":62000000000,"state":"active","ping":95},{"user_id":717,"name":"Team Fartpiss Poo","steam_id":76561199163591880,"connected_time":82000000000,"state":"active","ping":124},{"user_id":704,"name":"finland","steam_id":76561198041820125,"connected_time":1266000000000,"state":"active","ping":67},{"user_id":667,"name":"BurdBrain","steam_id":76561197962097737,"connected_time":3538000000000,"state":"active","ping":67},{"user_id":672,"name":"spiderguy","steam_id":76561198412074955,"connected_time":3200000000000,"state":"active","ping":100},{"user_id":705,"name":"orangesuit1","steam_id":76561199020443017,"connected_time":1263000000000,"state":"active","ping":71},{"user_id":715,"name":"TheMagicMrWaffle","steam_id":76561198104357256,"connected_time":252000000000,"state":"active","ping":55}]},{"server_id":18,"name":"Uncletopia | San Francisco | 2 | All Maps","name_short":"sfo-2","host":"sfo-1.us.uncletopia.com","port":27025,"enabled":true,"region":"us-west","cc":"us","latitude":37.77397,"longitude":-122.4313,"reserved":0,"last_update":"0001-01-01T00:00:00Z","name_a2s":"Uncletopia | San Francisco | 2 | All Maps","protocol":17,"map":"pl_snowycoast","folder":"tf","game":"Team Fortress","app_id":440,"player_count":17,"max_players":24,"Bots":0,"server_type":"Dedicated","server_os":"Linux","password":true,"vac":true,"version":"7882260","steam_id":85568392924470000,"keywords":["nocrits","nodmgspread","payload","uncletopia"],"game_id":440,"stv_port":27026,"stv_name":"Uncletopia | San Francisco | 2 | All Maps | STV","players":[{"user_id":299,"name":"tighty walter whities","steam_id":76561199122915452,"connected_time":10000000000,"state":"spawning","ping":70},{"user_id":300,"name":"Fargo","steam_id":76561198044703931,"connected_time":10000000000,"state":"active","ping":78},{"user_id":276,"name":"Camohno","steam_id":76561198283519918,"connected_time":1913000000000,"state":"active","ping":52},{"user_id":275,"name":"Homosexual Warmachine","steam_id":76561198040425096,"connected_time":1945000000000,"state":"spawning","ping":93},{"user_id":294,"name":"dAiLyGrInD","steam_id":76561198163531915,"connected_time":969000000000,"state":"active","ping":98},{"user_id":297,"name":"antagonistic cutlery","steam_id":76561198844273999,"connected_time":699000000000,"state":"active","ping":60},{"user_id":138,"name":"MCman","steam_id":76561198412110305,"connected_time":7398000000000,"state":"active","ping":76},{"user_id":284,"name":"Ant","steam_id":76561198253062337,"connected_time":1138000000000,"state":"active","ping":91},{"user_id":285,"name":"Rose","steam_id":76561198955581861,"connected_time":1113000000000,"state":"active","ping":60},{"user_id":255,"name":"rock gaming","steam_id":76561199402868311,"connected_time":3535000000000,"state":"active","ping":69},{"user_id":280,"name":"Squirrel","steam_id":76561198010113101,"connected_time":1502000000000,"state":"active","ping":49},{"user_id":298,"name":"Some Genius","steam_id":76561198101868089,"connected_time":486000000000,"state":"active","ping":35},{"user_id":238,"name":"nori_420 (mute)","steam_id":76561199117134203,"connected_time":4217000000000,"state":"active","ping":60},{"user_id":288,"name":"Ypuoi","steam_id":76561198170203261,"connected_time":1070000000000,"state":"active","ping":61},{"user_id":272,"name":"Brandon_411","steam_id":76561198024522909,"connected_time":2175000000000,"state":"active","ping":47},{"user_id":289,"name":"[S]Mr. X [No Monitor]","steam_id":76561197963746035,"connected_time":1067000000000,"state":"active","ping":109},{"user_id":295,"name":"SAD MOSCOVIA","steam_id":76561198101081520,"connected_time":937000000000,"state":"active","ping":74}]},{"server_id":19,"name":"Uncletopia | San Francisco | 3 | Stopwatch Beta","name_short":"sfo-3","host":"sfo-1.us.uncletopia.com","port":27035,"enabled":true,"region":"us-west","cc":"us","latitude":37.77397,"longitude":-122.4313,"reserved":0,"last_update":"0001-01-01T00:00:00Z","name_a2s":"Uncletopia | San Francisco | 3 | Stopwatch Beta","protocol":17,"map":"workshop/koth_clearcut_b15.ugc2107050255","folder":"tf","game":"Team Fortress","app_id":440,"player_count":0,"max_players":24,"Bots":0,"server_type":"Dedicated","server_os":"Linux","password":true,"vac":true,"version":"7882260","steam_id":85568392924742824,"keywords":["cp","nocrits","nodmgspread","uncletopia"],"game_id":440,"stv_port":27036,"stv_name":"Uncletopia | San Francisco | 3 | Stopwatch Beta | STV","players":null},{"server_id":20,"name":"Uncletopia | San Francisco | 4 | Community","name_short":"sfo-4","host":"sfo-1.us.uncletopia.com","port":27045,"enabled":true,"region":"us-west","cc":"us","latitude":37.77397,"longitude":-122.4313,"reserved":0,"last_update":"0001-01-01T00:00:00Z","name_a2s":"Uncletopia | San Francisco | 4 | Community","protocol":17,"map":"workshop/koth_bagel_rc6.ugc2514036946","folder":"tf","game":"Team Fortress","app_id":440,"player_count":0,"max_players":24,"Bots":0,"server_type":"Dedicated","server_os":"Linux","password":true,"vac":true,"version":"7882260","steam_id":85568392924742826,"keywords":["cp","nocrits","nodmgspread","uncletopia"],"game_id":440,"stv_port":27046,"stv_name":"Uncletopia | San Francisco | 4 | Community | STV","players":null},{"server_id":141,"name":"Uncletopia | Sydney | 1 | All Maps","name_short":"syd-1","host":"syd-1.au.uncletopia.com","port":27015,"enabled":true,"region":"au","cc":"au","latitude":-33.865143,"longitude":151.2099,"reserved":0,"last_update":"0001-01-01T00:00:00Z","name_a2s":"Uncletopia | Sydney | 1 | All Maps","protocol":17,"map":"koth_cascade","folder":"tf","game":"Team Fortress","app_id":440,"player_count":0,"max_players":24,"Bots":0,"server_type":"Dedicated","server_os":"Linux","password":true,"vac":true,"version":"7882260","steam_id":85568392924470001,"keywords":["cp","nocrits","nodmgspread","uncletopia"],"game_id":440,"stv_port":27016,"stv_name":"Uncletopia | Sydney | 1 | All Maps | STV","players":null},{"server_id":123,"name":"Uncletopia | Sydney | 2 | All Maps","name_short":"syd-2","host":"syd-1.au.uncletopia.com","port":27025,"enabled":true,"region":"au","cc":"au","latitude":-33.865143,"longitude":151.2099,"reserved":0,"last_update":"0001-01-01T00:00:00Z","name_a2s":"Uncletopia | Sydney | 2 | All Maps","protocol":17,"map":"koth_viaduct","folder":"tf","game":"Team Fortress","app_id":440,"player_count":0,"max_players":24,"Bots":0,"server_type":"Dedicated","server_os":"Linux","password":true,"vac":true,"version":"7882260","steam_id":85568392924470002,"keywords":["cp","nocrits","nodmgspread","uncletopia"],"game_id":440,"stv_port":27026,"stv_name":"Uncletopia | Sydney | 2 | All Maps | STV","players":null},{"server_id":395,"name":"Uncletopia | Sydney | 3 | All Maps","name_short":"syd-3","host":"syd-1.au.uncletopia.com","port":27035,"enabled":true,"region":"au","cc":"au","latitude":-33.865143,"longitude":151.2099,"reserved":0,"last_update":"0001-01-01T00:00:00Z","name_a2s":"Uncletopia | Sydney | 3 | All Maps","protocol":17,"map":"koth_viaduct","folder":"tf","game":"Team Fortress","app_id":440,"player_count":11,"max_players":24,"Bots":0,"server_type":"Dedicated","server_os":"Linux","password":true,"vac":true,"version":"7882260","steam_id":85568392925194467,"keywords":["cp","nocrits","nodmgspread","uncletopia"],"game_id":440,"stv_port":27036,"stv_name":"Uncletopia | Sydney | 3 | All Maps | STV","players":[{"user_id":4,"name":"juusha","steam_id":76561198911542330,"connected_time":1904000000000,"state":"active","ping":72},{"user_id":5,"name":"A writhing mass of bees","steam_id":76561198317860338,"connected_time":1504000000000,"state":"active","ping":47},{"user_id":6,"name":"Second Lieutenant Pisser","steam_id":76561198866538028,"connected_time":1383000000000,"state":"active","ping":83},{"user_id":19,"name":"R4V3-0N","steam_id":76561198103044000,"connected_time":61000000000,"state":"active","ping":72},{"user_id":9,"name":"JBoss","steam_id":76561198321937857,"connected_time":953000000000,"state":"active","ping":72},{"user_id":12,"name":"LeDentalFloose","steam_id":76561198004537575,"connected_time":630000000000,"state":"active","ping":79},{"user_id":14,"name":"A Simple Wok","steam_id":76561198134842324,"connected_time":379000000000,"state":"active","ping":47},{"user_id":20,"name":"Skidallion","steam_id":76561198083922206,"connected_time":41000000000,"state":"active","ping":64},{"user_id":16,"name":"Lord Oink","steam_id":76561198125237921,"connected_time":284000000000,"state":"active","ping":37},{"user_id":18,"name":"dreamydoggy","steam_id":76561198448243169,"connected_time":178000000000,"state":"active","ping":54},{"user_id":21,"name":"Foxtonnes","steam_id":76561198007628373,"connected_time":30000000000,"state":"spawning","ping":61}]},{"server_id":396,"name":"Uncletopia | Sydney | 4 | All Maps","name_short":"syd-4","host":"syd-1.au.uncletopia.com","port":27045,"enabled":true,"region":"au","cc":"au","latitude":-33.865143,"longitude":151.2099,"reserved":0,"last_update":"0001-01-01T00:00:00Z","name_a2s":"Uncletopia | Sydney | 4 | All Maps","protocol":17,"map":"cp_altitude","folder":"tf","game":"Team Fortress","app_id":440,"player_count":0,"max_players":24,"Bots":0,"server_type":"Dedicated","server_os":"Linux","password":true,"vac":true,"version":"7882260","steam_id":85568392925397958,"keywords":["cp","nocrits","nodmgspread","uncletopia"],"game_id":440,"stv_port":27046,"stv_name":"Uncletopia | Sydney | 4 | All Maps | STV","players":null},{"server_id":58,"name":"Uncletopia | Sydney | 5 | Stopwatch Beta","name_short":"syd-5","host":"syd-1.au.uncletopia.com","port":27055,"enabled":true,"region":"au","cc":"au","latitude":-33.865143,"longitude":151.2099,"reserved":0,"last_update":"0001-01-01T00:00:00Z","name_a2s":"Uncletopia | Sydney | 5 | Stopwatch Beta","protocol":17,"map":"koth_viaduct","folder":"tf","game":"Team Fortress","app_id":440,"player_count":0,"max_players":24,"Bots":0,"server_type":"Dedicated","server_os":"Linux","password":true,"vac":true,"version":"7882260","steam_id":85568392925397959,"keywords":["cp","nocrits","nodmgspread","uncletopia"],"game_id":440,"stv_port":27056,"stv_name":"Uncletopia | Sydney | 5 | Stopwatch Beta | STV","players":null},{"server_id":59,"name":"Uncletopia | Sydney | 6 | Community","name_short":"syd-6","host":"syd-1.au.uncletopia.com","port":27065,"enabled":true,"region":"au","cc":"au","latitude":-33.865143,"longitude":151.2099,"reserved":0,"last_update":"0001-01-01T00:00:00Z","name_a2s":"Uncletopia | Sydney | 6 | Community","protocol":17,"map":"workshop/koth_kemptown_rc1.ugc767410655","folder":"tf","game":"Team Fortress","app_id":440,"player_count":0,"max_players":24,"Bots":0,"server_type":"Dedicated","server_os":"Linux","password":true,"vac":true,"version":"7882260","steam_id":85568392925397960,"keywords":["cp","nocrits","nodmgspread","uncletopia"],"game_id":440,"stv_port":27066,"stv_name":"Uncletopia | Sydney | 6 | Community | STV","players":null},{"server_id":49,"name":"Uncletopia | Warsaw | 1 | All Maps","name_short":"waw-1","host":"waw-1.pl.uncletopia.com","port":27015,"enabled":true,"region":"eu","cc":"pl","latitude":52.2297,"longitude":21.017532,"reserved":0,"last_update":"0001-01-01T00:00:00Z","name_a2s":"","protocol":0,"map":"","folder":"","game":"","app_id":0,"player_count":0,"max_players":0,"Bots":0,"server_type":"","server_os":"","password":false,"vac":false,"version":"","steam_id":0,"keywords":null,"game_id":0,"stv_port":0,"stv_name":"","players":null},{"server_id":50,"name":"Uncletopia | Warsaw | 2 | All Maps","name_short":"waw-2","host":"waw-1.pl.uncletopia.com","port":27025,"enabled":true,"region":"eu","cc":"pl","latitude":52.2297,"longitude":21.017532,"reserved":0,"last_update":"0001-01-01T00:00:00Z","name_a2s":"Uncletopia | Warsaw | 2 | All Maps","protocol":17,"map":"koth_viaduct","folder":"tf","game":"Team Fortress","app_id":440,"player_count":0,"max_players":24,"Bots":0,"server_type":"Dedicated","server_os":"Linux","password":true,"vac":true,"version":"7882260","steam_id":85568392925397851,"keywords":["cp","nocrits","nodmgspread","uncletopia"],"game_id":440,"stv_port":27026,"stv_name":"Uncletopia | Warsaw | 2 | All Maps | STV","players":null},{"server_id":51,"name":"Uncletopia | Warsaw | 3 | All Maps","name_short":"waw-3","host":"waw-1.pl.uncletopia.com","port":27035,"enabled":true,"region":"eu","cc":"pl","latitude":52.2297,"longitude":21.017532,"reserved":0,"last_update":"0001-01-01T00:00:00Z","name_a2s":"Uncletopia | Warsaw | 3 | All Maps","protocol":17,"map":"cp_process_final","folder":"tf","game":"Team Fortress","app_id":440,"player_count":0,"max_players":24,"Bots":0,"server_type":"Dedicated","server_os":"Linux","password":true,"vac":true,"version":"7882260","steam_id":85568392925397852,"keywords":["cp","nocrits","nodmgspread","uncletopia"],"game_id":440,"stv_port":27036,"stv_name":"Uncletopia | Warsaw | 3 | All Maps | STV","players":null},{"server_id":52,"name":"Uncletopia | Warsaw | 4 | All Maps","name_short":"waw-4","host":"waw-1.pl.uncletopia.com","port":27045,"enabled":true,"region":"eu","cc":"pl","latitude":52.2297,"longitude":21.017532,"reserved":0,"last_update":"0001-01-01T00:00:00Z","name_a2s":"Uncletopia | Warsaw | 4 | All Maps","protocol":17,"map":"cp_process_final","folder":"tf","game":"Team Fortress","app_id":440,"player_count":0,"max_players":24,"Bots":0,"server_type":"Dedicated","server_os":"Linux","password":true,"vac":true,"version":"7882260","steam_id":85568392925397853,"keywords":["cp","nocrits","nodmgspread","uncletopia"],"game_id":440,"stv_port":27046,"stv_name":"Uncletopia | Warsaw | 4 | All Maps | STV","players":null},{"server_id":53,"name":"Uncletopia | Warsaw | 5 | Stopwatch Beta","name_short":"waw-5","host":"waw-1.pl.uncletopia.com","port":27055,"enabled":true,"region":"eu","cc":"pl","latitude":52.2297,"longitude":21.017532,"reserved":0,"last_update":"0001-01-01T00:00:00Z","name_a2s":"Uncletopia | Warsaw | 5 | Stopwatch Beta","protocol":17,"map":"pl_swiftwater_final1","folder":"tf","game":"Team Fortress","app_id":440,"player_count":0,"max_players":24,"Bots":0,"server_type":"Dedicated","server_os":"Linux","password":true,"vac":true,"version":"7882260","steam_id":85568392925397854,"keywords":["nocrits","nodmgspread","payload","uncletopia"],"game_id":440,"stv_port":27056,"stv_name":"Uncletopia | Warsaw | 5 | Stopwatch Beta | STV","players":null},{"server_id":54,"name":"Uncletopia | Warsaw | 6 | Community","name_short":"waw-6","host":"waw-1.pl.uncletopia.com","port":27065,"enabled":true,"region":"eu","cc":"pl","latitude":52.2297,"longitude":21.017532,"reserved":0,"last_update":"0001-01-01T00:00:00Z","name_a2s":"Uncletopia | Warsaw | 6 | Community","protocol":17,"map":"workshop/koth_bagel_rc6.ugc2514036946","folder":"tf","game":"Team Fortress","app_id":440,"player_count":0,"max_players":24,"Bots":0,"server_type":"Dedicated","server_os":"Linux","password":true,"vac":true,"version":"7882260","steam_id":85568392925397856,"keywords":["cp","nocrits","nodmgspread","uncletopia"],"game_id":440,"stv_port":27066,"stv_name":"Uncletopia | Warsaw | 6 | Community | STV","players":null}]}