{"status":true,"message":"","result":[{"server_id":9,"name":"Uncletopia | Atlanta | 1 | All Maps","name_short":"atl-1","host":"atl-1.us.uncletopia.com","port":27015,"enabled":true,"region":"us-east","cc":"us","latitude":33.753746,"longitude":-84.38633,"reserved":0,"last_update":"0001-01-01T00:00:00Z","name_a2s":"Uncletopia | Atlanta | 1 | All Maps","protocol":17,"map":"pl_snowycoast","folder":"tf","game":"Team Fortress","app_id":440,"player_count":24,"max_players":24,"Bots":0,"server_type":"Dedicated","server_os":"Linux","password":true,"vac":true,"version":"7723704","steam_id":85568392924469982,"keywords":["nocrits","nodmgspread","payload","uncletopia"],"game_id":440,"stv_port":27016,"stv_name":"Uncletopia | Atlanta | 1 | All Maps | STV","players":[{"user_id":719,"name":"surrender to the void","steam_id":76561198055494039,"connected_time":3479000000000,"state":"active","ping":63},{"user_id":737,"name":"Newt","steam_id":76561198842909288,"connected_time":1847000000000,"state":"active","ping":97},{"user_id":683,"name":"☙ Corrupt ❧","steam_id":76561197977631915,"connected_time":6280000000000,"state":"active","ping":65},{"user_id":512,"name":"ATL1 | eish","steam_id":76561198089463603,"connected_time":22693000000000,"state":"active","ping":121},{"user_id":733,"name":"McGangBang","steam_id":76561198862379865,"connected_time":2146000000000,"state":"active","ping":90},{"user_id":751,"name":"floofy","steam_id":76561198389769098,"connected_time":180000000000,"state":"active","ping":93},{"user_id":653,"name":"shaderoses","steam_id":76561198070800500,"connected_time":8279000000000,"state":"active","ping":75},{"user_id":739,"name":"LeTonzy","steam_id":76561198005806699,"connected_time":1750000000000,"state":"active","ping":115},{"user_id":740,"name":"gunk","steam_id":76561198845637652,"connected_time":1725000000000,"state":"active","ping":58},{"user_id":725,"name":"Tresthebest360","steam_id":76561198965347175,"connected_time":2954000000000,"state":"active","ping":54},{"user_id":745,"name":"Jarshh","steam_id":76561198100686867,"connected_time":762000000000,"state":"active","ping":72},{"user_id":706,"name":"mommy hog","steam_id":76561199230929836,"connected_time":3846000000000,"state":"active","ping":89},{"user_id":736,"name":"Space Cowboy","steam_id":76561198095799906,"connected_time":1885000000000,"state":"active","ping":61},{"user_id":707,"name":"aeop","steam_id":76561198153671643,"connected_time":3828000000000,"state":"active","ping":88},{"user_id":715,"name":"Toaster WiFi","steam_id":76561198378832479,"connected_time":3692000000000,"state":"active","ping":59},{"user_id":708,"name":"ENORMOUS HOG","steam_id":76561198079923652,"connected_time":3823000000000,"state":"active","ping":74},{"user_id":746,"name":"joe","steam_id":76561198045781320,"connected_time":724000000000,"state":"active","ping":68},{"user_id":732,"name":"General JoseKrlos!™","steam_id":76561198380951218,"connected_time":2487000000000,"state":"active","ping":118},{"user_id":743,"name":"[]{}#^*+=","steam_id":76561198127039453,"connected_time":1664000000000,"state":"active","ping":104},{"user_id":744,"name":"loco503","steam_id":76561198827495121,"connected_time":774000000000,"state":"active","ping":128},{"user_id":712,"name":"Vanguard","steam_id":76561198044844135,"connected_time":3746000000000,"state":"active","ping":79},{"user_id":713,"name":"WoHBilly","steam_id":76561198125307221,"connected_time":3715000000000,"state":"active","ping":80},{"user_id":714,"name":"Weihnachtsuchen","steam_id":76561198079448618,"connected_time":3698000000000,"state":"active","ping":88},{"user_id":750,"name":"ena - d","steam_id":76561198072329335,"connected_time":502000000000,"state":"active","ping":163}]},{"server_id":400,"name":"Uncletopia | Atlanta | 3 | Stopwatch Beta","name_short":"atl-3","host":"atl-1.us.uncletopia.com","port":27035,"enabled":true,"region":"us-east","cc":"us","latitude":33.753746,"longitude":-84.38633,"reserved":0,"last_update":"0001-01-01T00:00:00Z","name_a2s":"Uncletopia | Atlanta | 3 | Stopwatch Beta","protocol":17,"map":"cp_snakewater_final1","folder":"tf","game":"Team Fortress","app_id":440,"player_count":0,"max_players":24,"Bots":0,"server_type":"Dedicated","server_os":"Linux","password":true,"vac":true,"version":"7723704","steam_id":85568392924515187,"keywords":["cp","nocrits","nodmgspread","uncletopia"],"game_id":440,"stv_port":27036,"stv_name":"Uncletopia | Atlanta | 3 | Stopwatch Beta | STV","players":null},{"server_id":401,"name":"Uncletopia | Atlanta | 4 | No Payload","name_short":"atl-4","host":"atl-1.us.uncletopia.com","port":27045,"enabled":true,"region":"us-east","cc":"us","latitude":33.753746,"longitude":-84.38633,"reserved":0,"last_update":"0001-01-01T00:00:00Z","name_a2s":"Uncletopia | Atlanta | 4 | No Payload","protocol":17,"map":"cp_dustbowl","folder":"tf","game":"Team Fortress","app_id":440,"player_count":0,"max_players":24,"Bots":0,"server_type":"Dedicated","server_os":"Linux","password":true,"vac":true,"version":"7723704","steam_id":85568392924515188,"keywords":["cp","nocrits","nodmgspread","uncletopia"],"game_id":440,"stv_port":27046,"stv_name":"Uncletopia | Atlanta | 4 | No Payload | STV","players":null},{"server_id":2,"name":"Uncletopia | Chicago | 1 | All Maps","name_short":"chi-1","host":"chi-1.us.uncletopia.com","port":27015,"enabled":true,"region":"us-central","cc":"us","latitude":41.881832,"longitude":-87.62318,"reserved":0,"last_update":"0001-01-01T00:00:00Z","name_a2s":"Uncletopia | Chicago | 1 | All Maps","protocol":17,"map":"cp_dustbowl","folder":"tf","game":"Team Fortress","app_id":440,"player_count":1,"max_players":24,"Bots":0,"server_type":"Dedicated","server_os":"Linux","password":true,"vac":true,"version":"7723704","steam_id":85568392924469984,"keywords":["cp","nocrits","nodmgspread","uncletopia"],"game_id":440,"stv_port":27016,"stv_name":"Uncletopia | Chicago | 1 | All Maps | STV","players":[{"user_id":911,"name":"VibingVicinity","steam_id":76561198208211285,"connected_time":299000000000,"state":"active","ping":49}]},{"server_id":106,"name":"Uncletopia | Chicago | 2 | All Maps","name_short":"chi-2","host":"chi-1.us.uncletopia.com","port":27025,"enabled":true,"region":"us-central","cc":"us","latitude":41.881832,"longitude":-87.62318,"reserved":0,"last_update":"0001-01-01T00:00:00Z","name_a2s":"Uncletopia | Chicago | 2 | All Maps","protocol":17,"map":"cp_steel","folder":"tf","game":"Team Fortress","app_id":440,"player_count":24,"max_players":24,"Bots":0,"server_type":"Dedicated","server_os":"Linux","password":true,"vac":true,"version":"7723704","steam_id":85568392924469985,"keywords":["cp","nocrits","nodmgspread","uncletopia"],"game_id":440,"stv_port":27026,"stv_name":"Uncletopia | Chicago | 2 | All Maps | STV","players":[{"user_id":806,"name":"Wug","steam_id":76561198084112264,"connected_time":1821000000000,"state":"active","ping":75},{"user_id":810,"name":"Hyest","steam_id":76561198017795432,"connected_time":1224000000000,"state":"active","ping":72},{"user_id":811,"name":"santas.secret.sauce","steam_id":76561198042464635,"connected_time":1220000000000,"state":"active","ping":77},{"user_id":776,"name":"Kann","steam_id":76561198120789856,"connected_time":4537000000000,"state":"active","ping":72},{"user_id":814,"name":"Sabaman55","steam_id":76561198212267979,"connected_time":1128000000000,"state":"active","ping":42},{"user_id":815,"name":"D3dB01","steam_id":76561198219717043,"connected_time":1027000000000,"state":"active","ping":75},{"user_id":816,"name":"Rock Nemesis","steam_id":76561198043115724,"connected_time":1015000000000,"state":"active","ping":86},{"user_id":809,"name":"WONDER.","steam_id":76561198092527854,"connected_time":1285000000000,"state":"active","ping":105},{"user_id":825,"name":"Censure","steam_id":76561198850891374,"connected_time":621000000000,"state":"active","ping":62},{"user_id":778,"name":"Medical Asshat","steam_id":76561198004584315,"connected_time":4528000000000,"state":"active","ping":68},{"user_id":799,"name":"kevingates25","steam_id":76561198059575962,"connected_time":2833000000000,"state":"active","ping":60},{"user_id":817,"name":"Jones","steam_id":76561198046037216,"connected_time":1014000000000,"state":"active","ping":67},{"user_id":818,"name":"brian emo","steam_id":76561198109901138,"connected_time":976000000000,"state":"active","ping":107},{"user_id":829,"name":"stop","steam_id":76561198268686419,"connected_time":496000000000,"state":"active","ping":59},{"user_id":830,"name":"Scorpie Doodle","steam_id":76561198021845763,"connected_time":366000000000,"state":"active","ping":56},{"user_id":743,"name":"LegendaryR'QA","steam_id":76561198049660110,"connected_time":7456000000000,"state":"active","ping":107},{"user_id":802,"name":"Brown $keez","steam_id":76561198053621664,"connected_time":2347000000000,"state":"active","ping":54},{"user_id":803,"name":"Tom","steam_id":76561198139202942,"connected_time":2334000000000,"state":"active","ping":73},{"user_id":831,"name":"Bobby Ray","steam_id":76561198044131188,"connected_time":346000000000,"state":"active","ping":75},{"user_id":832,"name":"OUTER DEAD POOL","steam_id":76561198394197414,"connected_time":16000000000,"state":"spawning","ping":46},{"user_id":828,"name":"Antwan","steam_id":76561198246200638,"connected_time":574000000000,"state":"active","ping":65},{"user_id":824,"name":"NorthStarGamer","steam_id":76561198308866066,"connected_time":883000000000,"state":"active","ping":96},{"user_id":769,"name":"alfredodan","steam_id":76561198025011044,"connected_time":5536000000000,"state":"active","ping":82},{"user_id":773,"name":"hills","steam_id":76561198041643833,"connected_time":5156000000000,"state":"active","ping":91}]},{"server_id":402,"name":"Uncletopia | Chicago | 3 | All Maps","name_short":"chi-3","host":"chi-1.us.uncletopia.com","port":27035,"enabled":true,"region":"us-central","cc":"us","latitude":41.881832,"longitude":-87.62318,"reserved":0,"last_update":"0001-01-01T00:00:00Z","name_a2s":"Uncletopia | Chicago | 3 | All Maps","protocol":17,"map":"koth_lakeside_final","folder":"tf","game":"Team Fortress","app_id":440,"player_count":0,"max_players":24,"Bots":0,"server_type":"Dedicated","server_os":"Linux","password":true,"vac":true,"version":"7723704","steam_id":85568392924515191,"keywords":["cp","nocrits","nodmgspread","uncletopia"],"game_id":440,"stv_port":27036,"stv_name":"Uncletopia | Chicago | 3 | All Maps | STV","players":null},{"server_id":403,"name":"Uncletopia | Chicago | 4 | All Maps","name_short":"chi-4","host":"chi-1.us.uncletopia.com","port":27045,"enabled":true,"region":"us-central","cc":"us","latitude":41.881832,"longitude":-87.62318,"reserved":0,"last_update":"0001-01-01T00:00:00Z","name_a2s":"Uncletopia | Chicago | 4 | All Maps","protocol":17,"map":"pl_frontier_final","folder":"tf","game":"Team Fortress","app_id":440,"player_count":24,"max_players":24,"Bots":0,"server_type":"Dedicated","server_os":"Linux","password":true,"vac":true,"version":"7723704","steam_id":85568392924515193,"keywords":["nocrits","nodmgspread","payload","uncletopia"],"game_id":440,"stv_port":27046,"stv_name":"Uncletopia | Chicago | 4 | All Maps | STV","players":[{"user_id":599,"name":"pie gaming","steam_id":76561198072592880,"connected_time":1455000000000,"state":"active","ping":40},{"user_id":602,"name":"Ziggy","steam_id":76561198086751319,"connected_time":1406000000000,"state":"active","ping":77},{"user_id":610,"name":"valtiel","steam_id":76561198165212575,"connected_time":1166000000000,"state":"active","ping":60},{"user_id":591,"name":"Civic Wayfinder","steam_id":76561198060320953,"connected_time":2235000000000,"state":"active","ping":61},{"user_id":612,"name":"Trolley","steam_id":76561198106695948,"connected_time":635000000000,"state":"active","ping":93},{"user_id":592,"name":"BurnN8or101","steam_id":76561198132668224,"connected_time":2214000000000,"state":"active","ping":68},{"user_id":577,"name":"Dire_vVolf","steam_id":76561198052509176,"connected_time":3295000000000,"state":"active","ping":46},{"user_id":603,"name":"sys","steam_id":76561198300912581,"connected_time":1397000000000,"state":"active","ping":87},{"user_id":618,"name":"Liquid Oxycodone","steam_id":76561198154162664,"connected_time":329000000000,"state":"active","ping":69},{"user_id":614,"name":"MoonWolf","steam_id":76561198095735033,"connected_time":576000000000,"state":"active","ping":96},{"user_id":616,"name":"Xylemon","steam_id":76561197965297420,"connected_time":481000000000,"state":"active","ping":104},{"user_id":573,"name":"JJc","steam_id":76561198021164742,"connected_time":3575000000000,"state":"active","ping":51},{"user_id":613,"name":"Anononomous Dumbo Octopus","steam_id":76561198252522394,"connected_time":635000000000,"state":"active","ping":53},{"user_id":601,"name":"DeadPixels #SaveTF2","steam_id":76561198312934516,"connected_time":1414000000000,"state":"active","ping":45},{"user_id":593,"name":"BigOrca54","steam_id":76561198181360271,"connected_time":2168000000000,"state":"active","ping":56},{"user_id":615,"name":"FemboyNate","steam_id":76561198146636410,"connected_time":524000000000,"state":"active","ping":75},{"user_id":619,"name":"IHUNTZ","steam_id":76561198390109907,"connected_time":299000000000,"state":"active","ping":110},{"user_id":604,"name":"♆ neptune ♆","steam_id":76561198030199326,"connected_time":1381000000000,"state":"active","ping":55},{"user_id":594,"name":"VerSaKa","steam_id":76561198052392540,"connected_time":2166000000000,"state":"active","ping":79},{"user_id":608,"name":"Esau","steam_id":76561198110449520,"connected_time":1255000000000,"state":"active","ping":74},{"user_id":564,"name":"Heydensan","steam_id":76561198272372552,"connected_time":4565000000000,"state":"active","ping":113},{"user_id":607,"name":"HarqObispal","steam_id":76561197963907351,"connected_time":1281000000000,"state":"active","ping":64},{"user_id":538,"name":"Nobody","steam_id":76561198286486517,"connected_time":6352000000000,"state":"active","ping":59},{"user_id":609,"name":"None of that $9.99 bullshit","steam_id":76561198116169903,"connected_time":1231000000000,"state":"active","ping":54}]},{"server_id":36,"name":"Uncletopia | Chicago | 5 | All Maps","name_short":"chi-5","host":"chi-2.us.uncletopia.com","port":27015,"enabled":true,"region":"us-central","cc":"us","latitude":41.881832,"longitude":-87.62318,"reserved":0,"last_update":"0001-01-01T00:00:00Z","name_a2s":"Uncletopia | Chicago | 5 | All Maps","protocol":17,"map":"koth_highpass","folder":"tf","game":"Team Fortress","app_id":440,"player_count":0,"max_players":24,"Bots":0,"server_type":"Dedicated","server_os":"Linux","password":true,"vac":true,"version":"7723704","steam_id":85568392924866362,"keywords":["cp","nocrits","nodmgspread","uncletopia"],"game_id":440,"stv_port":27016,"stv_name":"Uncletopia | Chicago | 5 | All Maps | STV","players":null},{"server_id":37,"name":"Uncletopia | Chicago | 6 | All Maps","name_short":"chi-6","host":"chi-2.us.uncletopia.com","port":27025,"enabled":true,"region":"us-central","cc":"us","latitude":41.881832,"longitude":-87.62318,"reserved":0,"last_update":"0001-01-01T00:00:00Z","name_a2s":"Uncletopia | Chicago | 6 | All Maps","protocol":17,"map":"koth_cascade","folder":"tf","game":"Team Fortress","app_id":440,"player_count":0,"max_players":24,"Bots":0,"server_type":"Dedicated","server_os":"Linux","password":true,"vac":true,"version":"7723704","steam_id":85568392924866363,"keywords":["cp","nocrits","nodmgspread","uncletopia"],"game_id":440,"stv_port":27026,"stv_name":"Uncletopia | Chicago | 6 | All Maps | STV","players":null},{"server_id":38,"name":"Uncletopia | Chicago | 7 | Stopwatch Beta","name_short":"chi-7","host":"chi-2.us.uncletopia.com","port":27035,"enabled":true,"region":"us-central","cc":"us","latitude":41.881832,"longitude":-87.62318,"reserved":0,"last_update":"0001-01-01T00:00:00Z","name_a2s":"Uncletopia | Chicago | 7 | Stopwatch Beta","protocol":17,"map":"workshop/pl_barnblitz_pro7.ugc582280235","folder":"tf","game":"Team Fortress","app_id":440,"player_count":0,"max_players":24,"Bots":0,"server_type":"Dedicated","server_os":"Linux","password":true,"vac":true,"version":"7723704","steam_id":85568392924866364,"keywords":["nocrits","nodmgspread","payload","uncletopia"],"game_id":440,"stv_port":27036,"stv_name":"Uncletopia | Chicago | 7 | Stopwatch Beta | STV","players":null},{"server_id":39,"name":"Uncletopia | Chicago | 8 | Community","name_short":"chi-8","host":"chi-2.us.uncletopia.com","port":27045,"enabled":true,"region":"us-central","cc":"us","latitude":41.881832,"longitude":-87.62318,"reserved":0,"last_update":"0001-01-01T00:00:00Z","name_a2s":"Uncletopia | Chicago | 8 | Community","protocol":17,"map":"workshop/koth_ramjam_v2_b2.ugc2865676487","folder":"tf","game":"Team Fortress","app_id":440,"player_count":0,"max_players":24,"Bots":0,"server_type":"Dedicated","server_os":"Linux","password":true,"vac":true,"version":"7723704","steam_id":85568392924866365,"keywords":["cp","nocrits","nodmgspread","uncletopia"],"game_id":440,"stv_port":27046,"stv_name":"Uncletopia | Chicago | 8 | Community | STV","players":null},{"server_id":8,"name":"Uncletopia | Dallas | 1 | All Maps","name_short":"dal-1","host":"dal-1.us.uncletopia.com","port":27015,"enabled":true,"region":"us-central","cc":"us","latitude":32.779167,"longitude":-96.80889,"reserved":0,"last_update":"0001-01-01T00:00:00Z","name_a2s":"Uncletopia | Dallas | 1 | All Maps","protocol":17,"map":"pl_badwater","folder":"tf","game":"Team Fortress","app_id":440,"player_count":17,"max_players":24,"Bots":0,"server_type":"Dedicated","server_os":"Linux","password":true,"vac":true,"version":"7723704","steam_id":85568392924469986,"keywords":["nocrits","nodmgspread","payload","uncletopia"],"game_id":440,"stv_port":27016,"stv_name":"Uncletopia | Dallas | 1 | All Maps | STV","players":[{"user_id":732,"name":"who ate the cheese","steam_id":76561198275408467,"connected_time":1514000000000,"state":"active","ping":46},{"user_id":757,"name":"nolife","steam_id":76561198414300607,"connected_time":317000000000,"state":"active","ping":79},{"user_id":719,"name":"Happy Valentimes ♥","steam_id":76561199048653297,"connected_time":2369000000000,"state":"active","ping":44},{"user_id":727,"name":"tavorraX0","steam_id":76561198042465206,"connected_time":1647000000000,"state":"active","ping":132},{"user_id":754,"name":"sheep","steam_id":76561198172943006,"connected_time":516000000000,"state":"active","ping":61},{"user_id":749,"name":"BackToSchoolAds","steam_id":76561198870281128,"connected_time":647000000000,"state":"active","ping":93},{"user_id":746,"name":"BOT [Craf227]","steam_id":76561198196211121,"connected_time":880000000000,"state":"active","ping":58},{"user_id":747,"name":"Female Gamer","steam_id":76561199366482682,"connected_time":750000000000,"state":"active","ping":97},{"user_id":755,"name":"pinglefingle","steam_id":76561198216580197,"connected_time":497000000000,"state":"active","ping":51},{"user_id":758,"name":"im new to these things","steam_id":76561198425027856,"connected_time":259000000000,"state":"active","ping":89},{"user_id":751,"name":"Kraul","steam_id":76561198043682060,"connected_time":631000000000,"state":"active","ping":69},{"user_id":759,"name":"Brendan","steam_id":76561198041079914,"connected_time":211000000000,"state":"active","ping":88},{"user_id":753,"name":"big guapo","steam_id":76561198103228695,"connected_time":613000000000,"state":"active","ping":65},{"user_id":761,"name":"XDKJHom","steam_id":76561199116963922,"connected_time":158000000000,"state":"active","ping":75},{"user_id":762,"name":"starer","steam_id":76561199229966290,"connected_time":128000000000,"state":"active","ping":68},{"user_id":764,"name":"Spy Gaming™","steam_id":76561198072862763,"connected_time":66000000000,"state":"active","ping":40},{"user_id":765,"name":"Alley_YAMBO","steam_id":76561198055651850,"connected_time":63000000000,"state":"active","ping":62}]},{"server_id":108,"name":"Uncletopia | Dallas | 2 | All Maps","name_short":"dal-2","host":"dal-1.us.uncletopia.com","port":27025,"enabled":true,"region":"us-central","cc":"us","latitude":32.779167,"longitude":-96.80889,"reserved":0,"last_update":"0001-01-01T00:00:00Z","name_a2s":"Uncletopia | Dallas | 2 | All Maps","protocol":17,"map":"koth_viaduct","folder":"tf","game":"Team Fortress","app_id":440,"player_count":0,"max_players":24,"Bots":0,"server_type":"Dedicated","server_os":"Linux","password":true,"vac":true,"version":"7723704","steam_id":85568392924469988,"keywords":["cp","nocrits","nodmgspread","uncletopia"],"game_id":440,"stv_port":27026,"stv_name":"Uncletopia | Dallas | 2 | All Maps | STV","players":null},{"server_id":5,"name":"Uncletopia | Frankfurt | 1 | All Maps","name_short":"frk-1","host":"frk-1.de.uncletopia.com","port":27015,"enabled":true,"region":"eu","cc":"de","latitude":50.110924,"longitude":8.682127,"reserved":0,"last_update":"0001-01-01T00:00:00Z","name_a2s":"Uncletopia | Frankfurt | 1 | All Maps","protocol":17,"map":"koth_highpass","folder":"tf","game":"Team Fortress","app_id":440,"player_count":0,"max_players":24,"Bots":0,"server_type":"Dedicated","server_os":"Linux","password":true,"vac":true,"version":"7723704","steam_id":85568392924469989,"keywords":["cp","nocrits","nodmgspread","uncletopia"],"game_id":440,"stv_port":27016,"stv_name":"Uncletopia | Frankfurt | 1 | All Maps | STV","players":null},{"server_id":110,"name":"Uncletopia | Frankfurt | 2 | All Maps","name_short":"frk-2","host":"frk-1.de.uncletopia.com","port":27025,"enabled":true,"region":"eu","cc":"de","latitude":50.110924,"longitude":8.682127,"reserved":0,"last_update":"0001-01-01T00:00:00Z","name_a2s":"Uncletopia | Frankfurt | 2 | All Maps","protocol":17,"map":"pl_snowycoast","folder":"tf","game":"Team Fortress","app_id":440,"player_count":0,"max_players":24,"Bots":0,"server_type":"Dedicated","server_os":"Linux","password":true,"vac":true,"version":"7723704","steam_id":85568392924469990,"keywords":["nocrits","nodmgspread","payload","uncletopia"],"game_id":440,"stv_port":27026,"stv_name":"Uncletopia | Frankfurt | 2 | All Maps | STV","players":null},{"server_id":308,"name":"Uncletopia | Frankfurt | 3 | All Maps","name_short":"frk-3","host":"frk-1.de.uncletopia.com","port":27035,"enabled":true,"region":"eu","cc":"de","latitude":50.110924,"longitude":8.682127,"reserved":0,"last_update":"0001-01-01T00:00:00Z","name_a2s":"Uncletopia | Frankfurt | 3 | All Maps","protocol":17,"map":"pl_barnblitz","folder":"tf","game":"Team Fortress","app_id":440,"player_count":0,"max_players":24,"Bots":0,"server_type":"Dedicated","server_os":"Linux","password":true,"vac":true,"version":"7723704","steam_id":85568392924504274,"keywords":["nocrits","nodmgspread","payload","uncletopia"],"game_id":440,"stv_port":27036,"stv_name":"Uncletopia | Frankfurt | 3 | All Maps | STV","players":null},{"server_id":309,"name":"Uncletopia | Frankfurt | 4 | All Maps","name_short":"frk-4","host":"frk-1.de.uncletopia.com","port":27045,"enabled":true,"region":"eu","cc":"de","latitude":50.110924,"longitude":8.682127,"reserved":0,"last_update":"0001-01-01T00:00:00Z","name_a2s":"Uncletopia | Frankfurt | 4 | All Maps","protocol":17,"map":"pl_snowycoast","folder":"tf","game":"Team Fortress","app_id":440,"player_count":0,"max_players":24,"Bots":0,"server_type":"Dedicated","server_os":"Linux","password":true,"vac":true,"version":"7723704","steam_id":85568392924504275,"keywords":["nocrits","nodmgspread","payload","uncletopia"],"game_id":440,"stv_port":27046,"stv_name":"Uncletopia | Frankfurt | 4 | All Maps | STV","players":null},{"server_id":310,"name":"Uncletopia | Frankfurt | 5 | All Maps","name_short":"frk-5","host":"frk-1.de.uncletopia.com","port":27055,"enabled":true,"region":"eu","cc":"de","latitude":50.110924,"longitude":8.682127,"reserved":0,"last_update":"0001-01-01T00:00:00Z","name_a2s":"Uncletopia | Frankfurt | 5 | All Maps","protocol":17,"map":"pl_barnblitz","folder":"tf","game":"Team Fortress","app_id":440,"player_count":0,"max_players":24,"Bots":0,"server_type":"Dedicated","server_os":"Linux","password":true,"vac":true,"version":"7723704","steam_id":85568392924504277,"keywords":["nocrits","nodmgspread","payload","uncletopia"],"game_id":440,"stv_port":27056,"stv_name":"Uncletopia | Frankfurt | 5 | All Maps | STV","players":null},{"server_id":311,"name":"Uncletopia | Frankfurt | 6 | All Maps","name_short":"frk-6","host":"frk-1.de.uncletopia.com","port":27065,"enabled":true,"region":"eu","cc":"de","latitude":50.110924,"longitude":8.682127,"reserved":0,"last_update":"0001-01-01T00:00:00Z","name_a2s":"Uncletopia | Frankfurt | 6 | All Maps","protocol":17,"map":"pl_badwater","folder":"tf","game":"Team Fortress","app_id":440,"player_count":0,"max_players":24,"Bots":0,"server_type":"Dedicated","server_os":"Linux","password":true,"vac":true,"version":"7723704","steam_id":85568392924504278,"keywords":["nocrits","nodmgspread","payload","uncletopia"],"game_id":440,"stv_port":27066,"stv_name":"Uncletopia | Frankfurt | 6 | All Maps | STV","players":null},{"server_id":23,"name":"Uncletopia | Frankfurt | 7 | Stopwatch Beta","name_short":"frk-7","host":"frk-1.de.uncletopia.com","port":27075,"enabled":true,"region":"eu","cc":"de","latitude":50.110924,"longitude":8.682127,"reserved":0,"last_update":"0001-01-01T00:00:00Z","name_a2s":"Uncletopia | Frankfurt | 7 | Stopwatch Beta","protocol":17,"map":"koth_viaduct","folder":"tf","game":"Team Fortress","app_id":440,"player_count":0,"max_players":24,"Bots":0,"server_type":"Dedicated","server_os":"Linux","password":true,"vac":true,"version":"7723704","steam_id":85568392924742827,"keywords":["cp","nocrits","nodmgspread","uncletopia"],"game_id":440,"stv_port":27076,"stv_name":"Uncletopia | Frankfurt | 7 | Stopwatch Beta | STV","players":null},{"server_id":24,"name":"Uncletopia | Frankfurt | 8 | Community","name_short":"frk-8","host":"frk-1.de.uncletopia.com","port":27085,"enabled":true,"region":"eu","cc":"de","latitude":50.110924,"longitude":8.682127,"reserved":0,"last_update":"0001-01-01T00:00:00Z","name_a2s":"Uncletopia | Frankfurt | 8 | Community","protocol":17,"map":"pl_frontier_final","folder":"tf","game":"Team Fortress","app_id":440,"player_count":0,"max_players":24,"Bots":0,"server_type":"Dedicated","server_os":"Linux","password":true,"vac":true,"version":"7723704","steam_id":85568392924742828,"keywords":["nocrits","nodmgspread","payload","uncletopia"],"game_id":440,"stv_port":27086,"stv_name":"Uncletopia | Frankfurt | 8 | Community | STV","players":null},{"server_id":202,"name":"Uncletopia | Hong Kong | 1 | All Maps","name_short":"hgk-1","host":"hgk-1.hk.uncletopia.com","port":27015,"enabled":true,"region":"asia","cc":"hk","latitude":22.302711,"longitude":114.177216,"reserved":0,"last_update":"0001-01-01T00:00:00Z","name_a2s":"Uncletopia | Hong Kong | 1 | All Maps","protocol":17,"map":"ctf_2fort","folder":"tf","game":"Team Fortress","app_id":440,"player_count":24,"max_players":24,"Bots":0,"server_type":"Dedicated","server_os":"Linux","password":true,"vac":true,"version":"7723704","steam_id":85568392924494504,"keywords":["ctf","nocrits","nodmgspread","uncletopia"],"game_id":440,"stv_port":27016,"stv_name":"Uncletopia | Hong Kong | 1 | All Maps | STV","players":[{"user_id":276,"name":"bookman","steam_id":76561198989168133,"connected_time":811000000000,"state":"active","ping":83},{"user_id":246,"name":"Wx","steam_id":76561199217780897,"connected_time":3965000000000,"state":"active","ping":62},{"user_id":242,"name":"Bert","steam_id":76561199229912984,"connected_time":4578000000000,"state":"active","ping":57},{"user_id":272,"name":"Momoxhien","steam_id":76561198414997429,"connected_time":830000000000,"state":"active","ping":58},{"user_id":274,"name":"ZeniaPY (Playing on Wacom)","steam_id":76561198404352831,"connected_time":826000000000,"state":"active","ping":60},{"user_id":234,"name":"Skeptikal01","steam_id":76561199064694137,"connected_time":5559000000000,"state":"active","ping":101},{"user_id":244,"name":"Creeper-Chan","steam_id":76561198172623219,"connected_time":4059000000000,"state":"active","ping":53},{"user_id":273,"name":"sett.","steam_id":76561199010718657,"connected_time":828000000000,"state":"active","ping":74},{"user_id":239,"name":"Nimbus","steam_id":76561198877713016,"connected_time":4602000000000,"state":"active","ping":85},{"user_id":256,"name":"Aiyda","steam_id":76561199206795019,"connected_time":2594000000000,"state":"active","ping":121},{"user_id":261,"name":"LOLGAL","steam_id":76561198347418251,"connected_time":2082000000000,"state":"active","ping":68},{"user_id":232,"name":"SICSIN","steam_id":76561198083923462,"connected_time":5612000000000,"state":"active","ping":75},{"user_id":267,"name":"broc","steam_id":76561198944322758,"connected_time":1697000000000,"state":"active","ping":61},{"user_id":176,"name":"Lud","steam_id":76561198828840546,"connected_time":10622000000000,"state":"active","ping":70},{"user_id":262,"name":"Mega 00F","steam_id":76561198962485791,"connected_time":2053000000000,"state":"active","ping":84},{"user_id":212,"name":"brizzard","steam_id":76561198048438653,"connected_time":7151000000000,"state":"active","ping":52},{"user_id":260,"name":"RandomGuy1085","steam_id":76561199053910995,"connected_time":2239000000000,"state":"active","ping":79},{"user_id":278,"name":"Ocha","steam_id":76561199224096189,"connected_time":729000000000,"state":"active","ping":93},{"user_id":279,"name":"dkrgrptgj","steam_id":76561199445694770,"connected_time":416000000000,"state":"active","ping":87},{"user_id":275,"name":"Rev3lation","steam_id":76561198935157203,"connected_time":825000000000,"state":"active","ping":92},{"user_id":280,"name":"vintage","steam_id":76561198230213828,"connected_time":309000000000,"state":"active","ping":59},{"user_id":277,"name":"killman47","steam_id":76561198348487408,"connected_time":793000000000,"state":"active","ping":40},{"user_id":281,"name":"cjjakeypaul","steam_id":76561199126245431,"connected_time":90000000000,"state":"spawning","ping":83},{"user_id":254,"name":"Nonexistent","steam_id":76561198980563251,"connected_time":3492000000000,"state":"active","ping":80}]},{"server_id":1,"name":"Uncletopia | Los Angeles | 1 | All Maps","name_short":"lax-1","host":"lax-1.us.uncletopia.com","port":27015,"enabled":true,"region":"us-west","cc":"us","latitude":33.94279,"longitude":-118.41004,"reserved":0,"last_update":"0001-01-01T00:00:00Z","name_a2s":"Uncletopia | Los Angeles | 1 | All Maps","protocol":17,"map":"pl_pier","folder":"tf","game":"Team Fortress","app_id":440,"player_count":21,"max_players":24,"Bots":0,"server_type":"Dedicated","server_os":"Linux","password":true,"vac":true,"version":"7723704","steam_id":85568392924469991,"keywords":["nocrits","nodmgspread","payload","uncletopia"],"game_id":440,"stv_port":27016,"stv_name":"Uncletopia | Los Angeles | 1 | All Maps | STV","players":[{"user_id":554,"name":"Skeletor","steam_id":76561198847475474,"connected_time":477000000000,"state":"active","ping":68},{"user_id":512,"name":"Seriously Bruh","steam_id":76561198070408485,"connected_time":3341000000000,"state":"active","ping":77},{"user_id":560,"name":"ItsGian","steam_id":76561198073108956,"connected_time":236000000000,"state":"active","ping":71},{"user_id":549,"name":"Maniacal Rage","steam_id":76561197970758925,"connected_time":648000000000,"state":"active","ping":52},{"user_id":466,"name":"arcticmonkeysfan2006","steam_id":76561198345528370,"connected_time":8115000000000,"state":"active","ping":54},{"user_id":562,"name":"selvhat","steam_id":76561198114225509,"connected_time":189000000000,"state":"active","ping":59},{"user_id":557,"name":"soup mode","steam_id":76561198071451771,"connected_time":416000000000,"state":"active","ping":51},{"user_id":561,"name":"1000 Ping","steam_id":76561198098330939,"connected_time":196000000000,"state":"active","ping":63},{"user_id":546,"name":"kenZino","steam_id":76561197967971192,"connected_time":919000000000,"state":"active","ping":75},{"user_id":547,"name":"PoonaniTsunami","steam_id":76561197965367308,"connected_time":903000000000,"state":"active","ping":67},{"user_id":555,"name":"jackkarol","steam_id":76561198061641199,"connected_time":458000000000,"state":"active","ping":83},{"user_id":534,"name":"Jack from Jack in The Box","steam_id":76561199083594971,"connected_time":1284000000000,"state":"active","ping":51},{"user_id":548,"name":"Crunchy","steam_id":76561198240523882,"connected_time":794000000000,"state":"active","ping":57},{"user_id":556,"name":"goldendog365","steam_id":76561198211293393,"connected_time":450000000000,"state":"active","ping":82},{"user_id":563,"name":"EatSomeBEES","steam_id":76561198047334307,"connected_time":156000000000,"state":"active","ping":73},{"user_id":506,"name":"dude","steam_id":76561198253202693,"connected_time":4115000000000,"state":"active","ping":41},{"user_id":559,"name":"yellow","steam_id":76561198366474647,"connected_time":366000000000,"state":"active","ping":44},{"user_id":535,"name":"Killerofzombie23","steam_id":76561198799173778,"connected_time":1272000000000,"state":"active","ping":70},{"user_id":565,"name":"lol","steam_id":76561198026491738,"connected_time":81000000000,"state":"active","ping":60},{"user_id":536,"name":"dash23™","steam_id":76561198314951185,"connected_time":1248000000000,"state":"active","ping":86},{"user_id":529,"name":"victordead121","steam_id":76561199180843121,"connected_time":1951000000000,"state":"active","ping":68}]},{"server_id":112,"name":"Uncletopia | Los Angeles | 2 | All Maps","name_short":"lax-2","host":"lax-1.us.uncletopia.com","port":27025,"enabled":true,"region":"us-west","cc":"us","latitude":33.94279,"longitude":-118.41004,"reserved":0,"last_update":"0001-01-01T00:00:00Z","name_a2s":"Uncletopia | Los Angeles | 2 | All Maps","protocol":17,"map":"cp_gorge","folder":"tf","game":"Team Fortress","app_id":440,"player_count":16,"max_players":24,"Bots":0,"server_type":"Dedicated","server_os":"Linux","password":true,"vac":true,"version":"7723704","steam_id":85568392924469992,"keywords":["cp","nocrits","nodmgspread","uncletopia"],"game_id":440,"stv_port":27026,"stv_name":"Uncletopia | Los Angeles | 2 | All Maps | STV","players":[{"user_id":262,"name":"AGTCO Texas","steam_id":76561198053276976,"connected_time":927000000000,"state":"active","ping":65},{"user_id":167,"name":"Marzbee115","steam_id":76561198095821025,"connected_time":8988000000000,"state":"active","ping":45},{"user_id":280,"name":"Scoron","steam_id":76561198062099305,"connected_time":117000000000,"state":"active","ping":81},{"user_id":263,"name":"roger roger","steam_id":76561198130032444,"connected_time":927000000000,"state":"active","ping":73},{"user_id":260,"name":"High Cotton","steam_id":76561197998894854,"connected_time":974000000000,"state":"active","ping":94},{"user_id":277,"name":":3 | ph0va_ \u003c3 sab","steam_id":76561198309010627,"connected_time":279000000000,"state":"active","ping":71},{"user_id":278,"name":"DonJamón","steam_id":76561198319090131,"connected_time":217000000000,"state":"active","ping":73},{"user_id":243,"name":"Schnitz","steam_id":76561198265484253,"connected_time":2195000000000,"state":"active","ping":57},{"user_id":274,"name":"Dova","steam_id":76561198079481047,"connected_time":603000000000,"state":"active","ping":45},{"user_id":281,"name":"Sir Loincloth","steam_id":76561198033073991,"connected_time":53000000000,"state":"active","ping":90},{"user_id":273,"name":"Lemontap","steam_id":76561198064304141,"connected_time":647000000000,"state":"active","ping":52},{"user_id":250,"name":"Satori Komeiji","steam_id":76561198158211423,"connected_time":1581000000000,"state":"active","ping":35},{"user_id":242,"name":"That Sounds Serious","steam_id":76561198247719128,"connected_time":2199000000000,"state":"active","ping":104},{"user_id":272,"name":"iagimru","steam_id":76561198110145844,"connected_time":663000000000,"state":"active","ping":58},{"user_id":256,"name":"Blackbeard","steam_id":76561198046952265,"connected_time":1042000000000,"state":"active","ping":64},{"user_id":223,"name":"Fajita Master","steam_id":76561198329150962,"connected_time":3991000000000,"state":"active","ping":105}]},{"server_id":324,"name":"Uncletopia | Los Angeles | 3 | All Maps","name_short":"lax-3","host":"lax-1.us.uncletopia.com","port":27035,"enabled":true,"region":"us-west","cc":"us","latitude":33.94279,"longitude":-118.41004,"reserved":0,"last_update":"0001-01-01T00:00:00Z","name_a2s":"Uncletopia | Los Angeles | 3 | All Maps","protocol":17,"map":"koth_viaduct","folder":"tf","game":"Team Fortress","app_id":440,"player_count":0,"max_players":24,"Bots":0,"server_type":"Dedicated","server_os":"Linux","password":true,"vac":true,"version":"7723704","steam_id":85568392924510198,"keywords":["cp","nocrits","nodmgspread","uncletopia"],"game_id":440,"stv_port":27036,"stv_name":"Uncletopia | Los Angeles | 3 | All Maps | STV","players":null},{"server_id":25,"name":"Uncletopia | Los Angeles | 4 | Stopwatch Beta","name_short":"lax-4","host":"lax-1.us.uncletopia.com","port":27045,"enabled":true,"region":"us-west","cc":"us","latitude":33.94279,"longitude":-118.41004,"reserved":0,"last_update":"0001-01-01T00:00:00Z","name_a2s":"Uncletopia | Los Angeles | 4 | Stopwatch Beta","protocol":17,"map":"cp_sunshine","folder":"tf","game":"Team Fortress","app_id":440,"player_count":0,"max_players":24,"Bots":0,"server_type":"Dedicated","server_os":"Linux","password":true,"vac":true,"version":"7723704","steam_id":85568392924510199,"keywords":["cp","nocrits","nodmgspread","uncletopia"],"game_id":440,"stv_port":27046,"stv_name":"Uncletopia | Los Angeles | 4 | Stopwatch Beta | STV","players":null},{"server_id":11,"name":"Uncletopia | London | 1 | All Maps","name_short":"lon-1","host":"lon-1.uk.uncletopia.com","port":27015,"enabled":true,"region":"eu","cc":"gb","latitude":51.509865,"longitude":-0.118092,"reserved":0,"last_update":"0001-01-01T00:00:00Z","name_a2s":"Uncletopia | London | 1 | All Maps","protocol":17,"map":"pl_upward","folder":"tf","game":"Team Fortress","app_id":440,"player_count":18,"max_players":24,"Bots":0,"server_type":"Dedicated","server_os":"Linux","password":true,"vac":true,"version":"7723704","steam_id":85568392924367362,"keywords":["nocrits","nodmgspread","payload","uncletopia"],"game_id":440,"stv_port":27016,"stv_name":"Uncletopia | London | 1 | All Maps | STV","players":[{"user_id":3,"name":"Rcki","steam_id":76561198164291462,"connected_time":6841000000000,"state":"active","ping":72},{"user_id":91,"name":"Zenixic","steam_id":76561198085232233,"connected_time":288000000000,"state":"active","ping":86},{"user_id":95,"name":"Mimic","steam_id":76561199204932956,"connected_time":16000000000,"state":"active","ping":35},{"user_id":87,"name":"yeldad","steam_id":76561198447264153,"connected_time":526000000000,"state":"active","ping":110},{"user_id":69,"name":"Deva Path","steam_id":76561198085763542,"connected_time":1607000000000,"state":"active","ping":74},{"user_id":81,"name":"Pikawa kurwa fa","steam_id":76561198164806677,"connected_time":1055000000000,"state":"active","ping":92},{"user_id":9,"name":"N3na3","steam_id":76561198149644285,"connected_time":6797000000000,"state":"active","ping":93},{"user_id":65,"name":"night.s","steam_id":76561198326287823,"connected_time":1921000000000,"state":"active","ping":68},{"user_id":82,"name":"Average TF2 Enjoyer","steam_id":76561199098261918,"connected_time":1038000000000,"state":"active","ping":189},{"user_id":85,"name":"moopviii","steam_id":76561199177831851,"connected_time":807000000000,"state":"active","ping":134},{"user_id":89,"name":"GOT Ya :)","steam_id":76561198877246517,"connected_time":340000000000,"state":"active","ping":108},{"user_id":92,"name":"Kitsune","steam_id":76561198119626220,"connected_time":214000000000,"state":"active","ping":57},{"user_id":93,"name":"Shwoox the Psilocybe","steam_id":76561198212488780,"connected_time":178000000000,"state":"active","ping":63},{"user_id":72,"name":"MelvinIsANiceBoy","steam_id":76561198178415634,"connected_time":1334000000000,"state":"active","ping":49},{"user_id":73,"name":"stun","steam_id":76561198276681691,"connected_time":1297000000000,"state":"active","ping":42},{"user_id":80,"name":"Mabert","steam_id":76561198436058407,"connected_time":1077000000000,"state":"active","ping":80},{"user_id":75,"name":"dairy","steam_id":76561198117033273,"connected_time":1224000000000,"state":"active","ping":50},{"user_id":94,"name":"Fisherman James","steam_id":76561198004502230,"connected_time":162000000000,"state":"active","ping":61}]},{"server_id":114,"name":"Uncletopia | London | 2 | All Maps","name_short":"lon-2","host":"lon-1.uk.uncletopia.com","port":27025,"enabled":true,"region":"eu","cc":"gb","latitude":51.509865,"longitude":-0.118092,"reserved":0,"last_update":"0001-01-01T00:00:00Z","name_a2s":"Uncletopia | London | 2 | All Maps","protocol":17,"map":"pl_upward","folder":"tf","game":"Team Fortress","app_id":440,"player_count":0,"max_players":24,"Bots":0,"server_type":"Dedicated","server_os":"Linux","password":true,"vac":true,"version":"7723704","steam_id":85568392924470941,"keywords":["nocrits","nodmgspread","payload","uncletopia"],"game_id":440,"stv_port":27026,"stv_name":"Uncletopia | London | 2 | All Maps | STV","players":null},{"server_id":320,"name":"Uncletopia | London | 3 | All Maps","name_short":"lon-3","host":"lon-1.uk.uncletopia.com","port":27035,"enabled":true,"region":"eu","cc":"gb","latitude":51.509865,"longitude":-0.118092,"reserved":0,"last_update":"0001-01-01T00:00:00Z","name_a2s":"Uncletopia | London | 3 | All Maps","protocol":17,"map":"pl_snowycoast","folder":"tf","game":"Team Fortress","app_id":440,"player_count":0,"max_players":24,"Bots":0,"server_type":"Dedicated","server_os":"Linux","password":true,"vac":true,"version":"7723704","steam_id":85568392924510192,"keywords":["nocrits","nodmgspread","payload","uncletopia"],"game_id":440,"stv_port":27036,"stv_name":"Uncletopia | London | 3 | All Maps | STV","players":null},{"server_id":321,"name":"Uncletopia | London | 4 | All Maps","name_short":"lon-4","host":"lon-1.uk.uncletopia.com","port":27045,"enabled":true,"region":"eu","cc":"gb","latitude":51.509865,"longitude":-0.118092,"reserved":0,"last_update":"0001-01-01T00:00:00Z","name_a2s":"Uncletopia | London | 4 | All Maps","protocol":17,"map":"koth_lakeside_final","folder":"tf","game":"Team Fortress","app_id":440,"player_count":0,"max_players":24,"Bots":0,"server_type":"Dedicated","server_os":"Linux","password":true,"vac":true,"version":"7723704","steam_id":85568392924510193,"keywords":["cp","nocrits","nodmgspread","uncletopia"],"game_id":440,"stv_port":27046,"stv_name":"Uncletopia | London | 4 | All Maps | STV","players":null},{"server_id":21,"name":"Uncletopia | London | 5 | All Maps","name_short":"lon-5","host":"lon-1.uk.uncletopia.com","port":27055,"enabled":true,"region":"eu","cc":"gb","latitude":51.509865,"longitude":-0.118092,"reserved":0,"last_update":"0001-01-01T00:00:00Z","name_a2s":"Uncletopia | London | 5 | All Maps","protocol":17,"map":"cp_snakewater_final1","folder":"tf","game":"Team Fortress","app_id":440,"player_count":0,"max_players":24,"Bots":0,"server_type":"Dedicated","server_os":"Linux","password":true,"vac":true,"version":"7723704","steam_id":85568392924742829,"keywords":["cp","nocrits","nodmgspread","uncletopia"],"game_id":440,"stv_port":27056,"stv_name":"Uncletopia | London | 5 | All Maps | STV","players":null},{"server_id":22,"name":"Uncletopia | London | 6 | All Maps","name_short":"lon-6","host":"lon-1.uk.uncletopia.com","port":27065,"enabled":true,"region":"eu","cc":"gb","latitude":51.509865,"longitude":-0.118092,"reserved":0,"last_update":"0001-01-01T00:00:00Z","name_a2s":"Uncletopia | London | 6 | All Maps","protocol":17,"map":"cp_process_final","folder":"tf","game":"Team Fortress","app_id":440,"player_count":0,"max_players":24,"Bots":0,"server_type":"Dedicated","server_os":"Linux","password":true,"vac":true,"version":"7723704","steam_id":85568392924742830,"keywords":["cp","nocrits","nodmgspread","uncletopia"],"game_id":440,"stv_port":27066,"stv_name":"Uncletopia | London | 6 | All Maps | STV","players":null},{"server_id":40,"name":"Uncletopia | London | 7 | No Payload","name_short":"lon-7","host":"lon-1.uk.uncletopia.com","port":27075,"enabled":true,"region":"eu","cc":"gb","latitude":51.509865,"longitude":-0.118092,"reserved":0,"last_update":"0001-01-01T00:00:00Z","name_a2s":"Uncletopia | London | 7 | No Payload","protocol":17,"map":"koth_viaduct","folder":"tf","game":"Team Fortress","app_id":440,"player_count":0,"max_players":24,"Bots":0,"server_type":"Dedicated","server_os":"Linux","password":true,"vac":true,"version":"7723704","steam_id":85568392924964314,"keywords":["cp","nocrits","nodmgspread","uncletopia"],"game_id":440,"stv_port":27076,"stv_name":"Uncletopia | London | 7 | No Payload | STV","players":null},{"server_id":41,"name":"Uncletopia | London | 8 | Community","name_short":"lon-8","host":"lon-1.uk.uncletopia.com","port":27085,"enabled":true,"region":"eu","cc":"gb","latitude":51.509865,"longitude":-0.118092,"reserved":0,"last_update":"0001-01-01T00:00:00Z","name_a2s":"Uncletopia | London | 8 | Community","protocol":17,"map":"koth_highpass","folder":"tf","game":"Team Fortress","app_id":440,"player_count":0,"max_players":24,"Bots":0,"server_type":"Dedicated","server_os":"Linux","password":true,"vac":true,"version":"7723704","steam_id":85568392924964315,"keywords":["cp","nocrits","nodmgspread","uncletopia"],"game_id":440,"stv_port":27086,"stv_name":"Uncletopia | London | 8 | Community | STV","players":null},{"server_id":300,"name":"Uncletopia | Montréal | 1 | All Maps","name_short":"mtl-1","host":"mtl-1.ca.uncletopia.com","port":27015,"enabled":true,"region":"us-east","cc":"ca","latitude":45.50889,"longitude":-73.56167,"reserved":0,"last_update":"0001-01-01T00:00:00Z","name_a2s":"Uncletopia | Montréal | 1 | All Maps","protocol":17,"map":"koth_highpass","folder":"tf","game":"Team Fortress","app_id":440,"player_count":0,"max_players":24,"Bots":0,"server_type":"Dedicated","server_os":"Linux","password":true,"vac":true,"version":"7723704","steam_id":85568392924500087,"keywords":["cp","nocrits","nodmgspread","uncletopia"],"game_id":440,"stv_port":27016,"stv_name":"Uncletopia | Montréal | 1 | All Maps | STV","players":null},{"server_id":301,"name":"Uncletopia | Montréal | 2 | All Maps","name_short":"mtl-2","host":"mtl-1.ca.uncletopia.com","port":27025,"enabled":true,"region":"us-east","cc":"ca","latitude":45.50889,"longitude":-73.56167,"reserved":0,"last_update":"0001-01-01T00:00:00Z","name_a2s":"Uncletopia | Montréal | 2 | All Maps","protocol":17,"map":"koth_king","folder":"tf","game":"Team Fortress","app_id":440,"player_count":0,"max_players":24,"Bots":0,"server_type":"Dedicated","server_os":"Linux","password":true,"vac":true,"version":"7723704","steam_id":85568392924500088,"keywords":["cp","nocrits","nodmgspread","uncletopia"],"game_id":440,"stv_port":27026,"stv_name":"Uncletopia | Montréal | 2 | All Maps | STV","players":null},{"server_id":302,"name":"Uncletopia | Montréal | 3 | All Maps","name_short":"mtl-3","host":"mtl-1.ca.uncletopia.com","port":27035,"enabled":true,"region":"us-east","cc":"ca","latitude":45.50889,"longitude":-73.56167,"reserved":0,"last_update":"0001-01-01T00:00:00Z","name_a2s":"Uncletopia | Montréal | 3 | All Maps","protocol":17,"map":"cp_snakewater_final1","folder":"tf","game":"Team Fortress","app_id":440,"player_count":0,"max_players":24,"Bots":0,"server_type":"Dedicated","server_os":"Linux","password":true,"vac":true,"version":"7723704","steam_id":85568392924500089,"keywords":["cp","nocrits","nodmgspread","uncletopia"],"game_id":440,"stv_port":27036,"stv_name":"Uncletopia | Montréal | 3 | All Maps | STV","players":null},{"server_id":303,"name":"Uncletopia | Montréal | 4 | No Payload","name_short":"mtl-4","host":"mtl-1.ca.uncletopia.com","port":27045,"enabled":true,"region":"us-east","cc":"ca","latitude":45.50889,"longitude":-73.56167,"reserved":0,"last_update":"0001-01-01T00:00:00Z","name_a2s":"Uncletopia | Montréal | 4 | No Payload","protocol":17,"map":"koth_harvest_final","folder":"tf","game":"Team Fortress","app_id":440,"player_count":0,"max_players":24,"Bots":0,"server_type":"Dedicated","server_os":"Linux","password":true,"vac":true,"version":"7723704","steam_id":85568392924500090,"keywords":["cp","nocrits","nodmgspread","uncletopia"],"game_id":440,"stv_port":27046,"stv_name":"Uncletopia | Montréal | 4 | No Payload | STV","players":null},{"server_id":13,"name":"Uncletopia | New York City | 1 | All Maps","name_short":"nyc-1","host":"nyc-1.us.uncletopia.com","port":27015,"enabled":true,"region":"us-east","cc":"us","latitude":40.73061,"longitude":-73.93524,"reserved":0,"last_update":"0001-01-01T00:00:00Z","name_a2s":"Uncletopia | New York City | 1 | All Maps","protocol":17,"map":"pl_pier","folder":"tf","game":"Team Fortress","app_id":440,"player_count":3,"max_players":24,"Bots":0,"server_type":"Dedicated","server_os":"Linux","password":true,"vac":true,"version":"7723704","steam_id":85568392924469993,"keywords":["nocrits","nodmgspread","payload","uncletopia"],"game_id":440,"stv_port":27016,"stv_name":"Uncletopia | New York City | 1 | All Maps | STV","players":[{"user_id":272,"name":"schalldämpfer","steam_id":76561198178303726,"connected_time":3224000000000,"state":"active","ping":39},{"user_id":148,"name":"AADDAAMM","steam_id":76561198068584852,"connected_time":11992000000000,"state":"active","ping":54},{"user_id":149,"name":"Rat Prophet","steam_id":76561198040884019,"connected_time":11986000000000,"state":"active","ping":60}]},{"server_id":14,"name":"Uncletopia | New York City | 2 | All Maps","name_short":"nyc-2","host":"nyc-1.us.uncletopia.com","port":27025,"enabled":true,"region":"us-east","cc":"us","latitude":40.73061,"longitude":-73.93524,"reserved":0,"last_update":"0001-01-01T00:00:00Z","name_a2s":"Uncletopia | New York City | 2 | All Maps","protocol":17,"map":"koth_cascade","folder":"tf","game":"Team Fortress","app_id":440,"player_count":0,"max_players":24,"Bots":0,"server_type":"Dedicated","server_os":"Linux","password":true,"vac":true,"version":"7723704","steam_id":85568392924469994,"keywords":["cp","nocrits","nodmgspread","uncletopia"],"game_id":440,"stv_port":27026,"stv_name":"Uncletopia | New York City | 2 | All Maps | STV","players":null},{"server_id":15,"name":"Uncletopia | New York City | 3 | Stopwatch Beta","name_short":"nyc-3","host":"nyc-1.us.uncletopia.com","port":27035,"enabled":true,"region":"us-east","cc":"us","latitude":40.73061,"longitude":-73.93524,"reserved":0,"last_update":"0001-01-01T00:00:00Z","name_a2s":"Uncletopia | New York City | 3 | Stopwatch Beta","protocol":17,"map":"cp_process_final","folder":"tf","game":"Team Fortress","app_id":440,"player_count":0,"max_players":24,"Bots":0,"server_type":"Dedicated","server_os":"Linux","password":true,"vac":true,"version":"7723704","steam_id":85568392924742820,"keywords":["cp","nocrits","nodmgspread","uncletopia"],"game_id":440,"stv_port":27036,"stv_name":"Uncletopia | New York City | 3 | Stopwatch Beta | STV","players":null},{"server_id":16,"name":"Uncletopia | New York City | 4 | Community","name_short":"nyc-4","host":"nyc-1.us.uncletopia.com","port":27045,"enabled":true,"region":"us-east","cc":"us","latitude":40.73061,"longitude":-73.93524,"reserved":0,"last_update":"0001-01-01T00:00:00Z","name_a2s":"Uncletopia | New York City | 4 | Community","protocol":17,"map":"workshop/koth_synthetic_rc6a.ugc1549817316","folder":"tf","game":"Team Fortress","app_id":440,"player_count":0,"max_players":24,"Bots":0,"server_type":"Dedicated","server_os":"Linux","password":true,"vac":true,"version":"7723704","steam_id":85568392924742821,"keywords":["cp","nocrits","nodmgspread","uncletopia"],"game_id":440,"stv_port":27046,"stv_name":"Uncletopia | New York City | 4 | Community | STV","players":null},{"server_id":142,"name":"Uncletopia | São Paulo | 1 | All Maps","name_short":"sao-1","host":"sao-1.br.uncletopia.com","port":27015,"enabled":true,"region":"sa","cc":"br","latitude":-23.533773,"longitude":-46.62529,"reserved":0,"last_update":"0001-01-01T00:00:00Z","name_a2s":"Uncletopia | São Paulo | 1 | All Maps","protocol":17,"map":"pl_barnblitz","folder":"tf","game":"Team Fortress","app_id":440,"player_count":0,"max_players":24,"Bots":0,"server_type":"Dedicated","server_os":"Linux","password":true,"vac":true,"version":"7723704","steam_id":85568392924469996,"keywords":["nocrits","nodmgspread","payload","uncletopia"],"game_id":440,"stv_port":27016,"stv_name":"Uncletopia | São Paulo | 1 | All Maps | STV","players":null},{"server_id":143,"name":"Uncletopia | São Paulo | 2 | All Maps","name_short":"sao-2","host":"sao-2.br.uncletopia.com","port":27015,"enabled":true,"region":"sa","cc":"br","latitude":-23.533773,"longitude":-46.62529,"reserved":0,"last_update":"0001-01-01T00:00:00Z","name_a2s":"Uncletopia | São Paulo | 2 | All Maps","protocol":17,"map":"pl_barnblitz","folder":"tf","game":"Team Fortress","app_id":440,"player_count":0,"max_players":24,"Bots":0,"server_type":"Dedicated","server_os":"Linux","password":true,"vac":true,"version":"7723704","steam_id":85568392924485349,"keywords":["nocrits","nodmgspread","payload","uncletopia"],"game_id":440,"stv_port":27016,"stv_name":"Uncletopia | São Paulo | 2 | All Maps | STV","players":null},{"server_id":7,"name":"Uncletopia | Seattle | 1 | All Maps","name_short":"sea-1","host":"sea-1.us.uncletopia.com","port":27015,"enabled":true,"region":"us-west","cc":"us","latitude":47.608013,"longitude":-122.33517,"reserved":0,"last_update":"0001-01-01T00:00:00Z","name_a2s":"Uncletopia | Seattle | 1 | All Maps","protocol":17,"map":"pl_frontier_final","folder":"tf","game":"Team Fortress","app_id":440,"player_count":24,"max_players":24,"Bots":0,"server_type":"Dedicated","server_os":"Linux","password":true,"vac":true,"version":"7723704","steam_id":85568392924469997,"keywords":["nocrits","nodmgspread","payload","uncletopia"],"game_id":440,"stv_port":27016,"stv_name":"Uncletopia | Seattle | 1 | All Maps | STV","players":[{"user_id":547,"name":"JimmySquid","steam_id":76561198254242530,"connected_time":2680000000000,"state":"active","ping":91},{"user_id":566,"name":"brobtlcehc","steam_id":76561198043558709,"connected_time":1681000000000,"state":"active","ping":47},{"user_id":557,"name":"cyra","steam_id":76561198025454291,"connected_time":1998000000000,"state":"active","ping":33},{"user_id":541,"name":"StrangeMachine","steam_id":76561198046628064,"connected_time":2964000000000,"state":"active","ping":37},{"user_id":521,"name":"Klone","steam_id":76561198854485605,"connected_time":5094000000000,"state":"active","ping":78},{"user_id":515,"name":"profile name","steam_id":76561198032625036,"connected_time":5916000000000,"state":"active","ping":60},{"user_id":572,"name":"PopcornNinja101","steam_id":76561198330680181,"connected_time":421000000000,"state":"active","ping":55},{"user_id":543,"name":"Alex (Projeffional Gramer)","steam_id":76561198314221897,"connected_time":2951000000000,"state":"active","ping":56},{"user_id":559,"name":"Trooper5k","steam_id":76561198308230713,"connected_time":1923000000000,"state":"active","ping":51},{"user_id":568,"name":"Greggor","steam_id":76561198029396836,"connected_time":1649000000000,"state":"active","ping":42},{"user_id":571,"name":"GUITAR GAMING!!!","steam_id":76561198199604767,"connected_time":986000000000,"state":"active","ping":54},{"user_id":492,"name":"Dank Memes, Dead Dreams","steam_id":76561198437122566,"connected_time":7393000000000,"state":"active","ping":57},{"user_id":558,"name":"Google","steam_id":76561198857237473,"connected_time":1937000000000,"state":"active","ping":55},{"user_id":527,"name":"Foyboy™","steam_id":76561198072305817,"connected_time":4298000000000,"state":"active","ping":94},{"user_id":563,"name":"delight","steam_id":76561197980280272,"connected_time":1864000000000,"state":"active","ping":48},{"user_id":485,"name":"goldhed","steam_id":76561198051751133,"connected_time":7862000000000,"state":"active","ping":56},{"user_id":567,"name":"THIRDPIERCE","steam_id":76561198405366314,"connected_time":1678000000000,"state":"active","ping":119},{"user_id":538,"name":"Dr. Karl, the AUS Science Guy","steam_id":76561198031278747,"connected_time":3468000000000,"state":"active","ping":52},{"user_id":561,"name":"Gugomo","steam_id":76561198121428316,"connected_time":1910000000000,"state":"active","ping":65},{"user_id":565,"name":"rorytherednosedreindeer","steam_id":76561198065825165,"connected_time":1818000000000,"state":"active","ping":84},{"user_id":570,"name":"ʀ.ꕤ｡.","steam_id":76561198029580420,"connected_time":1242000000000,"state":"active","ping":170},{"user_id":416,"name":"Level 99 Mudcrab","steam_id":76561198077452771,"connected_time":13826000000000,"state":"active","ping":64},{"user_id":552,"name":"Soft Fuzzy Horse","steam_id":76561198005777544,"connected_time":2511000000000,"state":"active","ping":83},{"user_id":539,"name":"gorlab","steam_id":76561198025089694,"connected_time":3457000000000,"state":"active","ping":63}]},{"server_id":119,"name":"Uncletopia | Seattle | 2 | All Maps","name_short":"sea-2","host":"sea-1.us.uncletopia.com","port":27025,"enabled":true,"region":"us-west","cc":"us","latitude":47.608013,"longitude":-122.33517,"reserved":0,"last_update":"0001-01-01T00:00:00Z","name_a2s":"Uncletopia | Seattle | 2 | All Maps","protocol":17,"map":"pl_badwater","folder":"tf","game":"Team Fortress","app_id":440,"player_count":0,"max_players":24,"Bots":0,"server_type":"Dedicated","server_os":"Linux","password":true,"vac":true,"version":"7723704","steam_id":85568392924469998,"keywords":["nocrits","nodmgspread","payload","uncletopia"],"game_id":440,"stv_port":27026,"stv_name":"Uncletopia | Seattle | 2 | All Maps | STV","players":null},{"server_id":406,"name":"Uncletopia | Seattle | 3 | Stopwatch Beta","name_short":"sea-3","host":"sea-1.us.uncletopia.com","port":27035,"enabled":true,"region":"us-west","cc":"us","latitude":47.608013,"longitude":-122.33517,"reserved":0,"last_update":"0001-01-01T00:00:00Z","name_a2s":"Uncletopia | Seattle | 3 | Stopwatch Beta","protocol":17,"map":"cp_altitude","folder":"tf","game":"Team Fortress","app_id":440,"player_count":0,"max_players":24,"Bots":0,"server_type":"Dedicated","server_os":"Linux","password":true,"vac":false,"version":"7723704","steam_id":0,"keywords":["cp","nocrits","nodmgspread","uncletopia"],"game_id":440,"stv_port":27036,"stv_name":"Uncletopia | Seattle | 3 | Stopwatch Beta | STV","players":null},{"server_id":17,"name":"Uncletopia | San Francisco | 1 | All Maps","name_short":"sfo-1","host":"sfo-1.us.uncletopia.com","port":27015,"enabled":true,"region":"us-west","cc":"us","latitude":37.77397,"longitude":-122.4313,"reserved":0,"last_update":"0001-01-01T00:00:00Z","name_a2s":"Uncletopia | San Francisco | 1 | All Maps","protocol":17,"map":"pl_upward","folder":"tf","game":"Team Fortress","app_id":440,"player_count":22,"max_players":24,"Bots":0,"server_type":"Dedicated","server_os":"Linux","password":true,"vac":true,"version":"7723704","steam_id":85568392924469999,"keywords":["nocrits","nodmgspread","payload","uncletopia"],"game_id":440,"stv_port":27016,"stv_name":"Uncletopia | San Francisco | 1 | All Maps | STV","players":[{"user_id":495,"name":"Noelle Deltarune","steam_id":76561199033561817,"connected_time":866000000000,"state":"active","ping":82},{"user_id":511,"name":"blue duck the 2nd","steam_id":76561198263142765,"connected_time":69000000000,"state":"active","ping":110},{"user_id":509,"name":"The Redeemed","steam_id":76561198328119267,"connected_time":377000000000,"state":"active","ping":63},{"user_id":508,"name":"Ferxxo","steam_id":76561198820199000,"connected_time":414000000000,"state":"active","ping":90},{"user_id":510,"name":"plutonium isotope","steam_id":76561198319442494,"connected_time":285000000000,"state":"active","ping":65},{"user_id":496,"name":"Jarryl97","steam_id":76561198055451373,"connected_time":851000000000,"state":"active","ping":91},{"user_id":469,"name":"self sufficient kitten","steam_id":76561197960592612,"connected_time":2390000000000,"state":"active","ping":63},{"user_id":512,"name":"canisCasanova","steam_id":76561198075582076,"connected_time":25000000000,"state":"active","ping":63},{"user_id":504,"name":"Mino","steam_id":76561198320732270,"connected_time":665000000000,"state":"active","ping":61},{"user_id":497,"name":"OLE SAINTE NICKE HIMSELVE","steam_id":76561198103331056,"connected_time":848000000000,"state":"active","ping":62},{"user_id":498,"name":"A Pizza Already","steam_id":76561198064918401,"connected_time":796000000000,"state":"active","ping":48},{"user_id":464,"name":"Testicular Eggnog","steam_id":76561197968179862,"connected_time":3655000000000,"state":"active","ping":67},{"user_id":480,"name":"oph","steam_id":76561198342480009,"connected_time":1515000000000,"state":"active","ping":56},{"user_id":460,"name":"Frongus","steam_id":76561197979056451,"connected_time":3826000000000,"state":"active","ping":62},{"user_id":454,"name":"MORE BOUNCE TO THE OUNCE","steam_id":76561198243399336,"connected_time":4519000000000,"state":"active","ping":57},{"user_id":468,"name":"2\u002620","steam_id":76561198068672882,"connected_time":2764000000000,"state":"active","ping":51},{"user_id":506,"name":"CoryBaxterWH","steam_id":76561198060041823,"connected_time":517000000000,"state":"active","ping":113},{"user_id":433,"name":"Austin the Forecaster","steam_id":76561198141635855,"connected_time":6248000000000,"state":"active","ping":84},{"user_id":487,"name":"Grandpa Baozhai","steam_id":76561198086667725,"connected_time":1384000000000,"state":"active","ping":72},{"user_id":501,"name":"HФRSEPAIN","steam_id":76561198083658115,"connected_time":771000000000,"state":"active","ping":89},{"user_id":494,"name":"NotAWeeb","steam_id":76561198165530739,"connected_time":936000000000,"state":"active","ping":45}]},{"server_id":18,"name":"Uncletopia | San Francisco | 2 | All Maps","name_short":"sfo-2","host":"sfo-1.us.uncletopia.com","port":27025,"enabled":true,"region":"us-west","cc":"us","latitude":37.77397,"longitude":-122.4313,"reserved":0,"last_update":"0001-01-01T00:00:00Z","name_a2s":"Uncletopia | San Francisco | 2 | All Maps","protocol":17,"map":"koth_highpass","folder":"tf","game":"Team Fortress","app_id":440,"player_count":0,"max_players":24,"Bots":0,"server_type":"Dedicated","server_os":"Linux","password":true,"vac":true,"version":"7723704","steam_id":85568392924470000,"keywords":["cp","nocrits","nodmgspread","uncletopia"],"game_id":440,"stv_port":27026,"stv_name":"Uncletopia | San Francisco | 2 | All Maps | STV","players":null},{"server_id":19,"name":"Uncletopia | San Francisco | 3 | Stopwatch Beta","name_short":"sfo-3","host":"sfo-1.us.uncletopia.com","port":27035,"enabled":true,"region":"us-west","cc":"us","latitude":37.77397,"longitude":-122.4313,"reserved":0,"last_update":"0001-01-01T00:00:00Z","name_a2s":"Uncletopia | San Francisco | 3 | Stopwatch Beta","protocol":17,"map":"pl_pier","folder":"tf","game":"Team Fortress","app_id":440,"player_count":0,"max_players":24,"Bots":0,"server_type":"Dedicated","server_os":"Linux","password":true,"vac":true,"version":"7723704","steam_id":85568392924742824,"keywords":["nocrits","nodmgspread","payload","uncletopia"],"game_id":440,"stv_port":27036,"stv_name":"Uncletopia | San Francisco | 3 | Stopwatch Beta | STV","players":null},{"server_id":20,"name":"Uncletopia | San Francisco | 4 | Community","name_short":"sfo-4","host":"sfo-1.us.uncletopia.com","port":27045,"enabled":true,"region":"us-west","cc":"us","latitude":37.77397,"longitude":-122.4313,"reserved":0,"last_update":"0001-01-01T00:00:00Z","name_a2s":"Uncletopia | San Francisco | 4 | Community","protocol":17,"map":"koth_cascade","folder":"tf","game":"Team Fortress","app_id":440,"player_count":0,"max_players":24,"Bots":0,"server_type":"Dedicated","server_os":"Linux","password":true,"vac":true,"version":"7723704","steam_id":85568392924742826,"keywords":["cp","nocrits","nodmgspread","uncletopia"],"game_id":440,"stv_port":27046,"stv_name":"Uncletopia | San Francisco | 4 | Community | STV","players":null},{"server_id":141,"name":"Uncletopia | Sydney | 1 | All Maps","name_short":"syd-1","host":"syd-1.au.uncletopia.com","port":27015,"enabled":true,"region":"au","cc":"au","latitude":-33.865143,"longitude":151.2099,"reserved":0,"last_update":"0001-01-01T00:00:00Z","name_a2s":"Uncletopia | Sydney | 1 | All Maps","protocol":17,"map":"cp_steel","folder":"tf","game":"Team Fortress","app_id":440,"player_count":14,"max_players":24,"Bots":0,"server_type":"Dedicated","server_os":"Linux","password":true,"vac":true,"version":"7723704","steam_id":85568392924470001,"keywords":["cp","nocrits","nodmgspread","uncletopia"],"game_id":440,"stv_port":27016,"stv_name":"Uncletopia | Sydney | 1 | All Maps | STV","players":[{"user_id":244,"name":"terrablade_master","steam_id":76561198997249192,"connected_time":601000000000,"state":"active","ping":65},{"user_id":247,"name":"Dr Barry Mundy PhD","steam_id":76561198034512686,"connected_time":413000000000,"state":"active","ping":72},{"user_id":229,"name":"squrrel","steam_id":76561198083429611,"connected_time":1189000000000,"state":"active","ping":66},{"user_id":249,"name":"Eclipse","steam_id":76561198972095766,"connected_time":228000000000,"state":"active","ping":42},{"user_id":255,"name":"Blueberry","steam_id":76561198803759847,"connected_time":43000000000,"state":"active","ping":66},{"user_id":251,"name":"Greenie Meanie","steam_id":76561198147970145,"connected_time":100000000000,"state":"active","ping":33},{"user_id":252,"name":"renting a senpai","steam_id":76561198974405401,"connected_time":91000000000,"state":"active","ping":240},{"user_id":250,"name":"Luca","steam_id":76561198169931370,"connected_time":218000000000,"state":"active","ping":66},{"user_id":254,"name":"Homeless2","steam_id":76561198208609541,"connected_time":63000000000,"state":"active","ping":59},{"user_id":253,"name":"Bing Soy","steam_id":76561198057093383,"connected_time":90000000000,"state":"active","ping":42},{"user_id":230,"name":"speed bomb","steam_id":76561198277363788,"connected_time":1160000000000,"state":"active","ping":75},{"user_id":231,"name":"Soru","steam_id":76561198010844786,"connected_time":1107000000000,"state":"active","ping":68},{"user_id":241,"name":"Le_Sploingus(Bucket shitter)","steam_id":76561199077750651,"connected_time":776000000000,"state":"active","ping":47},{"user_id":200,"name":"little raw meat boy","steam_id":76561199248254676,"connected_time":3408000000000,"state":"active","ping":64}]},{"server_id":123,"name":"Uncletopia | Sydney | 2 | All Maps","name_short":"syd-2","host":"syd-1.au.uncletopia.com","port":27025,"enabled":true,"region":"au","cc":"au","latitude":-33.865143,"longitude":151.2099,"reserved":0,"last_update":"0001-01-01T00:00:00Z","name_a2s":"Uncletopia | Sydney | 2 | All Maps","protocol":17,"map":"koth_cascade","folder":"tf","game":"Team Fortress","app_id":440,"player_count":0,"max_players":24,"Bots":0,"server_type":"Dedicated","server_os":"Linux","password":true,"vac":true,"version":"7723704","steam_id":85568392924470002,"keywords":["cp","nocrits","nodmgspread","uncletopia"],"game_id":440,"stv_port":27026,"stv_name":"Uncletopia | Sydney | 2 | All Maps | STV","players":null},{"server_id":395,"name":"Uncletopia | Sydney | 3 | All Maps","name_short":"syd-3","host":"syd-1.au.uncletopia.com","port":27035,"enabled":true,"region":"au","cc":"au","latitude":-33.865143,"longitude":151.2099,"reserved":0,"last_update":"0001-01-01T00:00:00Z","name_a2s":"Uncletopia | Sydney | 3 | All Maps","protocol":17,"map":"cp_powerhouse","folder":"tf","game":"Team Fortress","app_id":440,"player_count":20,"max_players":24,"Bots":0,"server_type":"Dedicated","server_os":"Linux","password":true,"vac":true,"version":"7723704","steam_id":85568392925194467,"keywords":["cp","nocrits","nodmgspread","uncletopia"],"game_id":440,"stv_port":27036,"stv_name":"Uncletopia | Sydney | 3 | All Maps | STV","players":[{"user_id":367,"name":"Happy Feet (A Tarantino Film)","steam_id":76561198055318716,"connected_time":1573000000000,"state":"active","ping":40},{"user_id":370,"name":"krandlez` (Any/All)","steam_id":76561198044839726,"connected_time":1324000000000,"state":"active","ping":38},{"user_id":361,"name":"KiwiJiwi","steam_id":76561198262081410,"connected_time":2051000000000,"state":"active","ping":61},{"user_id":325,"name":"Barchel (She/Her)","steam_id":76561197984629970,"connected_time":4336000000000,"state":"active","ping":62},{"user_id":382,"name":"pain train tf2","steam_id":76561198059284918,"connected_time":626000000000,"state":"active","ping":49},{"user_id":392,"name":"xX_sexhaver_Xx(real)","steam_id":76561199205171109,"connected_time":54000000000,"state":"active","ping":64},{"user_id":385,"name":"The Man Behind The Slaughter","steam_id":76561198242072204,"connected_time":321000000000,"state":"active","ping":63},{"user_id":391,"name":"tN|Floyd The Barber","steam_id":76561198025676460,"connected_time":72000000000,"state":"active","ping":45},{"user_id":357,"name":"huey","steam_id":76561199069777966,"connected_time":2137000000000,"state":"active","ping":66},{"user_id":378,"name":"canned tuna","steam_id":76561198420727269,"connected_time":700000000000,"state":"active","ping":45},{"user_id":379,"name":"DraconicLegends","steam_id":76561199145427539,"connected_time":687000000000,"state":"active","ping":124},{"user_id":318,"name":"theeg","steam_id":76561198985005836,"connected_time":4896000000000,"state":"active","ping":50},{"user_id":389,"name":"Raypest","steam_id":76561197980678745,"connected_time":222000000000,"state":"active","ping":40},{"user_id":383,"name":"Huski","steam_id":76561198108956967,"connected_time":592000000000,"state":"active","ping":63},{"user_id":354,"name":"zen","steam_id":76561198302670452,"connected_time":2316000000000,"state":"active","ping":60},{"user_id":381,"name":"Ok Mate","steam_id":76561198254922035,"connected_time":656000000000,"state":"active","ping":52},{"user_id":384,"name":"whats this idiot doing?","steam_id":76561198152210509,"connected_time":515000000000,"state":"active","ping":38},{"user_id":328,"name":"badmn","steam_id":76561198056462343,"connected_time":4224000000000,"state":"active","ping":59},{"user_id":387,"name":"audit (shirtless gamer)","steam_id":76561198199935918,"connected_time":298000000000,"state":"active","ping":56},{"user_id":388,"name":"EpicGuy4227","steam_id":76561198094132328,"connected_time":279000000000,"state":"active","ping":55}]},{"server_id":396,"name":"Uncletopia | Sydney | 4 | All Maps","name_short":"syd-4","host":"syd-1.au.uncletopia.com","port":27045,"enabled":true,"region":"au","cc":"au","latitude":-33.865143,"longitude":151.2099,"reserved":0,"last_update":"0001-01-01T00:00:00Z","name_a2s":"Uncletopia | Sydney | 4 | All Maps","protocol":17,"map":"koth_lakeside_final","folder":"tf","game":"Team Fortress","app_id":440,"player_count":0,"max_players":24,"Bots":0,"server_type":"Dedicated","server_os":"Linux","password":true,"vac":true,"version":"7723704","steam_id":85568392925397958,"keywords":["cp","nocrits","nodmgspread","uncletopia"],"game_id":440,"stv_port":27046,"stv_name":"Uncletopia | Sydney | 4 | All Maps | STV","players":null},{"server_id":58,"name":"Uncletopia | Sydney | 5 | Stopwatch Beta","name_short":"syd-5","host":"syd-1.au.uncletopia.com","port":27055,"enabled":true,"region":"au","cc":"au","latitude":-33.865143,"longitude":151.2099,"reserved":0,"last_update":"0001-01-01T00:00:00Z","name_a2s":"Uncletopia | Sydney | 5 | Stopwatch Beta","protocol":17,"map":"cp_altitude","folder":"tf","game":"Team Fortress","app_id":440,"player_count":0,"max_players":24,"Bots":0,"server_type":"Dedicated","server_os":"Linux","password":true,"vac":true,"version":"7723704","steam_id":85568392925397959,"keywords":["cp","nocrits","nodmgspread","uncletopia"],"game_id":440,"stv_port":27056,"stv_name":"Uncletopia | Sydney | 5 | Stopwatch Beta | STV","players":null},{"server_id":59,"name":"Uncletopia | Sydney | 6 | Community","name_short":"syd-6","host":"syd-1.au.uncletopia.com","port":27065,"enabled":true,"region":"au","cc":"au","latitude":-33.865143,"longitude":151.2099,"reserved":0,"last_update":"0001-01-01T00:00:00Z","name_a2s":"Uncletopia | Sydney | 6 | Community","protocol":17,"map":"workshop/koth_ramjam_v2_b2.ugc2865676487","folder":"tf","game":"Team Fortress","app_id":440,"player_count":0,"max_players":24,"Bots":0,"server_type":"Dedicated","server_os":"Linux","password":true,"vac":true,"version":"7723704","steam_id":85568392925397960,"keywords":["cp","nocrits","nodmgspread","uncletopia"],"game_id":440,"stv_port":27066,"stv_name":"Uncletopia | Sydney | 6 | Community | STV","players":null},{"server_id":49,"name":"Uncletopia | Warsaw | 1 | All Maps","name_short":"waw-1","host":"waw-1.pl.uncletopia.com","port":27015,"enabled":true,"region":"eu","cc":"pl","latitude":52.2297,"longitude":21.017532,"reserved":0,"last_update":"0001-01-01T00:00:00Z","name_a2s":"Uncletopia | Warsaw | 1 | All Maps","protocol":17,"map":"cp_snakewater_final1","folder":"tf","game":"Team Fortress","app_id":440,"player_count":0,"max_players":24,"Bots":0,"server_type":"Dedicated","server_os":"Linux","password":true,"vac":true,"version":"7723704","steam_id":85568392925397850,"keywords":["cp","nocrits","nodmgspread","uncletopia"],"game_id":440,"stv_port":27016,"stv_name":"Uncletopia | Warsaw | 1 | All Maps | STV","players":null},{"server_id":50,"name":"Uncletopia | Warsaw | 2 | All Maps","name_short":"waw-2","host":"waw-1.pl.uncletopia.com","port":27025,"enabled":true,"region":"eu","cc":"pl","latitude":52.2297,"longitude":21.017532,"reserved":0,"last_update":"0001-01-01T00:00:00Z","name_a2s":"Uncletopia | Warsaw | 2 | All Maps","protocol":17,"map":"pl_barnblitz","folder":"tf","game":"Team Fortress","app_id":440,"player_count":0,"max_players":24,"Bots":0,"server_type":"Dedicated","server_os":"Linux","password":true,"vac":true,"version":"7723704","steam_id":85568392925397851,"keywords":["nocrits","nodmgspread","payload","uncletopia"],"game_id":440,"stv_port":27026,"stv_name":"Uncletopia | Warsaw | 2 | All Maps | STV","players":null},{"server_id":51,"name":"Uncletopia | Warsaw | 3 | All Maps","name_short":"waw-3","host":"waw-1.pl.uncletopia.com","port":27035,"enabled":true,"region":"eu","cc":"pl","latitude":52.2297,"longitude":21.017532,"reserved":0,"last_update":"0001-01-01T00:00:00Z","name_a2s":"Uncletopia | Warsaw | 3 | All Maps","protocol":17,"map":"pl_barnblitz","folder":"tf","game":"Team Fortress","app_id":440,"player_count":0,"max_players":24,"Bots":0,"server_type":"Dedicated","server_os":"Linux","password":true,"vac":true,"version":"7723704","steam_id":85568392925397852,"keywords":["nocrits","nodmgspread","payload","uncletopia"],"game_id":440,"stv_port":27036,"stv_name":"Uncletopia | Warsaw | 3 | All Maps | STV","players":null},{"server_id":52,"name":"Uncletopia | Warsaw | 4 | All Maps","name_short":"waw-4","host":"waw-1.pl.uncletopia.com","port":27045,"enabled":true,"region":"eu","cc":"pl","latitude":52.2297,"longitude":21.017532,"reserved":0,"last_update":"0001-01-01T00:00:00Z","name_a2s":"Uncletopia | Warsaw | 4 | All Maps","protocol":17,"map":"pl_upward","folder":"tf","game":"Team Fortress","app_id":440,"player_count":0,"max_players":24,"Bots":0,"server_type":"Dedicated","server_os":"Linux","password":true,"vac":true,"version":"7723704","steam_id":85568392925397853,"keywords":["nocrits","nodmgspread","payload","uncletopia"],"game_id":440,"stv_port":27046,"stv_name":"Uncletopia | Warsaw | 4 | All Maps | STV","players":null},{"server_id":53,"name":"Uncletopia | Warsaw | 5 | Stopwatch Beta","name_short":"waw-5","host":"waw-1.pl.uncletopia.com","port":27055,"enabled":true,"region":"eu","cc":"pl","latitude":52.2297,"longitude":21.017532,"reserved":0,"last_update":"0001-01-01T00:00:00Z","name_a2s":"Uncletopia | Warsaw | 5 | Stopwatch Beta","protocol":17,"map":"cp_sunshine","folder":"tf","game":"Team Fortress","app_id":440,"player_count":0,"max_players":24,"Bots":0,"server_type":"Dedicated","server_os":"Linux","password":true,"vac":true,"version":"7723704","steam_id":85568392925397854,"keywords":["cp","nocrits","nodmgspread","uncletopia"],"game_id":440,"stv_port":27056,"stv_name":"Uncletopia | Warsaw | 5 | Stopwatch Beta | STV","players":null},{"server_id":54,"name":"Uncletopia | Warsaw | 6 | Community","name_short":"waw-6","host":"waw-1.pl.uncletopia.com","port":27065,"enabled":true,"region":"eu","cc":"pl","latitude":52.2297,"longitude":21.017532,"reserved":0,"last_update":"0001-01-01T00:00:00Z","name_a2s":"Uncletopia | Warsaw | 6 | Community","protocol":17,"map":"pl_snowycoast","folder":"tf","game":"Team Fortress","app_id":440,"player_count":0,"max_players":24,"Bots":0,"server_type":"Dedicated","server_os":"Linux","password":true,"vac":true,"version":"7723704","steam_id":85568392925397856,"keywords":["nocrits","nodmgspread","payload","uncletopia"],"game_id":440,"stv_port":27066,"stv_name":"Uncletopia | Warsaw | 6 | Community | STV","players":null}]}