{"status":true,"message":"","result":[{"server_id":9,"name":"Uncletopia | Atlanta | 1 | All Maps","name_short":"atl-1","host":"atl-1.us.uncletopia.com","port":27015,"enabled":true,"region":"us-east","cc":"us","latitude":33.753746,"longitude":-84.38633,"reserved":0,"last_update":"0001-01-01T00:00:00Z","name_a2s":"Uncletopia | Atlanta | 1 | All Maps","protocol":17,"map":"pl_upward","folder":"tf","game":"Team Fortress","app_id":440,"player_count":24,"max_players":24,"Bots":0,"server_type":"Dedicated","server_os":"Linux","password":true,"vac":true,"version":"7961495","steam_id":85568392924469982,"keywords":["nocrits","nodmgspread","payload","uncletopia"],"game_id":440,"stv_port":27016,"stv_name":"Uncletopia | Atlanta | 1 | All Maps | STV","players":[{"user_id":696,"name":"Dr.Inkmix(femboy medic!)","steam_id":76561198854070384,"connected_time":2079000000000,"state":"active","ping":112},{"user_id":716,"name":"serum","steam_id":76561198094248040,"connected_time":1240000000000,"state":"active","ping":119},{"user_id":733,"name":"W3ster","steam_id":76561198959700858,"connected_time":118000000000,"state":"active","ping":62},{"user_id":735,"name":"Biscipline","steam_id":76561198019206178,"connected_time":75000000000,"state":"active","ping":77},{"user_id":728,"name":"Obelisk","steam_id":76561198049416866,"connected_time":717000000000,"state":"active","ping":77},{"user_id":707,"name":"Jag","steam_id":76561198001220471,"connected_time":1926000000000,"state":"active","ping":45},{"user_id":577,"name":"Lucky","steam_id":76561198418262145,"connected_time":6189000000000,"state":"active","ping":116},{"user_id":720,"name":"Boneless Blithen","steam_id":76561197989955619,"connected_time":814000000000,"state":"active","ping":128},{"user_id":718,"name":"BIG HOG","steam_id":76561198079923652,"connected_time":928000000000,"state":"active","ping":72},{"user_id":725,"name":"Qwerty","steam_id":76561198023525894,"connected_time":760000000000,"state":"active","ping":176},{"user_id":586,"name":"marguerite","steam_id":76561198170873495,"connected_time":5081000000000,"state":"active","ping":54},{"user_id":708,"name":"Post nut clarity","steam_id":76561198060246831,"connected_time":1909000000000,"state":"active","ping":93},{"user_id":729,"name":"Joe Rogan (real)","steam_id":76561198359511515,"connected_time":186000000000,"state":"active","ping":68},{"user_id":734,"name":"bengineer","steam_id":76561198171912174,"connected_time":108000000000,"state":"active","ping":115},{"user_id":711,"name":"BaconLol","steam_id":76561199125317999,"connected_time":1859000000000,"state":"active","ping":174},{"user_id":630,"name":"_Lusty_","steam_id":76561198876948142,"connected_time":3765000000000,"state":"active","ping":45},{"user_id":736,"name":"fork","steam_id":76561198038003527,"connected_time":38000000000,"state":"active","ping":91},{"user_id":730,"name":"chexo4","steam_id":76561198150532531,"connected_time":179000000000,"state":"active","ping":52},{"user_id":737,"name":"The Wind","steam_id":76561198813568533,"connected_time":32000000000,"state":"spawning","ping":123},{"user_id":643,"name":"ATL1 | Uganda Knuckles lll","steam_id":76561199121276474,"connected_time":3551000000000,"state":"active","ping":83},{"user_id":714,"name":"QUANTUM QUADRATA CALCULATOREM","steam_id":76561198042770455,"connected_time":1810000000000,"state":"active","ping":78},{"user_id":717,"name":"lil hog","steam_id":76561199230929836,"connected_time":931000000000,"state":"active","ping":90},{"user_id":731,"name":"Monkey Mode","steam_id":76561197961267543,"connected_time":161000000000,"state":"active","ping":60},{"user_id":684,"name":"Oddball","steam_id":76561198040440984,"connected_time":2733000000000,"state":"active","ping":93}]},{"server_id":104,"name":"Uncletopia | Atlanta | 2 | All Maps","name_short":"atl-2","host":"atl-1.us.uncletopia.com","port":27025,"enabled":true,"region":"us-east","cc":"us","latitude":33.753746,"longitude":-84.38633,"reserved":0,"last_update":"0001-01-01T00:00:00Z","name_a2s":"Uncletopia | Atlanta | 2 | All Maps","protocol":17,"map":"pl_snowycoast","folder":"tf","game":"Team Fortress","app_id":440,"player_count":16,"max_players":24,"Bots":0,"server_type":"Dedicated","server_os":"Linux","password":true,"vac":true,"version":"7961495","steam_id":85568392924469983,"keywords":["nocrits","nodmgspread","payload","uncletopia"],"game_id":440,"stv_port":27026,"stv_name":"Uncletopia | Atlanta | 2 | All Maps | STV","players":[{"user_id":602,"name":"coopcumber","steam_id":76561198289728181,"connected_time":809000000000,"state":"active","ping":49},{"user_id":608,"name":"George Holdin' W Bush","steam_id":76561198030066204,"connected_time":10000000000,"state":"active","ping":48},{"user_id":587,"name":"Rhubarb","steam_id":76561198001700880,"connected_time":2214000000000,"state":"active","ping":112},{"user_id":606,"name":"Hedless","steam_id":76561197992723400,"connected_time":57000000000,"state":"active","ping":99},{"user_id":552,"name":"Dinosaur","steam_id":76561199079626189,"connected_time":4160000000000,"state":"active","ping":45},{"user_id":601,"name":"DavidBowiesPackage","steam_id":76561198148729253,"connected_time":880000000000,"state":"active","ping":76},{"user_id":607,"name":"Starfruit66","steam_id":76561198069917277,"connected_time":31000000000,"state":"active","ping":118},{"user_id":609,"name":"Healing Weapons Guy","steam_id":76561198005608047,"connected_time":10000000000,"state":"spawning","ping":339},{"user_id":317,"name":"V","steam_id":76561199223266577,"connected_time":11861000000000,"state":"active","ping":104},{"user_id":598,"name":"Wallish","steam_id":76561198057175636,"connected_time":1621000000000,"state":"active","ping":90},{"user_id":567,"name":"kangaroo wife","steam_id":76561198040455711,"connected_time":3547000000000,"state":"active","ping":77},{"user_id":604,"name":"marty","steam_id":76561198032782746,"connected_time":720000000000,"state":"active","ping":91},{"user_id":570,"name":"f0xh0le0ne","steam_id":76561199471269566,"connected_time":3417000000000,"state":"active","ping":72},{"user_id":583,"name":"GeneralTso","steam_id":76561197976173093,"connected_time":2786000000000,"state":"active","ping":65},{"user_id":568,"name":"Insectoid","steam_id":76561198122677314,"connected_time":3544000000000,"state":"active","ping":51},{"user_id":599,"name":"Snowfox","steam_id":76561199157634528,"connected_time":1555000000000,"state":"active","ping":89}]},{"server_id":400,"name":"Uncletopia | Atlanta | 3 | Stopwatch","name_short":"atl-3","host":"atl-1.us.uncletopia.com","port":27035,"enabled":true,"region":"us-east","cc":"us","latitude":33.753746,"longitude":-84.38633,"reserved":0,"last_update":"0001-01-01T00:00:00Z","name_a2s":"Uncletopia | Atlanta | 3 | Stopwatch","protocol":17,"map":"pl_upward","folder":"tf","game":"Team Fortress","app_id":440,"player_count":23,"max_players":24,"Bots":0,"server_type":"Dedicated","server_os":"Linux","password":true,"vac":true,"version":"7961495","steam_id":85568392924515187,"keywords":["nocrits","nodmgspread","payload","uncletopia"],"game_id":440,"stv_port":27036,"stv_name":"Uncletopia | Atlanta | 3 | Stopwatch | STV","players":[{"user_id":237,"name":"5poon/","steam_id":76561198140699845,"connected_time":2200000000000,"state":"active","ping":100},{"user_id":255,"name":"BreadFish","steam_id":76561198834556559,"connected_time":1458000000000,"state":"active","ping":74},{"user_id":232,"name":"kasher quon","steam_id":76561198306028530,"connected_time":2348000000000,"state":"active","ping":78},{"user_id":243,"name":"Gaiduk","steam_id":76561198112323877,"connected_time":1931000000000,"state":"active","ping":87},{"user_id":204,"name":"Therapy Goth","steam_id":76561198048448497,"connected_time":4214000000000,"state":"active","ping":75},{"user_id":274,"name":"2013HORSEMEATSCANDAL","steam_id":76561198238167912,"connected_time":335000000000,"state":"active","ping":77},{"user_id":252,"name":"lionel messi","steam_id":76561198138455706,"connected_time":1552000000000,"state":"active","ping":92},{"user_id":273,"name":"Cabbage","steam_id":76561199109234867,"connected_time":346000000000,"state":"active","ping":86},{"user_id":275,"name":"Grilled Jizo","steam_id":76561199250875340,"connected_time":226000000000,"state":"active","ping":123},{"user_id":205,"name":"totally not a pile of beans","steam_id":76561198119851931,"connected_time":4214000000000,"state":"active","ping":79},{"user_id":269,"name":"Him Jong-Il...wait","steam_id":76561198010708247,"connected_time":719000000000,"state":"active","ping":72},{"user_id":257,"name":"Mantis","steam_id":76561197964316152,"connected_time":1379000000000,"state":"active","ping":116},{"user_id":258,"name":"guy who loves eating cigarettes","steam_id":76561198094495920,"connected_time":1362000000000,"state":"active","ping":61},{"user_id":250,"name":"cotton","steam_id":76561198018652890,"connected_time":1674000000000,"state":"active","ping":54},{"user_id":226,"name":"Scoob","steam_id":76561198133592995,"connected_time":2780000000000,"state":"active","ping":84},{"user_id":276,"name":"YellowSQUID","steam_id":76561198123259414,"connected_time":170000000000,"state":"active","ping":113},{"user_id":242,"name":"CORGI.EXE","steam_id":76561198077093432,"connected_time":1966000000000,"state":"active","ping":69},{"user_id":259,"name":"ClericsRose","steam_id":76561198011013806,"connected_time":1289000000000,"state":"active","ping":68},{"user_id":270,"name":"*****setget","steam_id":76561198118824188,"connected_time":716000000000,"state":"active","ping":102},{"user_id":246,"name":"POOTIS","steam_id":76561199002803450,"connected_time":1810000000000,"state":"active","ping":84},{"user_id":260,"name":"T.TV TheKinkyAvocado","steam_id":76561198135747549,"connected_time":1287000000000,"state":"active","ping":73},{"user_id":272,"name":"steeam sniper","steam_id":76561198174620326,"connected_time":682000000000,"state":"active","ping":46},{"user_id":264,"name":"he suckin on my rick til i mort","steam_id":76561198310711692,"connected_time":951000000000,"state":"active","ping":166}]},{"server_id":401,"name":"Uncletopia | Atlanta | 4 | Community","name_short":"atl-4","host":"atl-1.us.uncletopia.com","port":27045,"enabled":true,"region":"us-east","cc":"us","latitude":33.753746,"longitude":-84.38633,"reserved":0,"last_update":"0001-01-01T00:00:00Z","name_a2s":"Uncletopia | Atlanta | 4 | Community","protocol":17,"map":"workshop/pl_cashworks_final1.ugc2904065412","folder":"tf","game":"Team Fortress","app_id":440,"player_count":0,"max_players":24,"Bots":0,"server_type":"Dedicated","server_os":"Linux","password":true,"vac":true,"version":"7961495","steam_id":85568392924515188,"keywords":["nocrits","nodmgspread","payload","uncletopia"],"game_id":440,"stv_port":27046,"stv_name":"Uncletopia | Atlanta | 4 | Community | STV","players":null},{"server_id":2,"name":"Uncletopia | Chicago | 1 | All Maps","name_short":"chi-1","host":"chi-1.us.uncletopia.com","port":27015,"enabled":true,"region":"us-central","cc":"us","latitude":41.881832,"longitude":-87.62318,"reserved":0,"last_update":"0001-01-01T00:00:00Z","name_a2s":"Uncletopia | Chicago | 1 | All Maps","protocol":17,"map":"pl_swiftwater_final1","folder":"tf","game":"Team Fortress","app_id":440,"player_count":24,"max_players":24,"Bots":0,"server_type":"Dedicated","server_os":"Linux","password":true,"vac":true,"version":"7961495","steam_id":85568392924469984,"keywords":["nocrits","nodmgspread","payload","uncletopia"],"game_id":440,"stv_port":27016,"stv_name":"Uncletopia | Chicago | 1 | All Maps | STV","players":[{"user_id":665,"name":"BoopBerry","steam_id":76561198871571711,"connected_time":1731000000000,"state":"active","ping":59},{"user_id":655,"name":"Red_Hatkins","steam_id":76561198214004105,"connected_time":2609000000000,"state":"active","ping":90},{"user_id":650,"name":"Zoom","steam_id":76561198079215612,"connected_time":2966000000000,"state":"active","ping":39},{"user_id":661,"name":"qory","steam_id":76561198152064890,"connected_time":1789000000000,"state":"active","ping":49},{"user_id":626,"name":"Milkmur","steam_id":76561198210043821,"connected_time":4652000000000,"state":"active","ping":68},{"user_id":635,"name":"Space","steam_id":76561198350489754,"connected_time":4183000000000,"state":"active","ping":45},{"user_id":676,"name":"Fudge_Cake","steam_id":76561198059218167,"connected_time":29000000000,"state":"active","ping":77},{"user_id":637,"name":"OH BOY","steam_id":76561199052273428,"connected_time":3975000000000,"state":"active","ping":55},{"user_id":670,"name":"twitch.tv/axities","steam_id":76561198278008225,"connected_time":1004000000000,"state":"active","ping":75},{"user_id":659,"name":"Mburesh","steam_id":76561198137460717,"connected_time":2516000000000,"state":"active","ping":59},{"user_id":649,"name":".JIFF","steam_id":76561198045181760,"connected_time":3001000000000,"state":"active","ping":62},{"user_id":669,"name":"wheat","steam_id":76561197971158435,"connected_time":1007000000000,"state":"active","ping":54},{"user_id":662,"name":"Arctem","steam_id":76561198012937871,"connected_time":1782000000000,"state":"active","ping":90},{"user_id":639,"name":"ThunderMonkey (SMOKE)","steam_id":76561198017631728,"connected_time":3864000000000,"state":"active","ping":72},{"user_id":607,"name":"flamingcookies","steam_id":76561198280864779,"connected_time":6324000000000,"state":"active","ping":67},{"user_id":671,"name":"DoomedMakwa","steam_id":76561198167053158,"connected_time":1003000000000,"state":"active","ping":72},{"user_id":668,"name":"agless","steam_id":76561198045248344,"connected_time":1713000000000,"state":"active","ping":61},{"user_id":536,"name":"JOOOOOOOOOOOOO!!!!!!","steam_id":76561199101638460,"connected_time":10905000000000,"state":"active","ping":86},{"user_id":577,"name":"Axelonemillion15","steam_id":76561198421342282,"connected_time":8113000000000,"state":"active","ping":123},{"user_id":568,"name":"HOMIE","steam_id":76561198057325155,"connected_time":8497000000000,"state":"active","ping":61},{"user_id":672,"name":"Piyono","steam_id":76561197962188504,"connected_time":993000000000,"state":"active","ping":71},{"user_id":675,"name":"TehOneZoot","steam_id":76561198121944243,"connected_time":202000000000,"state":"active","ping":53},{"user_id":648,"name":"Natsuki the Scunt","steam_id":76561199175922684,"connected_time":3388000000000,"state":"active","ping":100},{"user_id":673,"name":"At","steam_id":76561198381841894,"connected_time":984000000000,"state":"active","ping":62}]},{"server_id":106,"name":"Uncletopia | Chicago | 2 | All Maps","name_short":"chi-2","host":"chi-1.us.uncletopia.com","port":27025,"enabled":true,"region":"us-central","cc":"us","latitude":41.881832,"longitude":-87.62318,"reserved":0,"last_update":"0001-01-01T00:00:00Z","name_a2s":"Uncletopia | Chicago | 2 | All Maps","protocol":17,"map":"pl_frontier_final","folder":"tf","game":"Team Fortress","app_id":440,"player_count":24,"max_players":24,"Bots":0,"server_type":"Dedicated","server_os":"Linux","password":true,"vac":true,"version":"7961495","steam_id":85568392924469985,"keywords":["nocrits","nodmgspread","payload","uncletopia"],"game_id":440,"stv_port":27026,"stv_name":"Uncletopia | Chicago | 2 | All Maps | STV","players":[{"user_id":540,"name":"Monte","steam_id":76561198097499917,"connected_time":5370000000000,"state":"active","ping":91},{"user_id":551,"name":"Chee33e","steam_id":76561198242486440,"connected_time":3976000000000,"state":"active","ping":76},{"user_id":577,"name":"Gram Tokers Count Doinkula","steam_id":76561198112811565,"connected_time":2022000000000,"state":"active","ping":70},{"user_id":584,"name":"Tick","steam_id":76561198184161214,"connected_time":1684000000000,"state":"active","ping":42},{"user_id":596,"name":"YourMamaRGR","steam_id":76561198007886268,"connected_time":231000000000,"state":"active","ping":59},{"user_id":590,"name":"Raspylightining","steam_id":76561198148343305,"connected_time":840000000000,"state":"active","ping":47},{"user_id":579,"name":"An Erect Penis :)","steam_id":76561198086477485,"connected_time":2010000000000,"state":"active","ping":51},{"user_id":588,"name":"phantom","steam_id":76561197963860777,"connected_time":1227000000000,"state":"active","ping":55},{"user_id":548,"name":"ViserOfOrder","steam_id":76561198137222506,"connected_time":4168000000000,"state":"active","ping":51},{"user_id":558,"name":"bobby  peanstalk","steam_id":76561198040495463,"connected_time":3337000000000,"state":"active","ping":46},{"user_id":593,"name":"Moonflower ✦","steam_id":76561198191782483,"connected_time":815000000000,"state":"active","ping":78},{"user_id":555,"name":"EvilMrPotoo ｡◕‿◕｡","steam_id":76561198012566870,"connected_time":3576000000000,"state":"active","ping":58},{"user_id":595,"name":"dbelow_","steam_id":76561198056148853,"connected_time":641000000000,"state":"active","ping":65},{"user_id":592,"name":"stuffedidiot","steam_id":76561199181513019,"connected_time":830000000000,"state":"active","ping":116},{"user_id":559,"name":"lal","steam_id":76561198243965308,"connected_time":3203000000000,"state":"active","ping":102},{"user_id":576,"name":"Sk311","steam_id":76561197973249315,"connected_time":2402000000000,"state":"active","ping":66},{"user_id":560,"name":"SpockASD","steam_id":76561198830243167,"connected_time":3199000000000,"state":"active","ping":71},{"user_id":561,"name":"PewPewBulletGuns","steam_id":76561198106289426,"connected_time":3190000000000,"state":"active","ping":64},{"user_id":580,"name":"Kdash","steam_id":76561198043829155,"connected_time":1992000000000,"state":"active","ping":80},{"user_id":563,"name":"Lucon","steam_id":76561198067147724,"connected_time":3188000000000,"state":"active","ping":56},{"user_id":594,"name":"Rat Smacker","steam_id":76561198043629646,"connected_time":813000000000,"state":"active","ping":85},{"user_id":578,"name":"dr. go go nuts","steam_id":76561198057076267,"connected_time":2022000000000,"state":"active","ping":82},{"user_id":520,"name":"really hot pocket","steam_id":76561198239297686,"connected_time":7177000000000,"state":"active","ping":62},{"user_id":557,"name":"fartzilla","steam_id":76561198057116531,"connected_time":3496000000000,"state":"active","ping":59}]},{"server_id":402,"name":"Uncletopia | Chicago | 3 | All Maps","name_short":"chi-3","host":"chi-1.us.uncletopia.com","port":27035,"enabled":true,"region":"us-central","cc":"us","latitude":41.881832,"longitude":-87.62318,"reserved":0,"last_update":"0001-01-01T00:00:00Z","name_a2s":"Uncletopia | Chicago | 3 | All Maps","protocol":17,"map":"cp_dustbowl","folder":"tf","game":"Team Fortress","app_id":440,"player_count":24,"max_players":24,"Bots":0,"server_type":"Dedicated","server_os":"Linux","password":true,"vac":true,"version":"7961495","steam_id":85568392924515191,"keywords":["cp","nocrits","nodmgspread","uncletopia"],"game_id":440,"stv_port":27036,"stv_name":"Uncletopia | Chicago | 3 | All Maps | STV","players":[{"user_id":519,"name":"trappy (soggy)","steam_id":76561198402801140,"connected_time":3206000000000,"state":"active","ping":60},{"user_id":352,"name":"Erebus","steam_id":76561199061956673,"connected_time":14222000000000,"state":"active","ping":79},{"user_id":447,"name":"Thighdeology","steam_id":76561198452211467,"connected_time":7852000000000,"state":"active","ping":94},{"user_id":500,"name":"XBaconX","steam_id":76561198069500207,"connected_time":4935000000000,"state":"active","ping":86},{"user_id":546,"name":"Les Savy Raz","steam_id":76561198078594872,"connected_time":175000000000,"state":"active","ping":81},{"user_id":535,"name":"[GUT] RiDiK®","steam_id":76561197969756446,"connected_time":1573000000000,"state":"active","ping":62},{"user_id":520,"name":"Amari","steam_id":76561198272446730,"connected_time":3112000000000,"state":"active","ping":58},{"user_id":530,"name":"ameritech","steam_id":76561198064769089,"connected_time":1897000000000,"state":"active","ping":57},{"user_id":531,"name":"ZenkoZSprite","steam_id":76561198190132250,"connected_time":1872000000000,"state":"active","ping":63},{"user_id":538,"name":"comet sooicidy","steam_id":76561198025173479,"connected_time":1107000000000,"state":"active","ping":91},{"user_id":525,"name":"Cyber Cylon","steam_id":76561198048972781,"connected_time":2360000000000,"state":"active","ping":63},{"user_id":528,"name":"Kidkourpower","steam_id":76561198354790548,"connected_time":2129000000000,"state":"active","ping":100},{"user_id":541,"name":"The Senate","steam_id":76561198143882626,"connected_time":935000000000,"state":"active","ping":113},{"user_id":543,"name":"Kek","steam_id":76561198067689989,"connected_time":344000000000,"state":"active","ping":69},{"user_id":545,"name":"giveit5","steam_id":76561198030815437,"connected_time":224000000000,"state":"active","ping":89},{"user_id":518,"name":"C Papi","steam_id":76561198027779564,"connected_time":3237000000000,"state":"active","ping":52},{"user_id":499,"name":"Nassu","steam_id":76561198147367577,"connected_time":4944000000000,"state":"active","ping":69},{"user_id":533,"name":"hammed burger :(","steam_id":76561199405376783,"connected_time":1869000000000,"state":"active","ping":80},{"user_id":542,"name":"|WS| Don't_Taze_Me_Bro","steam_id":76561198043289495,"connected_time":517000000000,"state":"active","ping":76},{"user_id":515,"name":"Harley [Ramiel]","steam_id":76561198079510840,"connected_time":3386000000000,"state":"active","ping":93},{"user_id":540,"name":"C4K3","steam_id":76561197996963285,"connected_time":1103000000000,"state":"active","ping":76},{"user_id":488,"name":"Engie","steam_id":76561198025417008,"connected_time":5716000000000,"state":"active","ping":82},{"user_id":544,"name":"bobr","steam_id":76561198292896412,"connected_time":344000000000,"state":"active","ping":56},{"user_id":503,"name":"Wiener Hole Paper Cut","steam_id":76561198000808203,"connected_time":4915000000000,"state":"active","ping":82}]},{"server_id":403,"name":"Uncletopia | Chicago | 4 | All Maps","name_short":"chi-4","host":"chi-1.us.uncletopia.com","port":27045,"enabled":true,"region":"us-central","cc":"us","latitude":41.881832,"longitude":-87.62318,"reserved":0,"last_update":"0001-01-01T00:00:00Z","name_a2s":"Uncletopia | Chicago | 4 | All Maps","protocol":17,"map":"koth_sawmill","folder":"tf","game":"Team Fortress","app_id":440,"player_count":24,"max_players":24,"Bots":0,"server_type":"Dedicated","server_os":"Linux","password":true,"vac":true,"version":"7961495","steam_id":85568392924515193,"keywords":["cp","nocrits","nodmgspread","uncletopia"],"game_id":440,"stv_port":27046,"stv_name":"Uncletopia | Chicago | 4 | All Maps | STV","players":[{"user_id":651,"name":"Lyfull (Rip Rick May)","steam_id":76561198273398361,"connected_time":1817000000000,"state":"active","ping":61},{"user_id":672,"name":"Thot Patrol","steam_id":76561198026003193,"connected_time":524000000000,"state":"active","ping":58},{"user_id":685,"name":"frank","steam_id":76561198137777483,"connected_time":150000000000,"state":"active","ping":65},{"user_id":682,"name":"Gobthor","steam_id":76561198189422615,"connected_time":170000000000,"state":"active","ping":66},{"user_id":638,"name":"GoGo is a Drunk Slut","steam_id":76561198023080645,"connected_time":3499000000000,"state":"active","ping":85},{"user_id":665,"name":"Shrebbie","steam_id":76561198875230824,"connected_time":1152000000000,"state":"active","ping":56},{"user_id":680,"name":"Tweek Tweak","steam_id":76561198445739792,"connected_time":302000000000,"state":"active","ping":60},{"user_id":673,"name":"Magnet Dood","steam_id":76561198364178746,"connected_time":512000000000,"state":"active","ping":57},{"user_id":671,"name":"Muffin","steam_id":76561198111403028,"connected_time":545000000000,"state":"active","ping":52},{"user_id":652,"name":"Cassius Money","steam_id":76561197979696414,"connected_time":1801000000000,"state":"active","ping":52},{"user_id":605,"name":"Jousty","steam_id":76561199162677853,"connected_time":5568000000000,"state":"active","ping":91},{"user_id":683,"name":"An Alternate","steam_id":76561198041773387,"connected_time":169000000000,"state":"active","ping":88},{"user_id":688,"name":"[NAME-REDACTED]","steam_id":76561198035682975,"connected_time":99000000000,"state":"active","ping":72},{"user_id":676,"name":"Dieu-Sama","steam_id":76561198002075862,"connected_time":491000000000,"state":"active","ping":103},{"user_id":653,"name":"xxballfondlerxx","steam_id":76561197991546630,"connected_time":1795000000000,"state":"active","ping":54},{"user_id":679,"name":"Sagoogoo","steam_id":76561198176061614,"connected_time":402000000000,"state":"active","ping":93},{"user_id":654,"name":"dailyspesh","steam_id":76561197988072369,"connected_time":1793000000000,"state":"active","ping":73},{"user_id":497,"name":"Nightman","steam_id":76561198089513762,"connected_time":11907000000000,"state":"active","ping":90},{"user_id":666,"name":"plug (OBGYN)","steam_id":76561198157511276,"connected_time":1140000000000,"state":"active","ping":60},{"user_id":649,"name":"justyoureventualruler","steam_id":76561198410993481,"connected_time":2436000000000,"state":"active","ping":74},{"user_id":664,"name":"Nexusuxen","steam_id":76561198117547131,"connected_time":1216000000000,"state":"active","ping":75},{"user_id":684,"name":"Generator","steam_id":76561198011762257,"connected_time":163000000000,"state":"connecting","ping":0},{"user_id":678,"name":"whatheman28","steam_id":76561199043263229,"connected_time":420000000000,"state":"active","ping":117},{"user_id":687,"name":"mini boss","steam_id":76561198062763756,"connected_time":126000000000,"state":"active","ping":51}]},{"server_id":36,"name":"Uncletopia | Chicago | 5 | All Maps","name_short":"chi-5","host":"chi-2.us.uncletopia.com","port":27015,"enabled":true,"region":"us-central","cc":"us","latitude":41.881832,"longitude":-87.62318,"reserved":0,"last_update":"0001-01-01T00:00:00Z","name_a2s":"Uncletopia | Chicago | 5 | All Maps","protocol":17,"map":"pl_frontier_final","folder":"tf","game":"Team Fortress","app_id":440,"player_count":24,"max_players":24,"Bots":0,"server_type":"Dedicated","server_os":"Linux","password":true,"vac":true,"version":"7961495","steam_id":85568392924866362,"keywords":["nocrits","nodmgspread","payload","uncletopia"],"game_id":440,"stv_port":27016,"stv_name":"Uncletopia | Chicago | 5 | All Maps | STV","players":[{"user_id":547,"name":"Gamin' Cobra","steam_id":76561199069582026,"connected_time":397000000000,"state":"active","ping":102},{"user_id":536,"name":"JustAManMadeOfMold","steam_id":76561199071707964,"connected_time":2158000000000,"state":"active","ping":140},{"user_id":492,"name":"Bigburgers","steam_id":76561198165013808,"connected_time":4893000000000,"state":"active","ping":55},{"user_id":549,"name":"1-800-GHOST-DANCE","steam_id":76561198835430429,"connected_time":381000000000,"state":"active","ping":94},{"user_id":548,"name":"Chemist","steam_id":76561198175623743,"connected_time":392000000000,"state":"active","ping":89},{"user_id":545,"name":"guy","steam_id":76561198079925551,"connected_time":428000000000,"state":"active","ping":61},{"user_id":544,"name":"Got Hat?","steam_id":76561197998486431,"connected_time":435000000000,"state":"active","ping":63},{"user_id":546,"name":"Propaniac Gaming ☑","steam_id":76561198133963270,"connected_time":423000000000,"state":"active","ping":58},{"user_id":550,"name":"jade","steam_id":76561198055611029,"connected_time":371000000000,"state":"active","ping":59},{"user_id":535,"name":"Billosky Time Lord","steam_id":76561199159626560,"connected_time":2181000000000,"state":"active","ping":156},{"user_id":551,"name":"Scoot the Burbs","steam_id":76561198079507179,"connected_time":353000000000,"state":"active","ping":77},{"user_id":474,"name":"Sunshine","steam_id":76561198885528098,"connected_time":6045000000000,"state":"active","ping":72},{"user_id":469,"name":"Useless","steam_id":76561198116079299,"connected_time":6402000000000,"state":"active","ping":91},{"user_id":541,"name":"Giggles™","steam_id":76561198058708019,"connected_time":1383000000000,"state":"active","ping":60},{"user_id":539,"name":"Nut Bustray","steam_id":76561198092403883,"connected_time":2098000000000,"state":"active","ping":104},{"user_id":552,"name":"garfield","steam_id":76561198114119308,"connected_time":352000000000,"state":"active","ping":72},{"user_id":553,"name":"NovaSc6ut","steam_id":76561198277163301,"connected_time":341000000000,"state":"active","ping":68},{"user_id":554,"name":"armadahamnsterx","steam_id":76561198333027263,"connected_time":323000000000,"state":"active","ping":104},{"user_id":561,"name":"thatguy_luigi","steam_id":76561198968055462,"connected_time":25000000000,"state":"spawning","ping":124},{"user_id":542,"name":"The Engineer Gaming","steam_id":76561198192609974,"connected_time":1130000000000,"state":"active","ping":76},{"user_id":516,"name":"ImmortalProphet","steam_id":76561198012352477,"connected_time":3334000000000,"state":"active","ping":46},{"user_id":556,"name":"Matches_                       ","steam_id":76561198048925904,"connected_time":288000000000,"state":"active","ping":110},{"user_id":560,"name":"Texan texting","steam_id":76561198833868695,"connected_time":223000000000,"state":"active","ping":71},{"user_id":562,"name":"Genn","steam_id":76561198070450699,"connected_time":23000000000,"state":"active","ping":59}]},{"server_id":37,"name":"Uncletopia | Chicago | 6 | All Maps","name_short":"chi-6","host":"chi-2.us.uncletopia.com","port":27025,"enabled":true,"region":"us-central","cc":"us","latitude":41.881832,"longitude":-87.62318,"reserved":0,"last_update":"0001-01-01T00:00:00Z","name_a2s":"Uncletopia | Chicago | 6 | All Maps","protocol":17,"map":"pl_frontier_final","folder":"tf","game":"Team Fortress","app_id":440,"player_count":23,"max_players":24,"Bots":0,"server_type":"Dedicated","server_os":"Linux","password":true,"vac":true,"version":"7961495","steam_id":85568392924866363,"keywords":["nocrits","nodmgspread","payload","uncletopia"],"game_id":440,"stv_port":27026,"stv_name":"Uncletopia | Chicago | 6 | All Maps | STV","players":[{"user_id":373,"name":"JakeRTurbo","steam_id":76561198327532181,"connected_time":1618000000000,"state":"spawning","ping":283},{"user_id":376,"name":"elder scrolls 6","steam_id":76561198113364714,"connected_time":1352000000000,"state":"active","ping":68},{"user_id":393,"name":"Pickles","steam_id":76561198010609340,"connected_time":1128000000000,"state":"active","ping":85},{"user_id":347,"name":"Blehnder","steam_id":76561198172097526,"connected_time":3497000000000,"state":"spawning","ping":69},{"user_id":403,"name":"Stealthguy724","steam_id":76561198195961430,"connected_time":85000000000,"state":"active","ping":312},{"user_id":396,"name":"bologna forklift 2012","steam_id":76561198199061206,"connected_time":934000000000,"state":"spawning","ping":43},{"user_id":399,"name":"foxxy","steam_id":76561198211308328,"connected_time":621000000000,"state":"spawning","ping":49},{"user_id":251,"name":"eipi","steam_id":76561199084492097,"connected_time":9846000000000,"state":"spawning","ping":75},{"user_id":381,"name":"Dzhoshua","steam_id":76561198071915251,"connected_time":1229000000000,"state":"active","ping":70},{"user_id":252,"name":"Swag","steam_id":76561198835483242,"connected_time":9846000000000,"state":"spawning","ping":50},{"user_id":395,"name":"1989 Mazda RX-7 FC3S","steam_id":76561198436383373,"connected_time":976000000000,"state":"spawning","ping":120},{"user_id":383,"name":"J197382645","steam_id":76561198014742440,"connected_time":1223000000000,"state":"spawning","ping":55},{"user_id":384,"name":"Not_Douglas","steam_id":76561199024184136,"connected_time":1219000000000,"state":"spawning","ping":47},{"user_id":385,"name":"tail slap +36 (4d12+18)","steam_id":76561198040425096,"connected_time":1213000000000,"state":"spawning","ping":83},{"user_id":402,"name":"SyNing","steam_id":76561198213435803,"connected_time":355000000000,"state":"active","ping":43},{"user_id":391,"name":"It's FoolMoon","steam_id":76561198153344375,"connected_time":1170000000000,"state":"active","ping":69},{"user_id":356,"name":"Amazingamerhawk","steam_id":76561199064935924,"connected_time":2907000000000,"state":"active","ping":157},{"user_id":397,"name":"poorly stacked bread trays","steam_id":76561198212098488,"connected_time":870000000000,"state":"spawning","ping":80},{"user_id":390,"name":"AMistake","steam_id":76561199379196708,"connected_time":1176000000000,"state":"spawning","ping":61},{"user_id":392,"name":"Werezombie","steam_id":76561197975199229,"connected_time":1165000000000,"state":"active","ping":83},{"user_id":405,"name":"vcx","steam_id":76561198139371143,"connected_time":29000000000,"state":"active","ping":119},{"user_id":404,"name":"Generator","steam_id":76561198011762257,"connected_time":79000000000,"state":"spawning","ping":85},{"user_id":394,"name":"oobigaloobi","steam_id":76561198065205158,"connected_time":1126000000000,"state":"active","ping":174}]},{"server_id":38,"name":"Uncletopia | Chicago | 7 | Stopwatch","name_short":"chi-7","host":"chi-2.us.uncletopia.com","port":27035,"enabled":true,"region":"us-central","cc":"us","latitude":41.881832,"longitude":-87.62318,"reserved":0,"last_update":"0001-01-01T00:00:00Z","name_a2s":"Uncletopia | Chicago | 7 | Stopwatch","protocol":17,"map":"koth_highpass","folder":"tf","game":"Team Fortress","app_id":440,"player_count":0,"max_players":24,"Bots":0,"server_type":"Dedicated","server_os":"Linux","password":true,"vac":true,"version":"7961495","steam_id":85568392924866364,"keywords":["cp","nocrits","nodmgspread","uncletopia"],"game_id":440,"stv_port":27036,"stv_name":"Uncletopia | Chicago | 7 | Stopwatch | STV","players":null},{"server_id":39,"name":"Uncletopia | Chicago | 8 | Community","name_short":"chi-8","host":"chi-2.us.uncletopia.com","port":27045,"enabled":true,"region":"us-central","cc":"us","latitude":41.881832,"longitude":-87.62318,"reserved":0,"last_update":"0001-01-01T00:00:00Z","name_a2s":"Uncletopia | Chicago | 8 | Community","protocol":17,"map":"pl_pier","folder":"tf","game":"Team Fortress","app_id":440,"player_count":0,"max_players":24,"Bots":0,"server_type":"Dedicated","server_os":"Linux","password":true,"vac":true,"version":"7961495","steam_id":85568392924866365,"keywords":["nocrits","nodmgspread","payload","uncletopia"],"game_id":440,"stv_port":27046,"stv_name":"Uncletopia | Chicago | 8 | Community | STV","players":null},{"server_id":8,"name":"Uncletopia | Dallas | 1 | All Maps","name_short":"dal-1","host":"dal-1.us.uncletopia.com","port":27015,"enabled":true,"region":"us-central","cc":"us","latitude":32.779167,"longitude":-96.80889,"reserved":0,"last_update":"0001-01-01T00:00:00Z","name_a2s":"Uncletopia | Dallas | 1 | All Maps","protocol":17,"map":"koth_highpass","folder":"tf","game":"Team Fortress","app_id":440,"player_count":24,"max_players":24,"Bots":0,"server_type":"Dedicated","server_os":"Linux","password":true,"vac":true,"version":"7961495","steam_id":85568392924469986,"keywords":["cp","nocrits","nodmgspread","uncletopia"],"game_id":440,"stv_port":27016,"stv_name":"Uncletopia | Dallas | 1 | All Maps | STV","players":[{"user_id":588,"name":"fish","steam_id":76561198182052198,"connected_time":982000000000,"state":"active","ping":84},{"user_id":571,"name":"Sam","steam_id":76561198084143136,"connected_time":2380000000000,"state":"active","ping":31},{"user_id":569,"name":"FanaticSalt","steam_id":76561199380123059,"connected_time":2543000000000,"state":"active","ping":41},{"user_id":585,"name":"Candy Medusa","steam_id":76561198017790299,"connected_time":1167000000000,"state":"active","ping":75},{"user_id":589,"name":"Mick","steam_id":76561198972619900,"connected_time":977000000000,"state":"active","ping":58},{"user_id":554,"name":":3c says trans rights","steam_id":76561198309876224,"connected_time":4341000000000,"state":"active","ping":45},{"user_id":567,"name":"Emprial","steam_id":76561198195574594,"connected_time":3303000000000,"state":"active","ping":64},{"user_id":599,"name":"tac","steam_id":76561198408477421,"connected_time":70000000000,"state":"active","ping":90},{"user_id":563,"name":"Imrgrim","steam_id":76561198135866481,"connected_time":3755000000000,"state":"active","ping":64},{"user_id":452,"name":"King Cotton","steam_id":76561198292444376,"connected_time":11782000000000,"state":"active","ping":69},{"user_id":580,"name":"malarkeyman","steam_id":76561198844473584,"connected_time":1519000000000,"state":"active","ping":55},{"user_id":597,"name":"Charles","steam_id":76561198155322277,"connected_time":539000000000,"state":"active","ping":126},{"user_id":570,"name":"-=Bits=-Dinkleberg","steam_id":76561198080367616,"connected_time":2531000000000,"state":"active","ping":43},{"user_id":509,"name":"banana gaming","steam_id":76561198334907218,"connected_time":7105000000000,"state":"active","ping":64},{"user_id":594,"name":"MrLeftTurn","steam_id":76561198856743969,"connected_time":647000000000,"state":"active","ping":149},{"user_id":600,"name":"Asfedia","steam_id":76561199386836351,"connected_time":14000000000,"state":"spawning","ping":241},{"user_id":590,"name":"Karma","steam_id":76561198320530905,"connected_time":977000000000,"state":"active","ping":55},{"user_id":549,"name":"Verily","steam_id":76561198200558318,"connected_time":4815000000000,"state":"active","ping":87},{"user_id":596,"name":"HoaroBatty","steam_id":76561198120361221,"connected_time":612000000000,"state":"active","ping":46},{"user_id":598,"name":"Dr_chilly","steam_id":76561198445383213,"connected_time":279000000000,"state":"active","ping":100},{"user_id":564,"name":"Young-OG","steam_id":76561198058800479,"connected_time":3692000000000,"state":"active","ping":74},{"user_id":561,"name":"Botan VEVO","steam_id":76561198282424652,"connected_time":4025000000000,"state":"active","ping":73},{"user_id":581,"name":"Scum Knight | T.I.D.K.","steam_id":76561198282444763,"connected_time":1506000000000,"state":"active","ping":80},{"user_id":582,"name":"d5","steam_id":76561199339997328,"connected_time":1502000000000,"state":"active","ping":53}]},{"server_id":108,"name":"Uncletopia | Dallas | 2 | All Maps","name_short":"dal-2","host":"dal-1.us.uncletopia.com","port":27025,"enabled":true,"region":"us-central","cc":"us","latitude":32.779167,"longitude":-96.80889,"reserved":0,"last_update":"0001-01-01T00:00:00Z","name_a2s":"Uncletopia | Dallas | 2 | All Maps","protocol":17,"map":"pl_barnblitz","folder":"tf","game":"Team Fortress","app_id":440,"player_count":24,"max_players":24,"Bots":0,"server_type":"Dedicated","server_os":"Linux","password":true,"vac":true,"version":"7961495","steam_id":85568392924469988,"keywords":["nocrits","nodmgspread","payload","uncletopia"],"game_id":440,"stv_port":27026,"stv_name":"Uncletopia | Dallas | 2 | All Maps | STV","players":[{"user_id":563,"name":"brotalium","steam_id":76561198055439054,"connected_time":2979000000000,"state":"active","ping":88},{"user_id":557,"name":"Certified Hood Classic","steam_id":76561199086159354,"connected_time":3388000000000,"state":"active","ping":55},{"user_id":581,"name":"5oc","steam_id":76561199196300397,"connected_time":2086000000000,"state":"active","ping":82},{"user_id":589,"name":"CreeperCatBengal","steam_id":76561198213193221,"connected_time":1438000000000,"state":"active","ping":97},{"user_id":591,"name":"Aperture Science Intern","steam_id":76561198040553272,"connected_time":972000000000,"state":"active","ping":91},{"user_id":546,"name":"[DATS➡] Sugar Meowth","steam_id":76561197995251793,"connected_time":4704000000000,"state":"active","ping":96},{"user_id":594,"name":"meow","steam_id":76561198046948758,"connected_time":687000000000,"state":"active","ping":68},{"user_id":571,"name":"Wahaha hee","steam_id":76561198098017157,"connected_time":2454000000000,"state":"active","ping":66},{"user_id":561,"name":"La()VaJ()86","steam_id":76561198247547042,"connected_time":3139000000000,"state":"active","ping":87},{"user_id":582,"name":"V. G. Sunderland","steam_id":76561198161839980,"connected_time":2003000000000,"state":"active","ping":83},{"user_id":583,"name":"uncletopia dallas 2 player","steam_id":76561198412786186,"connected_time":2000000000000,"state":"active","ping":51},{"user_id":590,"name":"room temp IQ","steam_id":76561198018724712,"connected_time":1118000000000,"state":"active","ping":36},{"user_id":574,"name":"SafetyInstructor","steam_id":76561199195205705,"connected_time":2313000000000,"state":"active","ping":60},{"user_id":596,"name":"sugoiboi48","steam_id":76561198060056280,"connected_time":574000000000,"state":"active","ping":60},{"user_id":575,"name":"locsa","steam_id":76561199065232977,"connected_time":2306000000000,"state":"active","ping":87},{"user_id":535,"name":"Fentanyl Frank","steam_id":76561198225910596,"connected_time":5144000000000,"state":"active","ping":63},{"user_id":597,"name":"Renegade","steam_id":76561198066847055,"connected_time":507000000000,"state":"active","ping":75},{"user_id":577,"name":"crankshaft","steam_id":76561197992798282,"connected_time":2266000000000,"state":"active","ping":78},{"user_id":579,"name":"You Don't Nomi.","steam_id":76561197969137836,"connected_time":2249000000000,"state":"active","ping":89},{"user_id":580,"name":"Timmy The Tyrant","steam_id":76561199156409732,"connected_time":2247000000000,"state":"active","ping":46},{"user_id":552,"name":"ihave80hp","steam_id":76561199251621911,"connected_time":3911000000000,"state":"active","ping":68},{"user_id":585,"name":"penzfan","steam_id":76561198230422640,"connected_time":1971000000000,"state":"active","ping":72},{"user_id":586,"name":"Bad medic girlfriend","steam_id":76561198294054569,"connected_time":1966000000000,"state":"active","ping":97},{"user_id":598,"name":"Lock'd","steam_id":76561198170108230,"connected_time":505000000000,"state":"active","ping":61}]},{"server_id":404,"name":"Uncletopia | Dallas | 3 | All Maps","name_short":"dal-3","host":"dal-1.us.uncletopia.com","port":27035,"enabled":true,"region":"us-central","cc":"us","latitude":32.779167,"longitude":-96.80889,"reserved":0,"last_update":"0001-01-01T00:00:00Z","name_a2s":"Uncletopia | Dallas | 3 | All Maps","protocol":17,"map":"pl_snowycoast","folder":"tf","game":"Team Fortress","app_id":440,"player_count":7,"max_players":24,"Bots":0,"server_type":"Dedicated","server_os":"Linux","password":true,"vac":true,"version":"7961495","steam_id":85568392924515219,"keywords":["nocrits","nodmgspread","payload","uncletopia"],"game_id":440,"stv_port":27036,"stv_name":"Uncletopia | Dallas | 3 | All Maps | STV","players":[{"user_id":507,"name":"kdhbuilder","steam_id":76561199058095193,"connected_time":779000000000,"state":"active","ping":106},{"user_id":511,"name":"Bambaroo","steam_id":76561198248667988,"connected_time":524000000000,"state":"active","ping":71},{"user_id":517,"name":"Mr.ParkJr","steam_id":76561198357216189,"connected_time":234000000000,"state":"active","ping":85},{"user_id":518,"name":"The Winter Medic","steam_id":76561198197112922,"connected_time":206000000000,"state":"active","ping":88},{"user_id":514,"name":"Genetic Komodo (He/Him)","steam_id":76561198174806758,"connected_time":466000000000,"state":"active","ping":30},{"user_id":499,"name":"jumpingjacks","steam_id":76561197964839440,"connected_time":1301000000000,"state":"active","ping":75},{"user_id":479,"name":"gooch_masta","steam_id":76561198151578423,"connected_time":2292000000000,"state":"active","ping":53}]},{"server_id":405,"name":"Uncletopia | Dallas | 4 | Community","name_short":"dal-4","host":"dal-1.us.uncletopia.com","port":27045,"enabled":true,"region":"us-central","cc":"us","latitude":32.779167,"longitude":-96.80889,"reserved":0,"last_update":"0001-01-01T00:00:00Z","name_a2s":"Uncletopia | Dallas | 4 | Community","protocol":17,"map":"workshop/koth_ramjam_rc1.ugc459778887","folder":"tf","game":"Team Fortress","app_id":440,"player_count":0,"max_players":24,"Bots":0,"server_type":"Dedicated","server_os":"Linux","password":true,"vac":true,"version":"7961495","steam_id":85568392924515220,"keywords":["cp","nocrits","nodmgspread","uncletopia"],"game_id":440,"stv_port":27046,"stv_name":"Uncletopia | Dallas | 4 | Community | STV","players":null},{"server_id":5,"name":"Uncletopia | Frankfurt | 1 | All Maps","name_short":"frk-1","host":"frk-1.de.uncletopia.com","port":27015,"enabled":true,"region":"eu","cc":"de","latitude":50.110924,"longitude":8.682127,"reserved":0,"last_update":"0001-01-01T00:00:00Z","name_a2s":"Uncletopia | Frankfurt | 1 | All Maps","protocol":17,"map":"pl_pier","folder":"tf","game":"Team Fortress","app_id":440,"player_count":0,"max_players":24,"Bots":0,"server_type":"Dedicated","server_os":"Linux","password":true,"vac":true,"version":"7961495","steam_id":85568392924469989,"keywords":["nocrits","nodmgspread","payload","uncletopia"],"game_id":440,"stv_port":27016,"stv_name":"Uncletopia | Frankfurt | 1 | All Maps | STV","players":null},{"server_id":110,"name":"Uncletopia | Frankfurt | 2 | All Maps","name_short":"frk-2","host":"frk-1.de.uncletopia.com","port":27025,"enabled":true,"region":"eu","cc":"de","latitude":50.110924,"longitude":8.682127,"reserved":0,"last_update":"0001-01-01T00:00:00Z","name_a2s":"Uncletopia | Frankfurt | 2 | All Maps","protocol":17,"map":"cp_snakewater_final1","folder":"tf","game":"Team Fortress","app_id":440,"player_count":0,"max_players":24,"Bots":0,"server_type":"Dedicated","server_os":"Linux","password":true,"vac":true,"version":"7961495","steam_id":85568392924469990,"keywords":["cp","nocrits","nodmgspread","uncletopia"],"game_id":440,"stv_port":27026,"stv_name":"Uncletopia | Frankfurt | 2 | All Maps | STV","players":null},{"server_id":308,"name":"Uncletopia | Frankfurt | 3 | All Maps","name_short":"frk-3","host":"frk-1.de.uncletopia.com","port":27035,"enabled":true,"region":"eu","cc":"de","latitude":50.110924,"longitude":8.682127,"reserved":0,"last_update":"0001-01-01T00:00:00Z","name_a2s":"Uncletopia | Frankfurt | 3 | All Maps","protocol":17,"map":"cp_dustbowl","folder":"tf","game":"Team Fortress","app_id":440,"player_count":0,"max_players":24,"Bots":0,"server_type":"Dedicated","server_os":"Linux","password":true,"vac":true,"version":"7961495","steam_id":85568392924504274,"keywords":["cp","nocrits","nodmgspread","uncletopia"],"game_id":440,"stv_port":27036,"stv_name":"Uncletopia | Frankfurt | 3 | All Maps | STV","players":null},{"server_id":309,"name":"Uncletopia | Frankfurt | 4 | All Maps","name_short":"frk-4","host":"frk-1.de.uncletopia.com","port":27045,"enabled":true,"region":"eu","cc":"de","latitude":50.110924,"longitude":8.682127,"reserved":0,"last_update":"0001-01-01T00:00:00Z","name_a2s":"Uncletopia | Frankfurt | 4 | All Maps","protocol":17,"map":"cp_altitude","folder":"tf","game":"Team Fortress","app_id":440,"player_count":0,"max_players":24,"Bots":0,"server_type":"Dedicated","server_os":"Linux","password":true,"vac":true,"version":"7961495","steam_id":85568392924504275,"keywords":["cp","nocrits","nodmgspread","uncletopia"],"game_id":440,"stv_port":27046,"stv_name":"Uncletopia | Frankfurt | 4 | All Maps | STV","players":null},{"server_id":310,"name":"Uncletopia | Frankfurt | 5 | All Maps","name_short":"frk-5","host":"frk-1.de.uncletopia.com","port":27055,"enabled":true,"region":"eu","cc":"de","latitude":50.110924,"longitude":8.682127,"reserved":0,"last_update":"0001-01-01T00:00:00Z","name_a2s":"Uncletopia | Frankfurt | 5 | All Maps","protocol":17,"map":"pl_pier","folder":"tf","game":"Team Fortress","app_id":440,"player_count":0,"max_players":24,"Bots":0,"server_type":"Dedicated","server_os":"Linux","password":true,"vac":true,"version":"7961495","steam_id":85568392924504277,"keywords":["nocrits","nodmgspread","payload","uncletopia"],"game_id":440,"stv_port":27056,"stv_name":"Uncletopia | Frankfurt | 5 | All Maps | STV","players":null},{"server_id":311,"name":"Uncletopia | Frankfurt | 6 | All Maps","name_short":"frk-6","host":"frk-1.de.uncletopia.com","port":27065,"enabled":true,"region":"eu","cc":"de","latitude":50.110924,"longitude":8.682127,"reserved":0,"last_update":"0001-01-01T00:00:00Z","name_a2s":"Uncletopia | Frankfurt | 6 | All Maps","protocol":17,"map":"koth_cascade","folder":"tf","game":"Team Fortress","app_id":440,"player_count":0,"max_players":24,"Bots":0,"server_type":"Dedicated","server_os":"Linux","password":true,"vac":true,"version":"7961495","steam_id":85568392924504278,"keywords":["cp","nocrits","nodmgspread","uncletopia"],"game_id":440,"stv_port":27066,"stv_name":"Uncletopia | Frankfurt | 6 | All Maps | STV","players":null},{"server_id":23,"name":"Uncletopia | Frankfurt | 7 | Stopwatch","name_short":"frk-7","host":"frk-1.de.uncletopia.com","port":27075,"enabled":true,"region":"eu","cc":"de","latitude":50.110924,"longitude":8.682127,"reserved":0,"last_update":"0001-01-01T00:00:00Z","name_a2s":"Uncletopia | Frankfurt | 7 | Stopwatch","protocol":17,"map":"pl_borneo","folder":"tf","game":"Team Fortress","app_id":440,"player_count":0,"max_players":24,"Bots":0,"server_type":"Dedicated","server_os":"Linux","password":true,"vac":true,"version":"7961495","steam_id":85568392924742827,"keywords":["nocrits","nodmgspread","payload","uncletopia"],"game_id":440,"stv_port":27076,"stv_name":"Uncletopia | Frankfurt | 7 | Stopwatch | STV","players":null},{"server_id":24,"name":"Uncletopia | Frankfurt | 8 | Community","name_short":"frk-8","host":"frk-1.de.uncletopia.com","port":27085,"enabled":true,"region":"eu","cc":"de","latitude":50.110924,"longitude":8.682127,"reserved":0,"last_update":"0001-01-01T00:00:00Z","name_a2s":"Uncletopia | Frankfurt | 8 | Community","protocol":17,"map":"workshop/cp_fulgur_rc2a.ugc2068252300","folder":"tf","game":"Team Fortress","app_id":440,"player_count":0,"max_players":24,"Bots":0,"server_type":"Dedicated","server_os":"Linux","password":true,"vac":true,"version":"7961495","steam_id":85568392924742828,"keywords":["cp","nocrits","nodmgspread","uncletopia"],"game_id":440,"stv_port":27086,"stv_name":"Uncletopia | Frankfurt | 8 | Community | STV","players":null},{"server_id":202,"name":"Uncletopia | Hong Kong | 1 | All Maps","name_short":"hgk-1","host":"hgk-1.hk.uncletopia.com","port":27015,"enabled":true,"region":"asia","cc":"hk","latitude":22.302711,"longitude":114.177216,"reserved":0,"last_update":"0001-01-01T00:00:00Z","name_a2s":"Uncletopia | Hong Kong | 1 | All Maps","protocol":17,"map":"cp_altitude","folder":"tf","game":"Team Fortress","app_id":440,"player_count":0,"max_players":24,"Bots":0,"server_type":"Dedicated","server_os":"Linux","password":true,"vac":true,"version":"7961495","steam_id":85568392924494504,"keywords":["cp","nocrits","nodmgspread","uncletopia"],"game_id":440,"stv_port":27016,"stv_name":"Uncletopia | Hong Kong | 1 | All Maps | STV","players":null},{"server_id":1,"name":"Uncletopia | Los Angeles | 1 | All Maps","name_short":"lax-1","host":"lax-1.us.uncletopia.com","port":27015,"enabled":true,"region":"us-west","cc":"us","latitude":33.94279,"longitude":-118.41004,"reserved":0,"last_update":"0001-01-01T00:00:00Z","name_a2s":"Uncletopia | Los Angeles | 1 | All Maps","protocol":17,"map":"pl_badwater","folder":"tf","game":"Team Fortress","app_id":440,"player_count":23,"max_players":24,"Bots":0,"server_type":"Dedicated","server_os":"Linux","password":true,"vac":true,"version":"7961495","steam_id":85568392924469991,"keywords":["nocrits","nodmgspread","payload","uncletopia"],"game_id":440,"stv_port":27016,"stv_name":"Uncletopia | Los Angeles | 1 | All Maps | STV","players":[{"user_id":82,"name":"Jazpy","steam_id":76561198036872545,"connected_time":2196000000000,"state":"active","ping":76},{"user_id":81,"name":"LegitGTV","steam_id":76561198968093086,"connected_time":2314000000000,"state":"active","ping":68},{"user_id":114,"name":"Hound From Heck","steam_id":76561198087764017,"connected_time":1087000000000,"state":"active","ping":78},{"user_id":108,"name":"for the king","steam_id":76561197973488858,"connected_time":1230000000000,"state":"active","ping":93},{"user_id":121,"name":"KaiDuck4348","steam_id":76561199060186538,"connected_time":67000000000,"state":"active","ping":110},{"user_id":80,"name":"Ice cream sandwich","steam_id":76561198172748357,"connected_time":2329000000000,"state":"active","ping":88},{"user_id":110,"name":"Roberto Del Fuego","steam_id":76561198043458554,"connected_time":1209000000000,"state":"active","ping":94},{"user_id":113,"name":"Punished Jeff #NeverSimpAgain","steam_id":76561198304252584,"connected_time":1126000000000,"state":"active","ping":66},{"user_id":107,"name":"the pizza","steam_id":76561198221331476,"connected_time":1257000000000,"state":"active","ping":47},{"user_id":118,"name":"asscastle 2","steam_id":76561198097330521,"connected_time":172000000000,"state":"active","ping":108},{"user_id":90,"name":"A_Toaster","steam_id":76561198946997549,"connected_time":1708000000000,"state":"active","ping":101},{"user_id":112,"name":"DeletedTaters","steam_id":76561198040773153,"connected_time":1142000000000,"state":"active","ping":95},{"user_id":115,"name":"BigGoose","steam_id":76561198833281392,"connected_time":587000000000,"state":"active","ping":76},{"user_id":120,"name":"a chicken","steam_id":76561198313121580,"connected_time":156000000000,"state":"active","ping":61},{"user_id":97,"name":"TheGrassMan (He/Him)","steam_id":76561198118984048,"connected_time":1480000000000,"state":"active","ping":120},{"user_id":87,"name":"5moo2","steam_id":76561197992999214,"connected_time":1821000000000,"state":"active","ping":45},{"user_id":88,"name":"Windows Vista Home Premium","steam_id":76561198043764863,"connected_time":1766000000000,"state":"active","ping":54},{"user_id":106,"name":"Banana Mario","steam_id":76561198871692156,"connected_time":1281000000000,"state":"active","ping":82},{"user_id":101,"name":"dumb stupid CHILD","steam_id":76561198166827208,"connected_time":1359000000000,"state":"active","ping":75},{"user_id":71,"name":"The Spy from TF2","steam_id":76561199467334502,"connected_time":2993000000000,"state":"active","ping":59},{"user_id":102,"name":"Sean","steam_id":76561198892489967,"connected_time":1328000000000,"state":"active","ping":131},{"user_id":116,"name":"Dullahan","steam_id":76561198119668908,"connected_time":578000000000,"state":"active","ping":59},{"user_id":105,"name":"poggerchamp","steam_id":76561199145124973,"connected_time":1304000000000,"state":"active","ping":84}]},{"server_id":112,"name":"Uncletopia | Los Angeles | 2 | All Maps","name_short":"lax-2","host":"lax-1.us.uncletopia.com","port":27025,"enabled":true,"region":"us-west","cc":"us","latitude":33.94279,"longitude":-118.41004,"reserved":0,"last_update":"0001-01-01T00:00:00Z","name_a2s":"Uncletopia | Los Angeles | 2 | All Maps","protocol":17,"map":"koth_highpass","folder":"tf","game":"Team Fortress","app_id":440,"player_count":1,"max_players":24,"Bots":0,"server_type":"Dedicated","server_os":"Linux","password":true,"vac":true,"version":"7961495","steam_id":85568392924469992,"keywords":["cp","nocrits","nodmgspread","uncletopia"],"game_id":440,"stv_port":27026,"stv_name":"Uncletopia | Los Angeles | 2 | All Maps | STV","players":[{"user_id":27,"name":"Squiliam","steam_id":76561198025278006,"connected_time":249000000000,"state":"active","ping":78}]},{"server_id":324,"name":"Uncletopia | Los Angeles | 3 | All Maps","name_short":"lax-3","host":"lax-1.us.uncletopia.com","port":27035,"enabled":true,"region":"us-west","cc":"us","latitude":33.94279,"longitude":-118.41004,"reserved":0,"last_update":"0001-01-01T00:00:00Z","name_a2s":"Uncletopia | Los Angeles | 3 | All Maps","protocol":17,"map":"koth_lakeside_final","folder":"tf","game":"Team Fortress","app_id":440,"player_count":24,"max_players":24,"Bots":0,"server_type":"Dedicated","server_os":"Linux","password":true,"vac":true,"version":"7961495","steam_id":85568392924510198,"keywords":["cp","nocrits","nodmgspread","uncletopia"],"game_id":440,"stv_port":27036,"stv_name":"Uncletopia | Los Angeles | 3 | All Maps | STV","players":[{"user_id":275,"name":"video game","steam_id":76561198067035501,"connected_time":3262000000000,"state":"active","ping":44},{"user_id":267,"name":"🐺-Iwky-🦊","steam_id":76561198185616311,"connected_time":4422000000000,"state":"active","ping":71},{"user_id":309,"name":"Castiel","steam_id":76561198116343956,"connected_time":1319000000000,"state":"active","ping":64},{"user_id":331,"name":"Eden","steam_id":76561198081284664,"connected_time":499000000000,"state":"active","ping":52},{"user_id":310,"name":"Bob's your Uncle","steam_id":76561197995230744,"connected_time":1263000000000,"state":"active","ping":110},{"user_id":325,"name":"zogs","steam_id":76561198323491654,"connected_time":954000000000,"state":"active","ping":63},{"user_id":320,"name":"Thequirka","steam_id":76561198968058652,"connected_time":1099000000000,"state":"active","ping":76},{"user_id":312,"name":"Bluedemon","steam_id":76561199212058684,"connected_time":1226000000000,"state":"active","ping":48},{"user_id":252,"name":"soccer2010","steam_id":76561198404271005,"connected_time":5303000000000,"state":"active","ping":54},{"user_id":333,"name":"litroolay","steam_id":76561197995226856,"connected_time":386000000000,"state":"active","ping":66},{"user_id":334,"name":"ylek","steam_id":76561198811561721,"connected_time":318000000000,"state":"active","ping":46},{"user_id":315,"name":"♥Chara喜生子♥","steam_id":76561198080500920,"connected_time":1211000000000,"state":"active","ping":104},{"user_id":284,"name":"ToxicSushi_","steam_id":76561198217103843,"connected_time":2682000000000,"state":"active","ping":80},{"user_id":299,"name":"rÖdent","steam_id":76561197968376558,"connected_time":1913000000000,"state":"active","ping":87},{"user_id":316,"name":"Dongus","steam_id":76561197979056451,"connected_time":1203000000000,"state":"active","ping":76},{"user_id":317,"name":"Dr. Bubs","steam_id":76561198011696595,"connected_time":1137000000000,"state":"active","ping":48},{"user_id":326,"name":"MetalKidDoc","steam_id":76561198108741986,"connected_time":678000000000,"state":"active","ping":91},{"user_id":294,"name":"rat","steam_id":76561198130412963,"connected_time":2164000000000,"state":"active","ping":85},{"user_id":327,"name":"PurplePond","steam_id":76561199062421006,"connected_time":582000000000,"state":"active","ping":103},{"user_id":321,"name":"Blade","steam_id":76561198385077836,"connected_time":1053000000000,"state":"active","ping":108},{"user_id":322,"name":"Always Here for You","steam_id":76561198219252313,"connected_time":1027000000000,"state":"active","ping":135},{"user_id":340,"name":"Dr. Medicine","steam_id":76561198165309820,"connected_time":251000000000,"state":"active","ping":73},{"user_id":324,"name":"♦♣Quadric♥♠","steam_id":76561198061003853,"connected_time":967000000000,"state":"active","ping":110},{"user_id":332,"name":"shakoiwa","steam_id":76561199059441773,"connected_time":460000000000,"state":"active","ping":100}]},{"server_id":25,"name":"Uncletopia | Los Angeles | 4 | Stopwatch","name_short":"lax-4","host":"lax-1.us.uncletopia.com","port":27045,"enabled":true,"region":"us-west","cc":"us","latitude":33.94279,"longitude":-118.41004,"reserved":0,"last_update":"0001-01-01T00:00:00Z","name_a2s":"Uncletopia | Los Angeles | 4 | Stopwatch","protocol":17,"map":"workshop/koth_ashville_final.ugc2130459942","folder":"tf","game":"Team Fortress","app_id":440,"player_count":0,"max_players":24,"Bots":0,"server_type":"Dedicated","server_os":"Linux","password":true,"vac":true,"version":"7961495","steam_id":85568392924510199,"keywords":["cp","nocrits","nodmgspread","uncletopia"],"game_id":440,"stv_port":27046,"stv_name":"Uncletopia | Los Angeles | 4 | Stopwatch | STV","players":null},{"server_id":11,"name":"Uncletopia | London | 1 | All Maps","name_short":"lon-1","host":"lon-1.uk.uncletopia.com","port":27015,"enabled":true,"region":"eu","cc":"gb","latitude":51.509865,"longitude":-0.118092,"reserved":0,"last_update":"0001-01-01T00:00:00Z","name_a2s":"Uncletopia | London | 1 | All Maps","protocol":17,"map":"koth_viaduct","folder":"tf","game":"Team Fortress","app_id":440,"player_count":23,"max_players":24,"Bots":0,"server_type":"Dedicated","server_os":"Linux","password":true,"vac":true,"version":"7961495","steam_id":85568392924367362,"keywords":["cp","nocrits","nodmgspread","uncletopia"],"game_id":440,"stv_port":27016,"stv_name":"Uncletopia | London | 1 | All Maps | STV","players":[{"user_id":692,"name":"green spy","steam_id":76561198080064268,"connected_time":597000000000,"state":"active","ping":54},{"user_id":682,"name":"Shadowmann","steam_id":76561198158608309,"connected_time":1483000000000,"state":"active","ping":43},{"user_id":504,"name":"gibb (official)","steam_id":76561198074097655,"connected_time":13632000000000,"state":"active","ping":60},{"user_id":618,"name":"Burbie","steam_id":76561198046069449,"connected_time":5254000000000,"state":"active","ping":59},{"user_id":689,"name":"boxing time","steam_id":76561198231966088,"connected_time":1261000000000,"state":"active","ping":47},{"user_id":650,"name":"FoxyTheFish","steam_id":76561199074190919,"connected_time":2998000000000,"state":"active","ping":59},{"user_id":694,"name":"akciq ⁧⁧respect","steam_id":76561198390963456,"connected_time":583000000000,"state":"active","ping":77},{"user_id":690,"name":"Luciat","steam_id":76561198114216087,"connected_time":1060000000000,"state":"active","ping":42},{"user_id":695,"name":"Minimi","steam_id":76561198873850443,"connected_time":514000000000,"state":"active","ping":42},{"user_id":667,"name":"myffdii","steam_id":76561198067677196,"connected_time":2547000000000,"state":"active","ping":58},{"user_id":698,"name":"..-. .- - / -. ..- -","steam_id":76561198138189069,"connected_time":199000000000,"state":"active","ping":54},{"user_id":479,"name":"shooer!","steam_id":76561198110531281,"connected_time":17710000000000,"state":"active","ping":70},{"user_id":688,"name":"Glitch","steam_id":76561198801335846,"connected_time":1321000000000,"state":"active","ping":27},{"user_id":700,"name":"Zerosiini","steam_id":76561198113771976,"connected_time":149000000000,"state":"active","ping":67},{"user_id":699,"name":"WinterBucket","steam_id":76561198381313801,"connected_time":186000000000,"state":"active","ping":67},{"user_id":675,"name":"dwarf","steam_id":76561198045099492,"connected_time":2036000000000,"state":"active","ping":120},{"user_id":680,"name":"Minty","steam_id":76561198068729748,"connected_time":1737000000000,"state":"active","ping":72},{"user_id":693,"name":"Nik_KiP","steam_id":76561198003030143,"connected_time":594000000000,"state":"active","ping":96},{"user_id":674,"name":"Respec Wamen","steam_id":76561198444504263,"connected_time":2163000000000,"state":"active","ping":57},{"user_id":630,"name":"Shlongulator","steam_id":76561198149779201,"connected_time":3607000000000,"state":"active","ping":49},{"user_id":676,"name":"Declining Sanity Gaming (real)","steam_id":76561199118797744,"connected_time":2001000000000,"state":"active","ping":63},{"user_id":677,"name":"shenanigan","steam_id":76561198043452925,"connected_time":1981000000000,"state":"active","ping":100},{"user_id":678,"name":"qpbd","steam_id":76561198022035402,"connected_time":1977000000000,"state":"active","ping":76}]},{"server_id":114,"name":"Uncletopia | London | 2 | All Maps","name_short":"lon-2","host":"lon-1.uk.uncletopia.com","port":27025,"enabled":true,"region":"eu","cc":"gb","latitude":51.509865,"longitude":-0.118092,"reserved":0,"last_update":"0001-01-01T00:00:00Z","name_a2s":"Uncletopia | London | 2 | All Maps","protocol":17,"map":"koth_cascade","folder":"tf","game":"Team Fortress","app_id":440,"player_count":0,"max_players":24,"Bots":0,"server_type":"Dedicated","server_os":"Linux","password":true,"vac":true,"version":"7961495","steam_id":85568392924470941,"keywords":["cp","nocrits","nodmgspread","uncletopia"],"game_id":440,"stv_port":27026,"stv_name":"Uncletopia | London | 2 | All Maps | STV","players":null},{"server_id":320,"name":"Uncletopia | London | 3 | All Maps","name_short":"lon-3","host":"lon-1.uk.uncletopia.com","port":27035,"enabled":true,"region":"eu","cc":"gb","latitude":51.509865,"longitude":-0.118092,"reserved":0,"last_update":"0001-01-01T00:00:00Z","name_a2s":"Uncletopia | London | 3 | All Maps","protocol":17,"map":"pl_badwater","folder":"tf","game":"Team Fortress","app_id":440,"player_count":0,"max_players":24,"Bots":0,"server_type":"Dedicated","server_os":"Linux","password":true,"vac":true,"version":"7961495","steam_id":85568392924510192,"keywords":["nocrits","nodmgspread","payload","uncletopia"],"game_id":440,"stv_port":27036,"stv_name":"Uncletopia | London | 3 | All Maps | STV","players":null},{"server_id":321,"name":"Uncletopia | London | 4 | All Maps","name_short":"lon-4","host":"lon-1.uk.uncletopia.com","port":27045,"enabled":true,"region":"eu","cc":"gb","latitude":51.509865,"longitude":-0.118092,"reserved":0,"last_update":"0001-01-01T00:00:00Z","name_a2s":"Uncletopia | London | 4 | All Maps","protocol":17,"map":"pl_snowycoast","folder":"tf","game":"Team Fortress","app_id":440,"player_count":24,"max_players":24,"Bots":0,"server_type":"Dedicated","server_os":"Linux","password":true,"vac":true,"version":"7961495","steam_id":85568392924510193,"keywords":["nocrits","nodmgspread","payload","uncletopia"],"game_id":440,"stv_port":27046,"stv_name":"Uncletopia | London | 4 | All Maps | STV","players":[{"user_id":659,"name":"remi, she wrote.","steam_id":76561198044045655,"connected_time":1606000000000,"state":"active","ping":81},{"user_id":638,"name":"Draco","steam_id":76561198031226933,"connected_time":3753000000000,"state":"active","ping":57},{"user_id":605,"name":"Proto-arc","steam_id":76561198012776747,"connected_time":5639000000000,"state":"active","ping":54},{"user_id":610,"name":"sticks","steam_id":76561198127099299,"connected_time":5253000000000,"state":"active","ping":40},{"user_id":667,"name":"lutoma","steam_id":76561198025568972,"connected_time":1190000000000,"state":"active","ping":46},{"user_id":606,"name":"Piellino","steam_id":76561198156873276,"connected_time":5622000000000,"state":"active","ping":103},{"user_id":670,"name":"NotChloe","steam_id":76561198080658092,"connected_time":788000000000,"state":"active","ping":56},{"user_id":639,"name":"Vix The Vulpix","steam_id":76561198292181452,"connected_time":3744000000000,"state":"active","ping":154},{"user_id":672,"name":"Dozer","steam_id":76561197998742338,"connected_time":544000000000,"state":"active","ping":60},{"user_id":658,"name":"Rick Makakezzz","steam_id":76561198057495653,"connected_time":1624000000000,"state":"active","ping":87},{"user_id":673,"name":"name","steam_id":76561198295154779,"connected_time":36000000000,"state":"active","ping":51},{"user_id":618,"name":"Skyrider of Spaceways","steam_id":76561197991678236,"connected_time":4730000000000,"state":"active","ping":121},{"user_id":662,"name":"Gagiclunk","steam_id":76561199194862650,"connected_time":1539000000000,"state":"active","ping":36},{"user_id":663,"name":"mudspaw","steam_id":76561198101327448,"connected_time":1534000000000,"state":"active","ping":148},{"user_id":621,"name":"mohemmedmokhter2005","steam_id":76561199197650506,"connected_time":4599000000000,"state":"active","ping":106},{"user_id":622,"name":"Reljadin","steam_id":76561198054997553,"connected_time":4497000000000,"state":"active","ping":87},{"user_id":666,"name":"Visphiric","steam_id":76561198071938027,"connected_time":1229000000000,"state":"active","ping":41},{"user_id":655,"name":"etc","steam_id":76561197998394797,"connected_time":1644000000000,"state":"active","ping":55},{"user_id":626,"name":"MNKY","steam_id":76561198057125058,"connected_time":4230000000000,"state":"active","ping":79},{"user_id":627,"name":"Pancholín","steam_id":76561198262777640,"connected_time":4226000000000,"state":"active","ping":73},{"user_id":650,"name":"ClipHuNterZ4U.org","steam_id":76561197970114051,"connected_time":2484000000000,"state":"active","ping":45},{"user_id":656,"name":"Lyncurion","steam_id":76561199260022725,"connected_time":1643000000000,"state":"active","ping":83},{"user_id":657,"name":"❤Speedbump❤","steam_id":76561198388690313,"connected_time":1643000000000,"state":"active","ping":71},{"user_id":669,"name":"skam","steam_id":76561198393181352,"connected_time":913000000000,"state":"active","ping":89}]},{"server_id":21,"name":"Uncletopia | London | 5 | All Maps","name_short":"lon-5","host":"lon-1.uk.uncletopia.com","port":27055,"enabled":true,"region":"eu","cc":"gb","latitude":51.509865,"longitude":-0.118092,"reserved":0,"last_update":"0001-01-01T00:00:00Z","name_a2s":"Uncletopia | London | 5 | All Maps","protocol":17,"map":"koth_lakeside_final","folder":"tf","game":"Team Fortress","app_id":440,"player_count":0,"max_players":24,"Bots":0,"server_type":"Dedicated","server_os":"Linux","password":true,"vac":true,"version":"7961495","steam_id":85568392924742829,"keywords":["cp","nocrits","nodmgspread","uncletopia"],"game_id":440,"stv_port":27056,"stv_name":"Uncletopia | London | 5 | All Maps | STV","players":null},{"server_id":22,"name":"Uncletopia | London | 6 | All Maps","name_short":"lon-6","host":"lon-1.uk.uncletopia.com","port":27065,"enabled":true,"region":"eu","cc":"gb","latitude":51.509865,"longitude":-0.118092,"reserved":0,"last_update":"0001-01-01T00:00:00Z","name_a2s":"Uncletopia | London | 6 | All Maps","protocol":17,"map":"cp_snakewater_final1","folder":"tf","game":"Team Fortress","app_id":440,"player_count":0,"max_players":24,"Bots":0,"server_type":"Dedicated","server_os":"Linux","password":true,"vac":true,"version":"7961495","steam_id":85568392924742830,"keywords":["cp","nocrits","nodmgspread","uncletopia"],"game_id":440,"stv_port":27066,"stv_name":"Uncletopia | London | 6 | All Maps | STV","players":null},{"server_id":40,"name":"Uncletopia | London | 7 | Stopwatch","name_short":"lon-7","host":"lon-1.uk.uncletopia.com","port":27075,"enabled":true,"region":"eu","cc":"gb","latitude":51.509865,"longitude":-0.118092,"reserved":0,"last_update":"0001-01-01T00:00:00Z","name_a2s":"Uncletopia | London | 7 | Stopwatch","protocol":17,"map":"workshop/koth_ramjam_rc1.ugc459778887","folder":"tf","game":"Team Fortress","app_id":440,"player_count":0,"max_players":24,"Bots":0,"server_type":"Dedicated","server_os":"Linux","password":true,"vac":true,"version":"7961495","steam_id":85568392924964314,"keywords":["cp","nocrits","nodmgspread","uncletopia"],"game_id":440,"stv_port":27076,"stv_name":"Uncletopia | London | 7 | Stopwatch | STV","players":null},{"server_id":41,"name":"Uncletopia | London | 8 | Community","name_short":"lon-8","host":"lon-1.uk.uncletopia.com","port":27085,"enabled":true,"region":"eu","cc":"gb","latitude":51.509865,"longitude":-0.118092,"reserved":0,"last_update":"0001-01-01T00:00:00Z","name_a2s":"Uncletopia | London | 8 | Community","protocol":17,"map":"workshop/cp_reckoner_rc6.ugc674719999","folder":"tf","game":"Team Fortress","app_id":440,"player_count":0,"max_players":24,"Bots":0,"server_type":"Dedicated","server_os":"Linux","password":true,"vac":true,"version":"7961495","steam_id":85568392924964315,"keywords":["cp","nocrits","nodmgspread","uncletopia"],"game_id":440,"stv_port":27086,"stv_name":"Uncletopia | London | 8 | Community | STV","players":null},{"server_id":300,"name":"Uncletopia | Montréal | 1 | One Thousand Uncles","name_short":"mtl-1","host":"mtl-1.ca.uncletopia.com","port":27015,"enabled":true,"region":"us-east","cc":"ca","latitude":45.50889,"longitude":-73.56167,"reserved":0,"last_update":"0001-01-01T00:00:00Z","name_a2s":"","protocol":0,"map":"","folder":"","game":"","app_id":0,"player_count":8,"max_players":0,"Bots":0,"server_type":"","server_os":"","password":false,"vac":false,"version":"","steam_id":0,"keywords":null,"game_id":0,"stv_port":0,"stv_name":"","players":[{"user_id":58,"name":"Ignatius J. Reilly","steam_id":76561198066958868,"connected_time":3743000000000,"state":"active","ping":57},{"user_id":63,"name":"KnightMan","steam_id":76561198143531192,"connected_time":2838000000000,"state":"active","ping":78},{"user_id":68,"name":"nonagon infinity","steam_id":76561198397662124,"connected_time":1331000000000,"state":"active","ping":92},{"user_id":69,"name":"Lots0","steam_id":76561198043143145,"connected_time":520000000000,"state":"active","ping":95},{"user_id":67,"name":"penis atomizer 9000 🏳️?","steam_id":76561198864841966,"connected_time":1579000000000,"state":"active","ping":108},{"user_id":70,"name":"Juri Han","steam_id":76561198041678517,"connected_time":407000000000,"state":"active","ping":119},{"user_id":71,"name":"Pfc. S. Hell |8th ID|","steam_id":76561198039311678,"connected_time":392000000000,"state":"active","ping":39},{"user_id":74,"name":"PiRA","steam_id":76561197962440292,"connected_time":153000000000,"state":"active","ping":43}]},{"server_id":301,"name":"Uncletopia | Montréal | 2 | One Thousand Uncles","name_short":"mtl-2","host":"mtl-1.ca.uncletopia.com","port":27025,"enabled":true,"region":"us-east","cc":"ca","latitude":45.50889,"longitude":-73.56167,"reserved":0,"last_update":"0001-01-01T00:00:00Z","name_a2s":"","protocol":0,"map":"","folder":"","game":"","app_id":0,"player_count":0,"max_players":0,"Bots":0,"server_type":"","server_os":"","password":false,"vac":false,"version":"","steam_id":0,"keywords":null,"game_id":0,"stv_port":0,"stv_name":"","players":null},{"server_id":302,"name":"Uncletopia | Montréal | 3 | One Thousand Uncles","name_short":"mtl-3","host":"mtl-1.ca.uncletopia.com","port":27035,"enabled":true,"region":"us-east","cc":"ca","latitude":45.50889,"longitude":-73.56167,"reserved":0,"last_update":"0001-01-01T00:00:00Z","name_a2s":"","protocol":0,"map":"","folder":"","game":"","app_id":0,"player_count":0,"max_players":0,"Bots":0,"server_type":"","server_os":"","password":false,"vac":false,"version":"","steam_id":0,"keywords":null,"game_id":0,"stv_port":0,"stv_name":"","players":null},{"server_id":13,"name":"Uncletopia | New York City | 1 | All Maps","name_short":"nyc-1","host":"nyc-1.us.uncletopia.com","port":27015,"enabled":true,"region":"us-east","cc":"us","latitude":40.73061,"longitude":-73.93524,"reserved":0,"last_update":"0001-01-01T00:00:00Z","name_a2s":"Uncletopia | New York City | 1 | All Maps","protocol":17,"map":"cp_gorge","folder":"tf","game":"Team Fortress","app_id":440,"player_count":24,"max_players":24,"Bots":0,"server_type":"Dedicated","server_os":"Linux","password":true,"vac":true,"version":"7961495","steam_id":85568392924469993,"keywords":["cp","nocrits","nodmgspread","uncletopia"],"game_id":440,"stv_port":27016,"stv_name":"Uncletopia | New York City | 1 | All Maps | STV","players":[{"user_id":642,"name":"renskeys","steam_id":76561199014789148,"connected_time":1083000000000,"state":"active","ping":67},{"user_id":621,"name":"David Blaine","steam_id":76561198980560578,"connected_time":2652000000000,"state":"active","ping":64},{"user_id":654,"name":"Sir Quacksalot","steam_id":76561198048942777,"connected_time":199000000000,"state":"active","ping":93},{"user_id":656,"name":"Braamklauw","steam_id":76561198283287697,"connected_time":123000000000,"state":"active","ping":132},{"user_id":641,"name":"Mojave Mo'Problem","steam_id":76561198021706593,"connected_time":1111000000000,"state":"active","ping":65},{"user_id":630,"name":"on that zaza?","steam_id":76561198038713198,"connected_time":1708000000000,"state":"active","ping":48},{"user_id":633,"name":"Obama F. Kennedy","steam_id":76561198282499318,"connected_time":1540000000000,"state":"active","ping":47},{"user_id":604,"name":"RyFy","steam_id":76561198995124760,"connected_time":3608000000000,"state":"active","ping":68},{"user_id":643,"name":"merk","steam_id":76561198434609353,"connected_time":1065000000000,"state":"active","ping":77},{"user_id":660,"name":"Desk Lamp","steam_id":76561198157809427,"connected_time":9000000000,"state":"active","ping":47},{"user_id":650,"name":"Grishlock","steam_id":76561198000366744,"connected_time":562000000000,"state":"active","ping":135},{"user_id":619,"name":"Emberdened","steam_id":76561199163688421,"connected_time":2757000000000,"state":"active","ping":108},{"user_id":622,"name":"smalFox","steam_id":76561198041243017,"connected_time":2631000000000,"state":"active","ping":70},{"user_id":652,"name":"SNEPPY","steam_id":76561198065040243,"connected_time":548000000000,"state":"active","ping":54},{"user_id":635,"name":"Mr.Kingboo","steam_id":76561198141543180,"connected_time":1532000000000,"state":"active","ping":68},{"user_id":608,"name":"gagobears","steam_id":76561198086008437,"connected_time":3590000000000,"state":"active","ping":84},{"user_id":600,"name":"Tablaro","steam_id":76561198076915673,"connected_time":3722000000000,"state":"active","ping":70},{"user_id":647,"name":"Windup Monkey in a Human Suit","steam_id":76561198119501444,"connected_time":644000000000,"state":"active","ping":89},{"user_id":653,"name":"GoingMerry_","steam_id":76561199007407914,"connected_time":544000000000,"state":"active","ping":62},{"user_id":645,"name":"general.b","steam_id":76561198162480519,"connected_time":938000000000,"state":"active","ping":55},{"user_id":636,"name":"setmarks","steam_id":76561198053954297,"connected_time":1509000000000,"state":"active","ping":62},{"user_id":659,"name":"Jaguar -ringme","steam_id":76561197971152439,"connected_time":22000000000,"state":"active","ping":84},{"user_id":624,"name":"Bunni","steam_id":76561198065169997,"connected_time":2102000000000,"state":"active","ping":76},{"user_id":638,"name":"Markus Velafi","steam_id":76561198063193924,"connected_time":1504000000000,"state":"active","ping":67}]},{"server_id":14,"name":"Uncletopia | New York City | 2 | All Maps","name_short":"nyc-2","host":"nyc-1.us.uncletopia.com","port":27025,"enabled":true,"region":"us-east","cc":"us","latitude":40.73061,"longitude":-73.93524,"reserved":0,"last_update":"0001-01-01T00:00:00Z","name_a2s":"Uncletopia | New York City | 2 | All Maps","protocol":17,"map":"pl_swiftwater_final1","folder":"tf","game":"Team Fortress","app_id":440,"player_count":24,"max_players":24,"Bots":0,"server_type":"Dedicated","server_os":"Linux","password":true,"vac":true,"version":"7961495","steam_id":85568392924469994,"keywords":["nocrits","nodmgspread","payload","uncletopia"],"game_id":440,"stv_port":27026,"stv_name":"Uncletopia | New York City | 2 | All Maps | STV","players":[{"user_id":489,"name":"LittleLeaf","steam_id":76561198047925893,"connected_time":1193000000000,"state":"active","ping":65},{"user_id":482,"name":"Teostra","steam_id":76561198150201869,"connected_time":1803000000000,"state":"active","ping":99},{"user_id":517,"name":"chicken nucket","steam_id":76561198042831480,"connected_time":565000000000,"state":"active","ping":78},{"user_id":490,"name":"Eiss","steam_id":76561198343183806,"connected_time":982000000000,"state":"active","ping":68},{"user_id":499,"name":"vinny6","steam_id":76561198386735728,"connected_time":783000000000,"state":"active","ping":45},{"user_id":491,"name":"bios","steam_id":76561198063737238,"connected_time":887000000000,"state":"active","ping":63},{"user_id":520,"name":"mogan","steam_id":76561198071700821,"connected_time":557000000000,"state":"active","ping":68},{"user_id":493,"name":"Hazeyboi","steam_id":76561198130687838,"connected_time":879000000000,"state":"active","ping":80},{"user_id":494,"name":"ashley","steam_id":76561199074621699,"connected_time":876000000000,"state":"active","ping":95},{"user_id":495,"name":"DerpyNate","steam_id":76561198100249037,"connected_time":875000000000,"state":"active","ping":61},{"user_id":496,"name":"Maximum Flame","steam_id":76561198073682529,"connected_time":871000000000,"state":"active","ping":69},{"user_id":497,"name":"Mtn. Mama","steam_id":76561198065752835,"connected_time":848000000000,"state":"active","ping":92},{"user_id":509,"name":"BungusBillingsly","steam_id":76561198157542591,"connected_time":601000000000,"state":"active","ping":67},{"user_id":504,"name":"Tat_Dead","steam_id":76561199048111391,"connected_time":624000000000,"state":"active","ping":114},{"user_id":521,"name":"OBSERVER","steam_id":76561198072996397,"connected_time":553000000000,"state":"active","ping":71},{"user_id":505,"name":"ryqset","steam_id":76561198349299874,"connected_time":621000000000,"state":"active","ping":123},{"user_id":506,"name":"genset90","steam_id":76561199025671520,"connected_time":615000000000,"state":"active","ping":129},{"user_id":507,"name":"Calamity","steam_id":76561198341345860,"connected_time":615000000000,"state":"active","ping":73},{"user_id":510,"name":"Walmart Employee","steam_id":76561198840373909,"connected_time":601000000000,"state":"active","ping":98},{"user_id":514,"name":"CHAI","steam_id":76561198119556082,"connected_time":586000000000,"state":"active","ping":82},{"user_id":512,"name":"jaytheking05","steam_id":76561198856419769,"connected_time":595000000000,"state":"active","ping":54},{"user_id":518,"name":"GreenApples","steam_id":76561198120559543,"connected_time":562000000000,"state":"active","ping":118},{"user_id":515,"name":"yes daddy","steam_id":76561198166100997,"connected_time":580000000000,"state":"active","ping":73},{"user_id":522,"name":"untan","steam_id":76561198060145549,"connected_time":478000000000,"state":"active","ping":74}]},{"server_id":15,"name":"Uncletopia | New York City | 3 | Stopwatch","name_short":"nyc-3","host":"nyc-1.us.uncletopia.com","port":27035,"enabled":true,"region":"us-east","cc":"us","latitude":40.73061,"longitude":-73.93524,"reserved":0,"last_update":"0001-01-01T00:00:00Z","name_a2s":"Uncletopia | New York City | 3 | Stopwatch","protocol":17,"map":"workshop/koth_ashville_final.ugc2130459942","folder":"tf","game":"Team Fortress","app_id":440,"player_count":0,"max_players":24,"Bots":0,"server_type":"Dedicated","server_os":"Linux","password":true,"vac":true,"version":"7961495","steam_id":85568392924742820,"keywords":["cp","nocrits","nodmgspread","uncletopia"],"game_id":440,"stv_port":27036,"stv_name":"Uncletopia | New York City | 3 | Stopwatch | STV","players":null},{"server_id":16,"name":"Uncletopia | New York City | 4 | Community","name_short":"nyc-4","host":"nyc-1.us.uncletopia.com","port":27045,"enabled":true,"region":"us-east","cc":"us","latitude":40.73061,"longitude":-73.93524,"reserved":0,"last_update":"0001-01-01T00:00:00Z","name_a2s":"Uncletopia | New York City | 4 | Community","protocol":17,"map":"workshop/rd_asteroid_redux_b1.ugc2154902912","folder":"tf","game":"Team Fortress","app_id":440,"player_count":0,"max_players":24,"Bots":0,"server_type":"Dedicated","server_os":"Linux","password":true,"vac":true,"version":"7961495","steam_id":85568392924742821,"keywords":["beta","nocrits","nodmgspread","rd","uncletopia"],"game_id":440,"stv_port":27046,"stv_name":"Uncletopia | New York City | 4 | Community | STV","players":null},{"server_id":142,"name":"Uncletopia | São Paulo | 1 | All Maps","name_short":"sao-1","host":"sao-1.br.uncletopia.com","port":27015,"enabled":true,"region":"sa","cc":"br","latitude":-23.533773,"longitude":-46.62529,"reserved":0,"last_update":"0001-01-01T00:00:00Z","name_a2s":"Uncletopia | São Paulo | 1 | All Maps","protocol":17,"map":"koth_lakeside_final","folder":"tf","game":"Team Fortress","app_id":440,"player_count":3,"max_players":24,"Bots":0,"server_type":"Dedicated","server_os":"Linux","password":true,"vac":true,"version":"7961495","steam_id":85568392924469996,"keywords":["cp","nocrits","nodmgspread","uncletopia"],"game_id":440,"stv_port":27016,"stv_name":"Uncletopia | São Paulo | 1 | All Maps | STV","players":[{"user_id":19,"name":"ＥｎｄｅｒＮｅｃｒｏ","steam_id":76561198044304293,"connected_time":216000000000,"state":"active","ping":30},{"user_id":20,"name":"Abex, o cretino","steam_id":76561198099402345,"connected_time":187000000000,"state":"active","ping":36},{"user_id":22,"name":"Bill","steam_id":76561198407452192,"connected_time":108000000000,"state":"active","ping":59}]},{"server_id":143,"name":"Uncletopia | São Paulo | 2 | Community","name_short":"sao-2","host":"sao-2.br.uncletopia.com","port":27015,"enabled":true,"region":"sa","cc":"br","latitude":-23.533773,"longitude":-46.62529,"reserved":0,"last_update":"0001-01-01T00:00:00Z","name_a2s":"Uncletopia | São Paulo | 2 | Community","protocol":17,"map":"workshop/koth_kemptown_rc1.ugc767410655","folder":"tf","game":"Team Fortress","app_id":440,"player_count":0,"max_players":24,"Bots":0,"server_type":"Dedicated","server_os":"Linux","password":true,"vac":true,"version":"7961495","steam_id":85568392924485349,"keywords":["cp","nocrits","nodmgspread","uncletopia"],"game_id":440,"stv_port":27016,"stv_name":"Uncletopia | São Paulo | 2 | Community | STV","players":null},{"server_id":7,"name":"Uncletopia | Seattle | 1 | All Maps","name_short":"sea-1","host":"sea-1.us.uncletopia.com","port":27015,"enabled":true,"region":"us-west","cc":"us","latitude":47.608013,"longitude":-122.33517,"reserved":0,"last_update":"0001-01-01T00:00:00Z","name_a2s":"Uncletopia | Seattle | 1 | All Maps","protocol":17,"map":"cp_altitude","folder":"tf","game":"Team Fortress","app_id":440,"player_count":24,"max_players":24,"Bots":0,"server_type":"Dedicated","server_os":"Linux","password":true,"vac":true,"version":"7961495","steam_id":85568392924469997,"keywords":["cp","nocrits","nodmgspread","uncletopia"],"game_id":440,"stv_port":27016,"stv_name":"Uncletopia | Seattle | 1 | All Maps | STV","players":[{"user_id":482,"name":"The Shaq Attack","steam_id":76561198075285534,"connected_time":2731000000000,"state":"active","ping":35},{"user_id":421,"name":"shane","steam_id":76561198060491451,"connected_time":9362000000000,"state":"active","ping":88},{"user_id":499,"name":"Tungsten","steam_id":76561198312854342,"connected_time":781000000000,"state":"active","ping":51},{"user_id":401,"name":"master_minion","steam_id":76561198170693990,"connected_time":10585000000000,"state":"active","ping":82},{"user_id":474,"name":"oo","steam_id":76561198119626492,"connected_time":3110000000000,"state":"active","ping":107},{"user_id":495,"name":"Aardappel","steam_id":76561198030894676,"connected_time":1075000000000,"state":"active","ping":60},{"user_id":455,"name":"Retroliar","steam_id":76561199004899484,"connected_time":5763000000000,"state":"active","ping":74},{"user_id":494,"name":"Rollo","steam_id":76561198064812108,"connected_time":1235000000000,"state":"active","ping":59},{"user_id":418,"name":"Corbezy","steam_id":76561197993398349,"connected_time":9620000000000,"state":"active","ping":135},{"user_id":501,"name":"UNBREAKABLE","steam_id":76561197993405840,"connected_time":250000000000,"state":"active","ping":45},{"user_id":481,"name":"FiddyFoMike","steam_id":76561198057072581,"connected_time":2839000000000,"state":"active","ping":70},{"user_id":310,"name":"DaddyGalaxy","steam_id":76561198139697796,"connected_time":21705000000000,"state":"active","ping":76},{"user_id":485,"name":"르브론 제임스","steam_id":76561198212993755,"connected_time":2543000000000,"state":"active","ping":58},{"user_id":472,"name":"Nom Skirrett","steam_id":76561198014600788,"connected_time":3130000000000,"state":"active","ping":71},{"user_id":415,"name":"Luca","steam_id":76561198125087140,"connected_time":9744000000000,"state":"active","ping":54},{"user_id":497,"name":"Hassium","steam_id":76561198162541373,"connected_time":826000000000,"state":"active","ping":57},{"user_id":476,"name":"Seanvich","steam_id":76561198065805500,"connected_time":3066000000000,"state":"active","ping":129},{"user_id":503,"name":"Jordan","steam_id":76561198134123296,"connected_time":80000000000,"state":"active","ping":57},{"user_id":487,"name":"fwoov","steam_id":76561198129166260,"connected_time":2249000000000,"state":"active","ping":79},{"user_id":496,"name":"Deathkillsme","steam_id":76561198059468746,"connected_time":912000000000,"state":"active","ping":48},{"user_id":502,"name":"Arsonist Goose","steam_id":76561198147441830,"connected_time":231000000000,"state":"active","ping":77},{"user_id":440,"name":"Ayayayayayayayayayayayahuasca","steam_id":76561199002906056,"connected_time":7434000000000,"state":"active","ping":52},{"user_id":471,"name":"blinkerton city","steam_id":76561198054270410,"connected_time":3199000000000,"state":"active","ping":59},{"user_id":500,"name":"Gm_Sweet","steam_id":76561199445091548,"connected_time":760000000000,"state":"active","ping":59}]},{"server_id":119,"name":"Uncletopia | Seattle | 2 | All Maps","name_short":"sea-2","host":"sea-1.us.uncletopia.com","port":27025,"enabled":true,"region":"us-west","cc":"us","latitude":47.608013,"longitude":-122.33517,"reserved":0,"last_update":"0001-01-01T00:00:00Z","name_a2s":"Uncletopia | Seattle | 2 | All Maps","protocol":17,"map":"cp_snakewater_final1","folder":"tf","game":"Team Fortress","app_id":440,"player_count":24,"max_players":24,"Bots":0,"server_type":"Dedicated","server_os":"Linux","password":true,"vac":true,"version":"7961495","steam_id":85568392924469998,"keywords":["cp","nocrits","nodmgspread","uncletopia"],"game_id":440,"stv_port":27026,"stv_name":"Uncletopia | Seattle | 2 | All Maps | STV","players":[{"user_id":432,"name":"Surfing Garchomp","steam_id":76561199107236884,"connected_time":535000000000,"state":"active","ping":50},{"user_id":425,"name":"idiovic","steam_id":76561198414355727,"connected_time":714000000000,"state":"active","ping":105},{"user_id":422,"name":"AIW","steam_id":76561198019539028,"connected_time":828000000000,"state":"active","ping":160},{"user_id":291,"name":"TeriyakiDynamite","steam_id":76561198050049346,"connected_time":10253000000000,"state":"active","ping":85},{"user_id":430,"name":"thebestman982","steam_id":76561199001698710,"connected_time":604000000000,"state":"active","ping":76},{"user_id":392,"name":"ilun","steam_id":76561198042913843,"connected_time":3300000000000,"state":"active","ping":60},{"user_id":423,"name":"PageBoiSkull","steam_id":76561198237353578,"connected_time":805000000000,"state":"active","ping":73},{"user_id":439,"name":"dearender the burger fan","steam_id":76561199427644498,"connected_time":61000000000,"state":"active","ping":56},{"user_id":403,"name":"Alchemist","steam_id":76561198094238189,"connected_time":2862000000000,"state":"active","ping":89},{"user_id":424,"name":"Sock","steam_id":76561198315420000,"connected_time":755000000000,"state":"active","ping":119},{"user_id":375,"name":"Sábado Gigante","steam_id":76561197994685971,"connected_time":5053000000000,"state":"active","ping":81},{"user_id":353,"name":"a familiar cat","steam_id":76561198080046542,"connected_time":6542000000000,"state":"active","ping":46},{"user_id":433,"name":"Fast Paced Terrorism","steam_id":76561198216600608,"connected_time":528000000000,"state":"active","ping":71},{"user_id":415,"name":"hart","steam_id":76561198046073848,"connected_time":1516000000000,"state":"active","ping":46},{"user_id":362,"name":"top 10 sidewalks","steam_id":76561198844273999,"connected_time":6172000000000,"state":"active","ping":44},{"user_id":436,"name":"Goblin","steam_id":76561198338245497,"connected_time":390000000000,"state":"active","ping":103},{"user_id":406,"name":"BLU3","steam_id":76561198059652670,"connected_time":2342000000000,"state":"active","ping":46},{"user_id":410,"name":"ORANGE","steam_id":76561198000401769,"connected_time":2213000000000,"state":"active","ping":49},{"user_id":434,"name":"minerkid2004","steam_id":76561198044262827,"connected_time":492000000000,"state":"active","ping":66},{"user_id":438,"name":"The Salt God","steam_id":76561198124297328,"connected_time":339000000000,"state":"active","ping":87},{"user_id":435,"name":"The Population of Sweden","steam_id":76561198202201644,"connected_time":407000000000,"state":"active","ping":38},{"user_id":387,"name":"pjrock101","steam_id":76561198070616561,"connected_time":3929000000000,"state":"active","ping":47},{"user_id":408,"name":"Elijah123","steam_id":76561199037648021,"connected_time":2247000000000,"state":"active","ping":135},{"user_id":437,"name":"Dan","steam_id":76561198205054883,"connected_time":385000000000,"state":"active","ping":48}]},{"server_id":406,"name":"Uncletopia | Seattle | 3 | Stopwatch","name_short":"sea-3","host":"sea-1.us.uncletopia.com","port":27035,"enabled":true,"region":"us-west","cc":"us","latitude":47.608013,"longitude":-122.33517,"reserved":0,"last_update":"0001-01-01T00:00:00Z","name_a2s":"Uncletopia | Seattle | 3 | Stopwatch","protocol":17,"map":"koth_highpass","folder":"tf","game":"Team Fortress","app_id":440,"player_count":0,"max_players":24,"Bots":0,"server_type":"Dedicated","server_os":"Linux","password":true,"vac":true,"version":"7961495","steam_id":85568392924515217,"keywords":["cp","nocrits","nodmgspread","uncletopia"],"game_id":440,"stv_port":27036,"stv_name":"Uncletopia | Seattle | 3 | Stopwatch | STV","players":null},{"server_id":17,"name":"Uncletopia | San Francisco | 1 | All Maps","name_short":"sfo-1","host":"sfo-1.us.uncletopia.com","port":27015,"enabled":true,"region":"us-west","cc":"us","latitude":37.77397,"longitude":-122.4313,"reserved":0,"last_update":"0001-01-01T00:00:00Z","name_a2s":"Uncletopia | San Francisco | 1 | All Maps","protocol":17,"map":"pl_pier","folder":"tf","game":"Team Fortress","app_id":440,"player_count":24,"max_players":24,"Bots":0,"server_type":"Dedicated","server_os":"Linux","password":true,"vac":true,"version":"7961495","steam_id":85568392924469999,"keywords":["nocrits","nodmgspread","payload","uncletopia"],"game_id":440,"stv_port":27016,"stv_name":"Uncletopia | San Francisco | 1 | All Maps | STV","players":[{"user_id":87,"name":"Philanatidae","steam_id":76561198072652934,"connected_time":524000000000,"state":"active","ping":86},{"user_id":14,"name":"collector's pest","steam_id":76561198170402666,"connected_time":5415000000000,"state":"active","ping":88},{"user_id":15,"name":"MrDowngrade","steam_id":76561198881675033,"connected_time":5325000000000,"state":"active","ping":84},{"user_id":16,"name":"thuck","steam_id":76561198858474714,"connected_time":5253000000000,"state":"active","ping":69},{"user_id":59,"name":"Celeritas","steam_id":76561198133414847,"connected_time":2280000000000,"state":"active","ping":57},{"user_id":81,"name":"Alkimia","steam_id":76561198385763137,"connected_time":709000000000,"state":"active","ping":108},{"user_id":96,"name":"AAAAAAAAAAAAAAAAAAAAAAAAAAAAAAA","steam_id":76561198125467937,"connected_time":284000000000,"state":"active","ping":57},{"user_id":85,"name":"5kPrime","steam_id":76561198039471915,"connected_time":553000000000,"state":"active","ping":74},{"user_id":86,"name":"JACK BRUNO","steam_id":76561198027957690,"connected_time":547000000000,"state":"active","ping":61},{"user_id":97,"name":"engie","steam_id":76561199229629045,"connected_time":179000000000,"state":"active","ping":79},{"user_id":73,"name":"WhoIsFrosty","steam_id":76561198880588117,"connected_time":903000000000,"state":"active","ping":104},{"user_id":88,"name":"Bige Rone","steam_id":76561198066718191,"connected_time":524000000000,"state":"active","ping":69},{"user_id":91,"name":"KaosInfinite","steam_id":76561198009126350,"connected_time":491000000000,"state":"active","ping":58},{"user_id":28,"name":"The_Pacific_gamer","steam_id":76561198089491446,"connected_time":4191000000000,"state":"active","ping":73},{"user_id":99,"name":"Seshreb","steam_id":76561198846614634,"connected_time":85000000000,"state":"active","ping":68},{"user_id":75,"name":"big play","steam_id":76561198011675372,"connected_time":899000000000,"state":"active","ping":76},{"user_id":76,"name":"the keebler","steam_id":76561199486326945,"connected_time":892000000000,"state":"active","ping":112},{"user_id":90,"name":"KangarooCorpse","steam_id":76561198269447823,"connected_time":518000000000,"state":"active","ping":52},{"user_id":84,"name":"GH578","steam_id":76561199493262585,"connected_time":563000000000,"state":"active","ping":49},{"user_id":98,"name":"RUSTY SHACKLEFORD [CIA]","steam_id":76561198452867642,"connected_time":171000000000,"state":"active","ping":71},{"user_id":93,"name":"C∅RVUS","steam_id":76561198100640019,"connected_time":467000000000,"state":"active","ping":78},{"user_id":45,"name":"Mike Bean Burritos","steam_id":76561198173430607,"connected_time":3877000000000,"state":"active","ping":71},{"user_id":94,"name":"Neato","steam_id":76561198138219428,"connected_time":431000000000,"state":"active","ping":121},{"user_id":70,"name":"DrD","steam_id":76561198067266383,"connected_time":1046000000000,"state":"active","ping":59}]},{"server_id":18,"name":"Uncletopia | San Francisco | 2 | All Maps","name_short":"sfo-2","host":"sfo-1.us.uncletopia.com","port":27025,"enabled":true,"region":"us-west","cc":"us","latitude":37.77397,"longitude":-122.4313,"reserved":0,"last_update":"0001-01-01T00:00:00Z","name_a2s":"Uncletopia | San Francisco | 2 | All Maps","protocol":17,"map":"pl_badwater","folder":"tf","game":"Team Fortress","app_id":440,"player_count":0,"max_players":24,"Bots":0,"server_type":"Dedicated","server_os":"Linux","password":true,"vac":true,"version":"7961495","steam_id":85568392924470000,"keywords":["nocrits","nodmgspread","payload","uncletopia"],"game_id":440,"stv_port":27026,"stv_name":"Uncletopia | San Francisco | 2 | All Maps | STV","players":null},{"server_id":19,"name":"Uncletopia | San Francisco | 3 | Stopwatch","name_short":"sfo-3","host":"sfo-1.us.uncletopia.com","port":27035,"enabled":true,"region":"us-west","cc":"us","latitude":37.77397,"longitude":-122.4313,"reserved":0,"last_update":"0001-01-01T00:00:00Z","name_a2s":"Uncletopia | San Francisco | 3 | Stopwatch","protocol":17,"map":"cp_snakewater_final1","folder":"tf","game":"Team Fortress","app_id":440,"player_count":0,"max_players":24,"Bots":0,"server_type":"Dedicated","server_os":"Linux","password":true,"vac":true,"version":"7961495","steam_id":85568392924742824,"keywords":["cp","nocrits","nodmgspread","uncletopia"],"game_id":440,"stv_port":27036,"stv_name":"Uncletopia | San Francisco | 3 | Stopwatch | STV","players":null},{"server_id":20,"name":"Uncletopia | San Francisco | 4 | Community","name_short":"sfo-4","host":"sfo-1.us.uncletopia.com","port":27045,"enabled":true,"region":"us-west","cc":"us","latitude":37.77397,"longitude":-122.4313,"reserved":0,"last_update":"0001-01-01T00:00:00Z","name_a2s":"Uncletopia | San Francisco | 4 | Community","protocol":17,"map":"pl_pier","folder":"tf","game":"Team Fortress","app_id":440,"player_count":0,"max_players":24,"Bots":0,"server_type":"Dedicated","server_os":"Linux","password":true,"vac":true,"version":"7961495","steam_id":85568392924742826,"keywords":["nocrits","nodmgspread","payload","uncletopia"],"game_id":440,"stv_port":27046,"stv_name":"Uncletopia | San Francisco | 4 | Community | STV","players":null},{"server_id":141,"name":"Uncletopia | Sydney | 1 | All Maps","name_short":"syd-1","host":"syd-1.au.uncletopia.com","port":27015,"enabled":true,"region":"au","cc":"au","latitude":-33.865143,"longitude":151.2099,"reserved":0,"last_update":"0001-01-01T00:00:00Z","name_a2s":"Uncletopia | Sydney | 1 | All Maps","protocol":17,"map":"koth_viaduct","folder":"tf","game":"Team Fortress","app_id":440,"player_count":0,"max_players":24,"Bots":0,"server_type":"Dedicated","server_os":"Linux","password":true,"vac":true,"version":"7961495","steam_id":85568392924470001,"keywords":["cp","nocrits","nodmgspread","uncletopia"],"game_id":440,"stv_port":27016,"stv_name":"Uncletopia | Sydney | 1 | All Maps | STV","players":null},{"server_id":123,"name":"Uncletopia | Sydney | 2 | All Maps","name_short":"syd-2","host":"syd-1.au.uncletopia.com","port":27025,"enabled":true,"region":"au","cc":"au","latitude":-33.865143,"longitude":151.2099,"reserved":0,"last_update":"0001-01-01T00:00:00Z","name_a2s":"Uncletopia | Sydney | 2 | All Maps","protocol":17,"map":"koth_lakeside_final","folder":"tf","game":"Team Fortress","app_id":440,"player_count":0,"max_players":24,"Bots":0,"server_type":"Dedicated","server_os":"Linux","password":true,"vac":true,"version":"7961495","steam_id":85568392924470002,"keywords":["cp","nocrits","nodmgspread","uncletopia"],"game_id":440,"stv_port":27026,"stv_name":"Uncletopia | Sydney | 2 | All Maps | STV","players":null},{"server_id":395,"name":"Uncletopia | Sydney | 3 | All Maps","name_short":"syd-3","host":"syd-1.au.uncletopia.com","port":27035,"enabled":true,"region":"au","cc":"au","latitude":-33.865143,"longitude":151.2099,"reserved":0,"last_update":"0001-01-01T00:00:00Z","name_a2s":"Uncletopia | Sydney | 3 | All Maps","protocol":17,"map":"pl_frontier_final","folder":"tf","game":"Team Fortress","app_id":440,"player_count":0,"max_players":24,"Bots":0,"server_type":"Dedicated","server_os":"Linux","password":true,"vac":true,"version":"7961495","steam_id":85568392925194467,"keywords":["nocrits","nodmgspread","payload","uncletopia"],"game_id":440,"stv_port":27036,"stv_name":"Uncletopia | Sydney | 3 | All Maps | STV","players":null},{"server_id":396,"name":"Uncletopia | Sydney | 4 | All Maps","name_short":"syd-4","host":"syd-1.au.uncletopia.com","port":27045,"enabled":true,"region":"au","cc":"au","latitude":-33.865143,"longitude":151.2099,"reserved":0,"last_update":"0001-01-01T00:00:00Z","name_a2s":"Uncletopia | Sydney | 4 | All Maps","protocol":17,"map":"koth_lakeside_final","folder":"tf","game":"Team Fortress","app_id":440,"player_count":0,"max_players":24,"Bots":0,"server_type":"Dedicated","server_os":"Linux","password":true,"vac":true,"version":"7961495","steam_id":85568392925397958,"keywords":["cp","nocrits","nodmgspread","uncletopia"],"game_id":440,"stv_port":27046,"stv_name":"Uncletopia | Sydney | 4 | All Maps | STV","players":null},{"server_id":58,"name":"Uncletopia | Sydney | 5 | Stopwatch","name_short":"syd-5","host":"syd-1.au.uncletopia.com","port":27055,"enabled":true,"region":"au","cc":"au","latitude":-33.865143,"longitude":151.2099,"reserved":0,"last_update":"0001-01-01T00:00:00Z","name_a2s":"Uncletopia | Sydney | 5 | Stopwatch","protocol":17,"map":"pl_frontier_final","folder":"tf","game":"Team Fortress","app_id":440,"player_count":0,"max_players":24,"Bots":0,"server_type":"Dedicated","server_os":"Linux","password":true,"vac":true,"version":"7961495","steam_id":85568392925397959,"keywords":["nocrits","nodmgspread","payload","uncletopia"],"game_id":440,"stv_port":27056,"stv_name":"Uncletopia | Sydney | 5 | Stopwatch | STV","players":null},{"server_id":59,"name":"Uncletopia | Sydney | 6 | Community","name_short":"syd-6","host":"syd-1.au.uncletopia.com","port":27065,"enabled":true,"region":"au","cc":"au","latitude":-33.865143,"longitude":151.2099,"reserved":0,"last_update":"0001-01-01T00:00:00Z","name_a2s":"Uncletopia | Sydney | 6 | Community","protocol":17,"map":"cp_sunshine","folder":"tf","game":"Team Fortress","app_id":440,"player_count":0,"max_players":24,"Bots":0,"server_type":"Dedicated","server_os":"Linux","password":true,"vac":true,"version":"7961495","steam_id":85568392925397960,"keywords":["cp","nocrits","nodmgspread","uncletopia"],"game_id":440,"stv_port":27066,"stv_name":"Uncletopia | Sydney | 6 | Community | STV","players":null},{"server_id":49,"name":"Uncletopia | Warsaw | 1 | One Thousand Uncles","name_short":"waw-1","host":"waw-1.pl.uncletopia.com","port":27015,"enabled":true,"region":"eu","cc":"pl","latitude":52.2297,"longitude":21.017532,"reserved":0,"last_update":"0001-01-01T00:00:00Z","name_a2s":"Uncletopia | Warsaw | 1 | One Thousand Uncles","protocol":17,"map":"pl_hoodoo_final","folder":"tf","game":"Team Fortress","app_id":440,"player_count":0,"max_players":32,"Bots":0,"server_type":"Dedicated","server_os":"Linux","password":true,"vac":true,"version":"7961495","steam_id":85568392925397850,"keywords":["alltalk","danepve","increased_maxplayers","nocrits","norespawntime","payload","uncletopia"],"game_id":440,"stv_port":0,"stv_name":"","players":null},{"server_id":50,"name":"Uncletopia | Warsaw | 2 | One Thousand Uncles","name_short":"waw-2","host":"waw-1.pl.uncletopia.com","port":27025,"enabled":true,"region":"eu","cc":"pl","latitude":52.2297,"longitude":21.017532,"reserved":0,"last_update":"0001-01-01T00:00:00Z","name_a2s":"Uncletopia | Warsaw | 2 | One Thousand Uncles","protocol":17,"map":"cp_dustbowl","folder":"tf","game":"Team Fortress","app_id":440,"player_count":0,"max_players":32,"Bots":0,"server_type":"Dedicated","server_os":"Linux","password":true,"vac":true,"version":"7961495","steam_id":85568392925397851,"keywords":["alltalk","cp","danepve","increased_maxplayers","nocrits","norespawntime","uncletopia"],"game_id":440,"stv_port":0,"stv_name":"","players":null},{"server_id":51,"name":"Uncletopia | Warsaw | 3 | All Maps","name_short":"waw-3","host":"waw-1.pl.uncletopia.com","port":27035,"enabled":true,"region":"eu","cc":"pl","latitude":52.2297,"longitude":21.017532,"reserved":0,"last_update":"0001-01-01T00:00:00Z","name_a2s":"Uncletopia | Warsaw | 3 | All Maps","protocol":17,"map":"koth_highpass","folder":"tf","game":"Team Fortress","app_id":440,"player_count":0,"max_players":24,"Bots":0,"server_type":"Dedicated","server_os":"Linux","password":true,"vac":true,"version":"7961495","steam_id":85568392925397852,"keywords":["cp","nocrits","nodmgspread","uncletopia"],"game_id":440,"stv_port":27036,"stv_name":"Uncletopia | Warsaw | 3 | All Maps | STV","players":null},{"server_id":52,"name":"Uncletopia | Warsaw | 4 | All Maps","name_short":"waw-4","host":"waw-1.pl.uncletopia.com","port":27045,"enabled":true,"region":"eu","cc":"pl","latitude":52.2297,"longitude":21.017532,"reserved":0,"last_update":"0001-01-01T00:00:00Z","name_a2s":"Uncletopia | Warsaw | 4 | All Maps","protocol":17,"map":"koth_highpass","folder":"tf","game":"Team Fortress","app_id":440,"player_count":0,"max_players":24,"Bots":0,"server_type":"Dedicated","server_os":"Linux","password":true,"vac":true,"version":"7961495","steam_id":85568392925397853,"keywords":["cp","nocrits","nodmgspread","uncletopia"],"game_id":440,"stv_port":27046,"stv_name":"Uncletopia | Warsaw | 4 | All Maps | STV","players":null},{"server_id":53,"name":"Uncletopia | Warsaw | 5 | Stopwatch","name_short":"waw-5","host":"waw-1.pl.uncletopia.com","port":27055,"enabled":true,"region":"eu","cc":"pl","latitude":52.2297,"longitude":21.017532,"reserved":0,"last_update":"0001-01-01T00:00:00Z","name_a2s":"Uncletopia | Warsaw | 5 | Stopwatch","protocol":17,"map":"pl_upward","folder":"tf","game":"Team Fortress","app_id":440,"player_count":0,"max_players":24,"Bots":0,"server_type":"Dedicated","server_os":"Linux","password":true,"vac":true,"version":"7961495","steam_id":85568392925397854,"keywords":["nocrits","nodmgspread","payload","uncletopia"],"game_id":440,"stv_port":27056,"stv_name":"Uncletopia | Warsaw | 5 | Stopwatch | STV","players":null},{"server_id":54,"name":"Uncletopia | Warsaw | 6 | Community","name_short":"waw-6","host":"waw-1.pl.uncletopia.com","port":27065,"enabled":true,"region":"eu","cc":"pl","latitude":52.2297,"longitude":21.017532,"reserved":0,"last_update":"0001-01-01T00:00:00Z","name_a2s":"Uncletopia | Warsaw | 6 | Community","protocol":17,"map":"workshop/cp_hazyfort_rc6.ugc1365963729","folder":"tf","game":"Team Fortress","app_id":440,"player_count":0,"max_players":24,"Bots":0,"server_type":"Dedicated","server_os":"Linux","password":true,"vac":true,"version":"7961495","steam_id":85568392925397856,"keywords":["cp","nocrits","nodmgspread","uncletopia"],"game_id":440,"stv_port":27066,"stv_name":"Uncletopia | Warsaw | 6 | Community | STV","players":null}]}