{"status":true,"message":"","result":[{"server_id":9,"name":"Uncletopia | Atlanta | 1 | All Maps","name_short":"atl-1","host":"atl-1.us.uncletopia.com","port":27015,"enabled":true,"region":"us-east","cc":"us","latitude":33.753746,"longitude":-84.38633,"reserved":0,"last_update":"0001-01-01T00:00:00Z","name_a2s":"Uncletopia | Atlanta | 1 | All Maps","protocol":17,"map":"cp_gorge","folder":"tf","game":"Team Fortress","app_id":440,"player_count":22,"max_players":24,"Bots":0,"server_type":"Dedicated","server_os":"Linux","password":true,"vac":true,"version":"7961495","steam_id":85568392924469982,"keywords":["cp","nocrits","nodmgspread","uncletopia"],"game_id":440,"stv_port":27016,"stv_name":"Uncletopia | Atlanta | 1 | All Maps | STV","players":[{"user_id":450,"name":"Taskrabbits","steam_id":76561198366682546,"connected_time":127000000000,"state":"active","ping":104},{"user_id":451,"name":"harold of rock salt kingdom","steam_id":76561199016285746,"connected_time":39000000000,"state":"active","ping":75},{"user_id":452,"name":"GuyGoom","steam_id":76561198254522178,"connected_time":31000000000,"state":"active","ping":77},{"user_id":453,"name":"Timmy The Tyrant","steam_id":76561199156409732,"connected_time":26000000000,"state":"active","ping":52},{"user_id":454,"name":"Fredrick","steam_id":76561197981419964,"connected_time":23000000000,"state":"active","ping":65},{"user_id":455,"name":"the.land.of.avalon","steam_id":76561198245431668,"connected_time":10000000000,"state":"spawning","ping":75},{"user_id":425,"name":"Kiss Master","steam_id":76561198289572271,"connected_time":1776000000000,"state":"active","ping":57},{"user_id":438,"name":"Shooter of Walls","steam_id":76561197988105207,"connected_time":1169000000000,"state":"active","ping":60},{"user_id":449,"name":"Applesauce (she/her)","steam_id":76561198049642811,"connected_time":199000000000,"state":"active","ping":46},{"user_id":446,"name":"doop","steam_id":76561198370487545,"connected_time":312000000000,"state":"active","ping":61},{"user_id":427,"name":"SnazzyCelestial","steam_id":76561198328763813,"connected_time":1634000000000,"state":"active","ping":63},{"user_id":439,"name":"Ok-Par","steam_id":76561199221067945,"connected_time":1128000000000,"state":"active","ping":71},{"user_id":416,"name":"yomo","steam_id":76561198063175935,"connected_time":2103000000000,"state":"active","ping":60},{"user_id":444,"name":"Captain Chicken","steam_id":76561198047767530,"connected_time":586000000000,"state":"active","ping":93},{"user_id":443,"name":"catface","steam_id":76561198096347625,"connected_time":605000000000,"state":"active","ping":60},{"user_id":456,"name":"Nightman","steam_id":76561198089513762,"connected_time":3000000000,"state":"spawning","ping":78},{"user_id":432,"name":"Speed Spell IV","steam_id":76561198298364415,"connected_time":1517000000000,"state":"active","ping":96},{"user_id":457,"name":"Buttons :)","steam_id":76561198139478534,"connected_time":3000000000,"state":"spawning","ping":98},{"user_id":395,"name":"big steve","steam_id":76561199037050183,"connected_time":2578000000000,"state":"active","ping":81},{"user_id":201,"name":"BLOW UP NEW JERSEY","steam_id":76561198364439575,"connected_time":9177000000000,"state":"active","ping":67},{"user_id":442,"name":"Dreszerg","steam_id":76561198838757422,"connected_time":611000000000,"state":"active","ping":70},{"user_id":282,"name":"loser","steam_id":76561198259380127,"connected_time":4926000000000,"state":"active","ping":67}]},{"server_id":104,"name":"Uncletopia | Atlanta | 2 | All Maps","name_short":"atl-2","host":"atl-1.us.uncletopia.com","port":27025,"enabled":true,"region":"us-east","cc":"us","latitude":33.753746,"longitude":-84.38633,"reserved":0,"last_update":"0001-01-01T00:00:00Z","name_a2s":"Uncletopia | Atlanta | 2 | All Maps","protocol":17,"map":"cp_process_final","folder":"tf","game":"Team Fortress","app_id":440,"player_count":23,"max_players":24,"Bots":0,"server_type":"Dedicated","server_os":"Linux","password":true,"vac":true,"version":"7961495","steam_id":85568392924469983,"keywords":["cp","nocrits","nodmgspread","uncletopia"],"game_id":440,"stv_port":27026,"stv_name":"Uncletopia | Atlanta | 2 | All Maps | STV","players":[{"user_id":10,"name":"The Dead Weight","steam_id":76561198056694098,"connected_time":15446000000000,"state":"active","ping":49},{"user_id":169,"name":"Gungus Dingaling","steam_id":76561198018270898,"connected_time":1954000000000,"state":"active","ping":71},{"user_id":128,"name":"Naffty","steam_id":76561198119734981,"connected_time":5246000000000,"state":"active","ping":73},{"user_id":181,"name":"some ants shaped like a moron","steam_id":76561199100849880,"connected_time":1329000000000,"state":"active","ping":99},{"user_id":172,"name":"Donnie","steam_id":76561198837857545,"connected_time":1800000000000,"state":"active","ping":150},{"user_id":101,"name":"James","steam_id":76561198081313916,"connected_time":7731000000000,"state":"active","ping":56},{"user_id":196,"name":"Monkey Mode","steam_id":76561197961267543,"connected_time":291000000000,"state":"active","ping":51},{"user_id":131,"name":"RedBaron","steam_id":76561198972426107,"connected_time":4882000000000,"state":"active","ping":63},{"user_id":202,"name":"Takumi Fujiwara","steam_id":76561198146281101,"connected_time":52000000000,"state":"active","ping":75},{"user_id":170,"name":"Dakota","steam_id":76561198134092308,"connected_time":1917000000000,"state":"active","ping":84},{"user_id":187,"name":"general.b","steam_id":76561198162480519,"connected_time":1007000000000,"state":"active","ping":75},{"user_id":141,"name":"metalfan666","steam_id":76561198386344068,"connected_time":4283000000000,"state":"active","ping":75},{"user_id":191,"name":"Neat","steam_id":76561198046049949,"connected_time":461000000000,"state":"active","ping":104},{"user_id":195,"name":"biggerbob1212","steam_id":76561198090078480,"connected_time":314000000000,"state":"active","ping":80},{"user_id":197,"name":"AAAAAAAAAAAAAAAAAAAAAAAAAAAAAAA","steam_id":76561198267873026,"connected_time":182000000000,"state":"active","ping":75},{"user_id":174,"name":"Kafka Stan","steam_id":76561198127039453,"connected_time":1688000000000,"state":"active","ping":102},{"user_id":182,"name":"confield","steam_id":76561198004322265,"connected_time":1311000000000,"state":"active","ping":58},{"user_id":184,"name":"Stevelonk","steam_id":76561198088224665,"connected_time":1282000000000,"state":"active","ping":60},{"user_id":190,"name":"Lizzo's WAP","steam_id":76561199115360374,"connected_time":497000000000,"state":"active","ping":75},{"user_id":200,"name":"rthrtsdfgrtdxcv","steam_id":76561198143132686,"connected_time":89000000000,"state":"active","ping":104},{"user_id":160,"name":"the pizza","steam_id":76561198221331476,"connected_time":2702000000000,"state":"active","ping":96},{"user_id":186,"name":"Rockgraham101","steam_id":76561198171740458,"connected_time":1244000000000,"state":"active","ping":52},{"user_id":201,"name":"MadDog519","steam_id":76561198300793796,"connected_time":89000000000,"state":"active","ping":70}]},{"server_id":400,"name":"Uncletopia | Atlanta | 3 | Stopwatch","name_short":"atl-3","host":"atl-1.us.uncletopia.com","port":27035,"enabled":true,"region":"us-east","cc":"us","latitude":33.753746,"longitude":-84.38633,"reserved":0,"last_update":"0001-01-01T00:00:00Z","name_a2s":"Uncletopia | Atlanta | 3 | Stopwatch","protocol":17,"map":"workshop/koth_product_final.ugc454272353","folder":"tf","game":"Team Fortress","app_id":440,"player_count":0,"max_players":24,"Bots":0,"server_type":"Dedicated","server_os":"Linux","password":true,"vac":true,"version":"7961495","steam_id":85568392924515187,"keywords":["cp","nocrits","nodmgspread","uncletopia"],"game_id":440,"stv_port":27036,"stv_name":"Uncletopia | Atlanta | 3 | Stopwatch | STV","players":null},{"server_id":401,"name":"Uncletopia | Atlanta | 4 | Community","name_short":"atl-4","host":"atl-1.us.uncletopia.com","port":27045,"enabled":true,"region":"us-east","cc":"us","latitude":33.753746,"longitude":-84.38633,"reserved":0,"last_update":"0001-01-01T00:00:00Z","name_a2s":"Uncletopia | Atlanta | 4 | Community","protocol":17,"map":"workshop/pl_emerge_rc2.ugc888027758","folder":"tf","game":"Team Fortress","app_id":440,"player_count":0,"max_players":24,"Bots":0,"server_type":"Dedicated","server_os":"Linux","password":true,"vac":true,"version":"7961495","steam_id":85568392924515188,"keywords":["nocrits","nodmgspread","payload","uncletopia"],"game_id":440,"stv_port":27046,"stv_name":"Uncletopia | Atlanta | 4 | Community | STV","players":null},{"server_id":2,"name":"Uncletopia | Chicago | 1 | All Maps","name_short":"chi-1","host":"chi-1.us.uncletopia.com","port":27015,"enabled":true,"region":"us-central","cc":"us","latitude":41.881832,"longitude":-87.62318,"reserved":0,"last_update":"0001-01-01T00:00:00Z","name_a2s":"Uncletopia | Chicago | 1 | All Maps","protocol":17,"map":"pl_barnblitz","folder":"tf","game":"Team Fortress","app_id":440,"player_count":24,"max_players":24,"Bots":0,"server_type":"Dedicated","server_os":"Linux","password":true,"vac":true,"version":"7961495","steam_id":85568392924469984,"keywords":["nocrits","nodmgspread","payload","uncletopia"],"game_id":440,"stv_port":27016,"stv_name":"Uncletopia | Chicago | 1 | All Maps | STV","players":[{"user_id":346,"name":"what the freak","steam_id":76561198080754727,"connected_time":174000000000,"state":"active","ping":86},{"user_id":326,"name":"Beebo, Son of Beebo","steam_id":76561198055948497,"connected_time":1118000000000,"state":"active","ping":50},{"user_id":331,"name":"Yam Jazzy Jim","steam_id":76561198000788950,"connected_time":781000000000,"state":"active","ping":68},{"user_id":347,"name":"büddeh","steam_id":76561198070735936,"connected_time":137000000000,"state":"active","ping":59},{"user_id":348,"name":"benedro05","steam_id":76561198269369429,"connected_time":133000000000,"state":"active","ping":60},{"user_id":303,"name":"og biden pack cart","steam_id":76561198253731826,"connected_time":2128000000000,"state":"active","ping":60},{"user_id":320,"name":"LavenderSys","steam_id":76561198289106015,"connected_time":1580000000000,"state":"active","ping":85},{"user_id":315,"name":"HumFreY","steam_id":76561198076639682,"connected_time":1697000000000,"state":"active","ping":72},{"user_id":339,"name":"noho hank","steam_id":76561198046650995,"connected_time":279000000000,"state":"active","ping":84},{"user_id":332,"name":"Arjen PSN 23","steam_id":76561198963682232,"connected_time":761000000000,"state":"active","ping":62},{"user_id":336,"name":"John Fortress","steam_id":76561198999712284,"connected_time":564000000000,"state":"active","ping":74},{"user_id":342,"name":"SweetPeaches69","steam_id":76561198908187710,"connected_time":262000000000,"state":"active","ping":83},{"user_id":253,"name":"Joyous Jenny","steam_id":76561198127998866,"connected_time":6539000000000,"state":"active","ping":72},{"user_id":290,"name":"qory","steam_id":76561198152064890,"connected_time":3365000000000,"state":"active","ping":56},{"user_id":343,"name":"grape juice -rng","steam_id":76561198093829623,"connected_time":243000000000,"state":"active","ping":78},{"user_id":340,"name":"grey","steam_id":76561198050618142,"connected_time":268000000000,"state":"active","ping":91},{"user_id":305,"name":"ุ","steam_id":76561198170624701,"connected_time":2108000000000,"state":"active","ping":78},{"user_id":344,"name":"WM1 PYRO","steam_id":76561198045893896,"connected_time":242000000000,"state":"active","ping":85},{"user_id":338,"name":"Stacks63bs","steam_id":76561198067797130,"connected_time":435000000000,"state":"active","ping":70},{"user_id":345,"name":"a Hippobottomus","steam_id":76561198126853441,"connected_time":239000000000,"state":"active","ping":62},{"user_id":302,"name":"beesechurger™","steam_id":76561198867219032,"connected_time":2417000000000,"state":"active","ping":60},{"user_id":327,"name":"villain","steam_id":76561198306677358,"connected_time":1054000000000,"state":"active","ping":90},{"user_id":335,"name":"goober","steam_id":76561198130840345,"connected_time":718000000000,"state":"active","ping":125},{"user_id":329,"name":"Greaseball","steam_id":76561198240220178,"connected_time":924000000000,"state":"active","ping":67}]},{"server_id":106,"name":"Uncletopia | Chicago | 2 | All Maps","name_short":"chi-2","host":"chi-1.us.uncletopia.com","port":27025,"enabled":true,"region":"us-central","cc":"us","latitude":41.881832,"longitude":-87.62318,"reserved":0,"last_update":"0001-01-01T00:00:00Z","name_a2s":"Uncletopia | Chicago | 2 | All Maps","protocol":17,"map":"pl_badwater","folder":"tf","game":"Team Fortress","app_id":440,"player_count":0,"max_players":24,"Bots":0,"server_type":"Dedicated","server_os":"Linux","password":true,"vac":true,"version":"7961495","steam_id":85568392924469985,"keywords":["nocrits","nodmgspread","payload","uncletopia"],"game_id":440,"stv_port":27026,"stv_name":"Uncletopia | Chicago | 2 | All Maps | STV","players":null},{"server_id":402,"name":"Uncletopia | Chicago | 3 | All Maps","name_short":"chi-3","host":"chi-1.us.uncletopia.com","port":27035,"enabled":true,"region":"us-central","cc":"us","latitude":41.881832,"longitude":-87.62318,"reserved":0,"last_update":"0001-01-01T00:00:00Z","name_a2s":"Uncletopia | Chicago | 3 | All Maps","protocol":17,"map":"pl_badwater","folder":"tf","game":"Team Fortress","app_id":440,"player_count":24,"max_players":24,"Bots":0,"server_type":"Dedicated","server_os":"Linux","password":true,"vac":true,"version":"7961495","steam_id":85568392924515191,"keywords":["nocrits","nodmgspread","payload","uncletopia"],"game_id":440,"stv_port":27036,"stv_name":"Uncletopia | Chicago | 3 | All Maps | STV","players":[{"user_id":179,"name":"roast pig with apple in mouth","steam_id":76561198051353647,"connected_time":950000000000,"state":"active","ping":66},{"user_id":154,"name":"beta central","steam_id":76561198301876831,"connected_time":2106000000000,"state":"active","ping":62},{"user_id":171,"name":"tooth","steam_id":76561197986437643,"connected_time":1311000000000,"state":"active","ping":62},{"user_id":191,"name":"Piss Man","steam_id":76561199446367874,"connected_time":376000000000,"state":"active","ping":49},{"user_id":116,"name":"Hashmere","steam_id":76561198002797253,"connected_time":4348000000000,"state":"active","ping":79},{"user_id":109,"name":"the_J_d0c","steam_id":76561198977851944,"connected_time":4422000000000,"state":"active","ping":63},{"user_id":176,"name":"two sentient corn cobs kissing","steam_id":76561198238842076,"connected_time":1121000000000,"state":"active","ping":73},{"user_id":186,"name":"Epha","steam_id":76561198079379951,"connected_time":632000000000,"state":"active","ping":64},{"user_id":182,"name":"Dece1ve_","steam_id":76561198179566378,"connected_time":815000000000,"state":"active","ping":70},{"user_id":193,"name":"Hobo Shanker","steam_id":76561198001785187,"connected_time":209000000000,"state":"active","ping":83},{"user_id":104,"name":"Lord Cutler Beckett","steam_id":76561198091356047,"connected_time":5009000000000,"state":"active","ping":50},{"user_id":142,"name":"hyazzz","steam_id":76561199100342013,"connected_time":2640000000000,"state":"active","ping":91},{"user_id":101,"name":"[NAME-REDACTED]","steam_id":76561198035682975,"connected_time":5148000000000,"state":"active","ping":73},{"user_id":159,"name":"Blaze","steam_id":76561198043797702,"connected_time":1603000000000,"state":"active","ping":72},{"user_id":181,"name":"Johnny Lawrence #JohnnyMaxxing","steam_id":76561199367141671,"connected_time":915000000000,"state":"active","ping":60},{"user_id":189,"name":"The Don","steam_id":76561198322125657,"connected_time":564000000000,"state":"active","ping":113},{"user_id":163,"name":"-cc- cannanza * \u003c3 teafy","steam_id":76561198103496593,"connected_time":1509000000000,"state":"active","ping":63},{"user_id":190,"name":"pipikopf","steam_id":76561198064196489,"connected_time":534000000000,"state":"active","ping":86},{"user_id":172,"name":"MMAD","steam_id":76561198026446420,"connected_time":1278000000000,"state":"active","ping":80},{"user_id":138,"name":"la goblina","steam_id":76561198094225038,"connected_time":2793000000000,"state":"active","ping":74},{"user_id":188,"name":"lordstinkdemon666","steam_id":76561198073914311,"connected_time":600000000000,"state":"active","ping":97},{"user_id":192,"name":"mio","steam_id":76561198239286750,"connected_time":284000000000,"state":"active","ping":78},{"user_id":152,"name":"TheGrassMan (He/Him)","steam_id":76561198118984048,"connected_time":2207000000000,"state":"active","ping":66},{"user_id":147,"name":"Torensz64(But weezer)","steam_id":76561198239036482,"connected_time":2532000000000,"state":"active","ping":56}]},{"server_id":403,"name":"Uncletopia | Chicago | 4 | All Maps","name_short":"chi-4","host":"chi-1.us.uncletopia.com","port":27045,"enabled":true,"region":"us-central","cc":"us","latitude":41.881832,"longitude":-87.62318,"reserved":0,"last_update":"0001-01-01T00:00:00Z","name_a2s":"Uncletopia | Chicago | 4 | All Maps","protocol":17,"map":"cp_sunshine","folder":"tf","game":"Team Fortress","app_id":440,"player_count":24,"max_players":24,"Bots":0,"server_type":"Dedicated","server_os":"Linux","password":true,"vac":true,"version":"7961495","steam_id":85568392924515193,"keywords":["cp","nocrits","nodmgspread","uncletopia"],"game_id":440,"stv_port":27046,"stv_name":"Uncletopia | Chicago | 4 | All Maps | STV","players":[{"user_id":295,"name":"Cogenheimer","steam_id":76561198146321550,"connected_time":471000000000,"state":"active","ping":84},{"user_id":243,"name":"Sunshine","steam_id":76561198885528098,"connected_time":4267000000000,"state":"active","ping":69},{"user_id":296,"name":"Julio Quantez","steam_id":76561198216600608,"connected_time":451000000000,"state":"active","ping":69},{"user_id":297,"name":"Crombun","steam_id":76561198031559642,"connected_time":437000000000,"state":"active","ping":76},{"user_id":311,"name":"★Deebo★","steam_id":76561198060081522,"connected_time":15000000000,"state":"spawning","ping":80},{"user_id":298,"name":"IsleBound","steam_id":76561198278451717,"connected_time":423000000000,"state":"active","ping":58},{"user_id":299,"name":"Walka","steam_id":76561198074325951,"connected_time":371000000000,"state":"active","ping":79},{"user_id":289,"name":"creamgravy573","steam_id":76561198093308746,"connected_time":842000000000,"state":"active","ping":73},{"user_id":310,"name":"Valentime!","steam_id":76561198093806229,"connected_time":51000000000,"state":"active","ping":48},{"user_id":286,"name":"SIN K4RMA","steam_id":76561198869287223,"connected_time":1003000000000,"state":"active","ping":83},{"user_id":249,"name":"Bond","steam_id":76561198089262776,"connected_time":4003000000000,"state":"active","ping":71},{"user_id":305,"name":"chok","steam_id":76561198242016100,"connected_time":257000000000,"state":"active","ping":80},{"user_id":280,"name":"EpochSpruce","steam_id":76561198067653839,"connected_time":1200000000000,"state":"active","ping":95},{"user_id":309,"name":"Red-Raven","steam_id":76561197971130794,"connected_time":80000000000,"state":"active","ping":99},{"user_id":237,"name":"Jamal27 -iwnl-","steam_id":76561198068654532,"connected_time":4606000000000,"state":"active","ping":72},{"user_id":263,"name":"Big Black Dawg","steam_id":76561198050136796,"connected_time":3316000000000,"state":"active","ping":85},{"user_id":301,"name":"jello","steam_id":76561199274158922,"connected_time":291000000000,"state":"active","ping":105},{"user_id":302,"name":"Boxcars","steam_id":76561198120978767,"connected_time":290000000000,"state":"active","ping":96},{"user_id":303,"name":"Desi_Dude","steam_id":76561199227458673,"connected_time":284000000000,"state":"active","ping":73},{"user_id":270,"name":"bdkaine1","steam_id":76561198133545467,"connected_time":2416000000000,"state":"active","ping":62},{"user_id":304,"name":"i should go","steam_id":76561198194614289,"connected_time":266000000000,"state":"active","ping":66},{"user_id":306,"name":"Jimmy Pubetron","steam_id":76561198077634776,"connected_time":257000000000,"state":"active","ping":187},{"user_id":307,"name":"SQ | Work-Mann","steam_id":76561198136662801,"connected_time":230000000000,"state":"active","ping":65},{"user_id":308,"name":"Amtyk","steam_id":76561197979130554,"connected_time":207000000000,"state":"active","ping":61}]},{"server_id":36,"name":"Uncletopia | Chicago | 5 | All Maps","name_short":"chi-5","host":"chi-2.us.uncletopia.com","port":27015,"enabled":true,"region":"us-central","cc":"us","latitude":41.881832,"longitude":-87.62318,"reserved":0,"last_update":"0001-01-01T00:00:00Z","name_a2s":"Uncletopia | Chicago | 5 | All Maps","protocol":17,"map":"koth_viaduct","folder":"tf","game":"Team Fortress","app_id":440,"player_count":0,"max_players":24,"Bots":0,"server_type":"Dedicated","server_os":"Linux","password":true,"vac":true,"version":"7961495","steam_id":85568392924866362,"keywords":["cp","nocrits","nodmgspread","uncletopia"],"game_id":440,"stv_port":27016,"stv_name":"Uncletopia | Chicago | 5 | All Maps | STV","players":null},{"server_id":37,"name":"Uncletopia | Chicago | 6 | All Maps","name_short":"chi-6","host":"chi-2.us.uncletopia.com","port":27025,"enabled":true,"region":"us-central","cc":"us","latitude":41.881832,"longitude":-87.62318,"reserved":0,"last_update":"0001-01-01T00:00:00Z","name_a2s":"Uncletopia | Chicago | 6 | All Maps","protocol":17,"map":"pl_pier","folder":"tf","game":"Team Fortress","app_id":440,"player_count":24,"max_players":24,"Bots":0,"server_type":"Dedicated","server_os":"Linux","password":true,"vac":true,"version":"7961495","steam_id":85568392924866363,"keywords":["nocrits","nodmgspread","payload","uncletopia"],"game_id":440,"stv_port":27026,"stv_name":"Uncletopia | Chicago | 6 | All Maps | STV","players":[{"user_id":124,"name":"OddSlaush","steam_id":76561198043898488,"connected_time":1241000000000,"state":"active","ping":90},{"user_id":122,"name":"Coms","steam_id":76561198204995668,"connected_time":1387000000000,"state":"active","ping":79},{"user_id":123,"name":"I Can't Dance","steam_id":76561198212377560,"connected_time":1287000000000,"state":"active","ping":56},{"user_id":101,"name":"_GOOSE","steam_id":76561198013747901,"connected_time":2261000000000,"state":"active","ping":67},{"user_id":84,"name":"Knuckles","steam_id":76561198000704259,"connected_time":2771000000000,"state":"active","ping":59},{"user_id":127,"name":"✧･ﾟhooligan!!","steam_id":76561198874149130,"connected_time":1160000000000,"state":"active","ping":75},{"user_id":142,"name":"i need u","steam_id":76561198030625151,"connected_time":556000000000,"state":"active","ping":88},{"user_id":126,"name":"U ω U","steam_id":76561198118802562,"connected_time":1209000000000,"state":"active","ping":113},{"user_id":151,"name":"[RЯ] ShibesGoneWow","steam_id":76561198036090516,"connected_time":53000000000,"state":"active","ping":60},{"user_id":129,"name":"Richard Nixon Gaming","steam_id":76561199351608381,"connected_time":1089000000000,"state":"active","ping":85},{"user_id":148,"name":"Fenrisúlfr","steam_id":76561198042012705,"connected_time":289000000000,"state":"active","ping":60},{"user_id":95,"name":"H0wlr","steam_id":76561198012332824,"connected_time":2453000000000,"state":"active","ping":59},{"user_id":143,"name":"._.","steam_id":76561198300316801,"connected_time":550000000000,"state":"active","ping":58},{"user_id":145,"name":"3ggsalad3","steam_id":76561199386969191,"connected_time":525000000000,"state":"active","ping":56},{"user_id":130,"name":"Willham","steam_id":76561198065755781,"connected_time":1041000000000,"state":"active","ping":82},{"user_id":86,"name":"Windows Vista Home Premium","steam_id":76561198043764863,"connected_time":2628000000000,"state":"active","ping":99},{"user_id":132,"name":"corntent","steam_id":76561198824847948,"connected_time":1009000000000,"state":"active","ping":60},{"user_id":133,"name":"LACTAID","steam_id":76561198276585202,"connected_time":1000000000000,"state":"active","ping":105},{"user_id":136,"name":"Peppino Spaghetti","steam_id":76561198830014081,"connected_time":932000000000,"state":"active","ping":97},{"user_id":141,"name":"Top Frog","steam_id":76561198072793446,"connected_time":627000000000,"state":"active","ping":85},{"user_id":137,"name":"Spy on cart","steam_id":76561198025466913,"connected_time":927000000000,"state":"active","ping":92},{"user_id":139,"name":"Scuba Steve","steam_id":76561198313018251,"connected_time":892000000000,"state":"active","ping":85},{"user_id":152,"name":"Fairchild Republic A-10 Thndrbl","steam_id":76561199038043360,"connected_time":17000000000,"state":"active","ping":91},{"user_id":144,"name":"RogerSMT","steam_id":76561198389581513,"connected_time":545000000000,"state":"active","ping":67}]},{"server_id":38,"name":"Uncletopia | Chicago | 7 | Stopwatch","name_short":"chi-7","host":"chi-2.us.uncletopia.com","port":27035,"enabled":true,"region":"us-central","cc":"us","latitude":41.881832,"longitude":-87.62318,"reserved":0,"last_update":"0001-01-01T00:00:00Z","name_a2s":"Uncletopia | Chicago | 7 | Stopwatch","protocol":17,"map":"pl_badwater","folder":"tf","game":"Team Fortress","app_id":440,"player_count":0,"max_players":24,"Bots":0,"server_type":"Dedicated","server_os":"Linux","password":true,"vac":true,"version":"7961495","steam_id":85568392924866364,"keywords":["nocrits","nodmgspread","payload","uncletopia"],"game_id":440,"stv_port":27036,"stv_name":"Uncletopia | Chicago | 7 | Stopwatch | STV","players":null},{"server_id":39,"name":"Uncletopia | Chicago | 8 | Community","name_short":"chi-8","host":"chi-2.us.uncletopia.com","port":27045,"enabled":true,"region":"us-central","cc":"us","latitude":41.881832,"longitude":-87.62318,"reserved":0,"last_update":"0001-01-01T00:00:00Z","name_a2s":"Uncletopia | Chicago | 8 | Community","protocol":17,"map":"workshop/pl_cashworks_final1.ugc2904065412","folder":"tf","game":"Team Fortress","app_id":440,"player_count":0,"max_players":24,"Bots":0,"server_type":"Dedicated","server_os":"Linux","password":true,"vac":true,"version":"7961495","steam_id":85568392924866365,"keywords":["nocrits","nodmgspread","payload","uncletopia"],"game_id":440,"stv_port":27046,"stv_name":"Uncletopia | Chicago | 8 | Community | STV","players":null},{"server_id":8,"name":"Uncletopia | Dallas | 1 | All Maps","name_short":"dal-1","host":"dal-1.us.uncletopia.com","port":27015,"enabled":true,"region":"us-central","cc":"us","latitude":32.779167,"longitude":-96.80889,"reserved":0,"last_update":"0001-01-01T00:00:00Z","name_a2s":"Uncletopia | Dallas | 1 | All Maps","protocol":17,"map":"pl_swiftwater_final1","folder":"tf","game":"Team Fortress","app_id":440,"player_count":24,"max_players":24,"Bots":0,"server_type":"Dedicated","server_os":"Linux","password":true,"vac":true,"version":"7961495","steam_id":85568392924469986,"keywords":["nocrits","nodmgspread","payload","uncletopia"],"game_id":440,"stv_port":27016,"stv_name":"Uncletopia | Dallas | 1 | All Maps | STV","players":[{"user_id":69,"name":"Dragon Mommy from Caelid","steam_id":76561198338424715,"connected_time":2076000000000,"state":"active","ping":82},{"user_id":79,"name":"Thunder","steam_id":76561198097721532,"connected_time":1140000000000,"state":"active","ping":81},{"user_id":88,"name":"SaaxoM","steam_id":76561198208256603,"connected_time":657000000000,"state":"active","ping":87},{"user_id":57,"name":"Coffeemelon","steam_id":76561198285891257,"connected_time":2735000000000,"state":"active","ping":104},{"user_id":76,"name":"Dr. No Name","steam_id":76561198058656869,"connected_time":1211000000000,"state":"active","ping":94},{"user_id":67,"name":"Neato!","steam_id":76561198043548668,"connected_time":2299000000000,"state":"active","ping":78},{"user_id":30,"name":"jojobinks613","steam_id":76561198841293111,"connected_time":3588000000000,"state":"active","ping":89},{"user_id":18,"name":"sloped wall (fake) [not real]","steam_id":76561198203952392,"connected_time":4298000000000,"state":"active","ping":89},{"user_id":72,"name":"Darling","steam_id":76561198127525888,"connected_time":1461000000000,"state":"active","ping":50},{"user_id":26,"name":"Jimmy Cumstains","steam_id":76561198044086931,"connected_time":3737000000000,"state":"active","ping":95},{"user_id":62,"name":"Toasterduds","steam_id":76561198163477584,"connected_time":2621000000000,"state":"active","ping":94},{"user_id":68,"name":"SlurpyTheDog","steam_id":76561198799733154,"connected_time":2295000000000,"state":"active","ping":77},{"user_id":28,"name":"Grassman (Cc)","steam_id":76561198026488532,"connected_time":3703000000000,"state":"active","ping":85},{"user_id":85,"name":"Mexican Muselk","steam_id":76561199289676387,"connected_time":986000000000,"state":"active","ping":66},{"user_id":86,"name":"Word To Your Mothership","steam_id":76561198034329138,"connected_time":960000000000,"state":"active","ping":90},{"user_id":83,"name":"TrashPanda (she/her)","steam_id":76561198447864095,"connected_time":1004000000000,"state":"active","ping":69},{"user_id":92,"name":"Kim Jong Un stan","steam_id":76561199139182003,"connected_time":210000000000,"state":"active","ping":76},{"user_id":74,"name":"limecatcher","steam_id":76561198440239483,"connected_time":1312000000000,"state":"active","ping":44},{"user_id":91,"name":"Talented","steam_id":76561198800259660,"connected_time":457000000000,"state":"active","ping":70},{"user_id":93,"name":"CherryPieRed2023","steam_id":76561198998007496,"connected_time":87000000000,"state":"active","ping":109},{"user_id":66,"name":"Rat God","steam_id":76561198066161598,"connected_time":2487000000000,"state":"active","ping":85},{"user_id":71,"name":"ThatOnePersonCalledCaine","steam_id":76561198089836391,"connected_time":1563000000000,"state":"active","ping":83},{"user_id":94,"name":"Imrgrim","steam_id":76561198135866481,"connected_time":37000000000,"state":"active","ping":74},{"user_id":65,"name":"Kantamoe","steam_id":76561198046661611,"connected_time":2564000000000,"state":"active","ping":84}]},{"server_id":108,"name":"Uncletopia | Dallas | 2 | All Maps","name_short":"dal-2","host":"dal-1.us.uncletopia.com","port":27025,"enabled":true,"region":"us-central","cc":"us","latitude":32.779167,"longitude":-96.80889,"reserved":0,"last_update":"0001-01-01T00:00:00Z","name_a2s":"Uncletopia | Dallas | 2 | All Maps","protocol":17,"map":"pl_upward","folder":"tf","game":"Team Fortress","app_id":440,"player_count":22,"max_players":24,"Bots":0,"server_type":"Dedicated","server_os":"Linux","password":true,"vac":true,"version":"7961495","steam_id":85568392924469988,"keywords":["nocrits","nodmgspread","payload","uncletopia"],"game_id":440,"stv_port":27026,"stv_name":"Uncletopia | Dallas | 2 | All Maps | STV","players":[{"user_id":130,"name":"[☯] randomshagz*","steam_id":76561197968666646,"connected_time":2618000000000,"state":"active","ping":75},{"user_id":170,"name":"OHGODBEES!","steam_id":76561198000653374,"connected_time":539000000000,"state":"active","ping":103},{"user_id":171,"name":"A Good Boy","steam_id":76561198066998594,"connected_time":533000000000,"state":"active","ping":94},{"user_id":150,"name":"STARZ#1400","steam_id":76561198965593434,"connected_time":2245000000000,"state":"active","ping":60},{"user_id":175,"name":"K1LLSW1TCH","steam_id":76561198408357027,"connected_time":206000000000,"state":"active","ping":79},{"user_id":172,"name":"clavin","steam_id":76561198069380992,"connected_time":493000000000,"state":"active","ping":55},{"user_id":165,"name":"Cactus™ ♥","steam_id":76561198036441270,"connected_time":1145000000000,"state":"active","ping":103},{"user_id":174,"name":"greentop_","steam_id":76561198209650964,"connected_time":210000000000,"state":"active","ping":77},{"user_id":177,"name":"astron","steam_id":76561198058546328,"connected_time":180000000000,"state":"active","ping":82},{"user_id":173,"name":"Brain Magic","steam_id":76561198010201477,"connected_time":324000000000,"state":"active","ping":88},{"user_id":164,"name":"Yopi","steam_id":76561198004298898,"connected_time":1214000000000,"state":"active","ping":87},{"user_id":152,"name":"summerlis","steam_id":76561198165324438,"connected_time":2085000000000,"state":"active","ping":71},{"user_id":153,"name":"Nintenjoe","steam_id":76561198821530178,"connected_time":2077000000000,"state":"active","ping":94},{"user_id":166,"name":"Mocha Josie","steam_id":76561198066452726,"connected_time":1046000000000,"state":"active","ping":97},{"user_id":178,"name":"bones!?!?","steam_id":76561198084646266,"connected_time":176000000000,"state":"active","ping":60},{"user_id":136,"name":"SkadooshPlayz","steam_id":76561198310986662,"connected_time":2545000000000,"state":"active","ping":100},{"user_id":167,"name":"Shipmunk","steam_id":76561198063062670,"connected_time":1043000000000,"state":"active","ping":83},{"user_id":156,"name":"Contract/Acheivement helper","steam_id":76561199230325479,"connected_time":1908000000000,"state":"active","ping":86},{"user_id":181,"name":"(Ô)Ô)Wandering Singer(Ô(Ô)","steam_id":76561198126477141,"connected_time":83000000000,"state":"active","ping":100},{"user_id":182,"name":"trash beast","steam_id":76561198015792736,"connected_time":81000000000,"state":"active","ping":81},{"user_id":176,"name":"Trigger","steam_id":76561198220120368,"connected_time":205000000000,"state":"active","ping":45},{"user_id":183,"name":"yaldabaoth","steam_id":76561198084606869,"connected_time":71000000000,"state":"active","ping":83}]},{"server_id":404,"name":"Uncletopia | Dallas | 3 | All Maps","name_short":"dal-3","host":"dal-1.us.uncletopia.com","port":27035,"enabled":true,"region":"us-central","cc":"us","latitude":32.779167,"longitude":-96.80889,"reserved":0,"last_update":"0001-01-01T00:00:00Z","name_a2s":"Uncletopia | Dallas | 3 | All Maps","protocol":17,"map":"cp_dustbowl","folder":"tf","game":"Team Fortress","app_id":440,"player_count":24,"max_players":24,"Bots":0,"server_type":"Dedicated","server_os":"Linux","password":true,"vac":true,"version":"7961495","steam_id":85568392924515219,"keywords":["cp","nocrits","nodmgspread","uncletopia"],"game_id":440,"stv_port":27036,"stv_name":"Uncletopia | Dallas | 3 | All Maps | STV","players":[{"user_id":441,"name":"Killer-Of-Night","steam_id":76561198054038830,"connected_time":2240000000000,"state":"active","ping":103},{"user_id":451,"name":"fudo myoo","steam_id":76561198456258164,"connected_time":732000000000,"state":"active","ping":75},{"user_id":452,"name":"AXELORDX","steam_id":76561198136639581,"connected_time":721000000000,"state":"active","ping":73},{"user_id":437,"name":"Scrappy-Doo has been Drafted","steam_id":76561198292152534,"connected_time":2565000000000,"state":"active","ping":92},{"user_id":474,"name":"Emma","steam_id":76561198318093783,"connected_time":79000000000,"state":"active","ping":65},{"user_id":476,"name":"neet","steam_id":76561197968115168,"connected_time":27000000000,"state":"active","ping":75},{"user_id":475,"name":"Human Resources Manager","steam_id":76561198066386411,"connected_time":57000000000,"state":"active","ping":92},{"user_id":471,"name":"Dqzz","steam_id":76561199440761155,"connected_time":108000000000,"state":"active","ping":104},{"user_id":456,"name":"Ockulus","steam_id":76561199069638460,"connected_time":594000000000,"state":"active","ping":84},{"user_id":457,"name":"Crunchy","steam_id":76561198318645825,"connected_time":571000000000,"state":"active","ping":78},{"user_id":445,"name":"chickin","steam_id":76561199054804211,"connected_time":1813000000000,"state":"active","ping":97},{"user_id":433,"name":"Texas guy","steam_id":76561198082315370,"connected_time":2735000000000,"state":"active","ping":85},{"user_id":458,"name":"Pissless Pissmass Pissman","steam_id":76561198409907417,"connected_time":534000000000,"state":"active","ping":95},{"user_id":460,"name":"HeabSaysNo","steam_id":76561198041983433,"connected_time":444000000000,"state":"active","ping":76},{"user_id":461,"name":"twizted","steam_id":76561197960407274,"connected_time":426000000000,"state":"active","ping":94},{"user_id":462,"name":"Lord_Dabbatron","steam_id":76561199058480985,"connected_time":393000000000,"state":"active","ping":55},{"user_id":463,"name":"asm_ghost","steam_id":76561199205363547,"connected_time":384000000000,"state":"active","ping":105},{"user_id":472,"name":"✨ Rarity ✨","steam_id":76561199172206856,"connected_time":97000000000,"state":"active","ping":58},{"user_id":464,"name":"The Gremlin","steam_id":76561198419066993,"connected_time":380000000000,"state":"active","ping":116},{"user_id":465,"name":"astrobob911","steam_id":76561199099110654,"connected_time":342000000000,"state":"active","ping":101},{"user_id":473,"name":"KiloeJet","steam_id":76561199084636926,"connected_time":96000000000,"state":"active","ping":102},{"user_id":467,"name":"132 mensa","steam_id":76561197961263312,"connected_time":285000000000,"state":"active","ping":85},{"user_id":468,"name":"gerf.","steam_id":76561198811706201,"connected_time":264000000000,"state":"active","ping":65},{"user_id":470,"name":"SneekiCheekiQbone","steam_id":76561198045077980,"connected_time":226000000000,"state":"active","ping":80}]},{"server_id":405,"name":"Uncletopia | Dallas | 4 | Community","name_short":"dal-4","host":"dal-1.us.uncletopia.com","port":27045,"enabled":true,"region":"us-central","cc":"us","latitude":32.779167,"longitude":-96.80889,"reserved":0,"last_update":"0001-01-01T00:00:00Z","name_a2s":"Uncletopia | Dallas | 4 | Community","protocol":17,"map":"pl_pier","folder":"tf","game":"Team Fortress","app_id":440,"player_count":0,"max_players":24,"Bots":0,"server_type":"Dedicated","server_os":"Linux","password":true,"vac":true,"version":"7961495","steam_id":85568392924515220,"keywords":["nocrits","nodmgspread","payload","uncletopia"],"game_id":440,"stv_port":27046,"stv_name":"Uncletopia | Dallas | 4 | Community | STV","players":null},{"server_id":5,"name":"Uncletopia | Frankfurt | 1 | All Maps","name_short":"frk-1","host":"frk-1.de.uncletopia.com","port":27015,"enabled":true,"region":"eu","cc":"de","latitude":50.110924,"longitude":8.682127,"reserved":0,"last_update":"0001-01-01T00:00:00Z","name_a2s":"Uncletopia | Frankfurt | 1 | All Maps","protocol":17,"map":"pl_badwater","folder":"tf","game":"Team Fortress","app_id":440,"player_count":24,"max_players":24,"Bots":0,"server_type":"Dedicated","server_os":"Linux","password":true,"vac":true,"version":"7961495","steam_id":85568392924469989,"keywords":["nocrits","nodmgspread","payload","uncletopia"],"game_id":440,"stv_port":27016,"stv_name":"Uncletopia | Frankfurt | 1 | All Maps | STV","players":[{"user_id":758,"name":"bladerunner | Trade.tf","steam_id":76561198272175230,"connected_time":326000000000,"state":"active","ping":69},{"user_id":748,"name":"SNEAKY TURTLE","steam_id":76561198172177650,"connected_time":1337000000000,"state":"active","ping":77},{"user_id":759,"name":"henrique_best","steam_id":76561199317304919,"connected_time":318000000000,"state":"active","ping":79},{"user_id":683,"name":"Arsonist","steam_id":76561199087953833,"connected_time":5466000000000,"state":"active","ping":95},{"user_id":732,"name":"LOBZIK","steam_id":76561198114830120,"connected_time":2285000000000,"state":"active","ping":77},{"user_id":746,"name":"r^f nyanezt","steam_id":76561198253734265,"connected_time":1395000000000,"state":"active","ping":93},{"user_id":760,"name":"Tusho","steam_id":76561198115447383,"connected_time":305000000000,"state":"active","ping":73},{"user_id":761,"name":"bilgobaggings","steam_id":76561198041520751,"connected_time":297000000000,"state":"active","ping":51},{"user_id":696,"name":"r^f shrrrrrrekkkkk","steam_id":76561198347241576,"connected_time":4572000000000,"state":"active","ping":88},{"user_id":762,"name":"hibvmn","steam_id":76561197996468677,"connected_time":294000000000,"state":"active","ping":60},{"user_id":756,"name":"ni88a_chad","steam_id":76561198871536875,"connected_time":876000000000,"state":"active","ping":97},{"user_id":763,"name":"Sabour","steam_id":76561197963965445,"connected_time":292000000000,"state":"active","ping":56},{"user_id":727,"name":"i look at gay people","steam_id":76561198078032019,"connected_time":2780000000000,"state":"active","ping":77},{"user_id":722,"name":"LiterallyRyanGosling","steam_id":76561199017856691,"connected_time":2909000000000,"state":"active","ping":67},{"user_id":764,"name":"kingdead4","steam_id":76561198079576655,"connected_time":291000000000,"state":"active","ping":69},{"user_id":765,"name":"Arthur","steam_id":76561198066109166,"connected_time":273000000000,"state":"active","ping":75},{"user_id":766,"name":"{♠}_MR. JESTER _{♠}","steam_id":76561198152371294,"connected_time":248000000000,"state":"active","ping":68},{"user_id":755,"name":"LOW SKILL ISSUE","steam_id":76561198001711780,"connected_time":1145000000000,"state":"active","ping":79},{"user_id":737,"name":"Snowmotion","steam_id":76561198075022454,"connected_time":2180000000000,"state":"active","ping":61},{"user_id":754,"name":"jjkun786","steam_id":76561199438517484,"connected_time":1177000000000,"state":"active","ping":103},{"user_id":767,"name":"flick","steam_id":76561198083505031,"connected_time":225000000000,"state":"active","ping":58},{"user_id":749,"name":"else1","steam_id":76561197996558319,"connected_time":1332000000000,"state":"active","ping":75},{"user_id":750,"name":"F2P Challenge","steam_id":76561199498773639,"connected_time":1322000000000,"state":"active","ping":63},{"user_id":768,"name":"tornado213","steam_id":76561198271811571,"connected_time":205000000000,"state":"active","ping":123}]},{"server_id":110,"name":"Uncletopia | Frankfurt | 2 | All Maps","name_short":"frk-2","host":"frk-1.de.uncletopia.com","port":27025,"enabled":true,"region":"eu","cc":"de","latitude":50.110924,"longitude":8.682127,"reserved":0,"last_update":"0001-01-01T00:00:00Z","name_a2s":"Uncletopia | Frankfurt | 2 | All Maps","protocol":17,"map":"cp_dustbowl","folder":"tf","game":"Team Fortress","app_id":440,"player_count":0,"max_players":24,"Bots":0,"server_type":"Dedicated","server_os":"Linux","password":true,"vac":true,"version":"7961495","steam_id":85568392924469990,"keywords":["cp","nocrits","nodmgspread","uncletopia"],"game_id":440,"stv_port":27026,"stv_name":"Uncletopia | Frankfurt | 2 | All Maps | STV","players":null},{"server_id":308,"name":"Uncletopia | Frankfurt | 3 | All Maps","name_short":"frk-3","host":"frk-1.de.uncletopia.com","port":27035,"enabled":true,"region":"eu","cc":"de","latitude":50.110924,"longitude":8.682127,"reserved":0,"last_update":"0001-01-01T00:00:00Z","name_a2s":"Uncletopia | Frankfurt | 3 | All Maps","protocol":17,"map":"pl_frontier_final","folder":"tf","game":"Team Fortress","app_id":440,"player_count":24,"max_players":24,"Bots":0,"server_type":"Dedicated","server_os":"Linux","password":true,"vac":true,"version":"7961495","steam_id":85568392924504274,"keywords":["nocrits","nodmgspread","payload","uncletopia"],"game_id":440,"stv_port":27036,"stv_name":"Uncletopia | Frankfurt | 3 | All Maps | STV","players":[{"user_id":299,"name":"R@DIO","steam_id":76561197995533046,"connected_time":3515000000000,"state":"active","ping":77},{"user_id":315,"name":"POWER","steam_id":76561198073814518,"connected_time":2917000000000,"state":"active","ping":70},{"user_id":306,"name":"Atari Lynx","steam_id":76561198131764464,"connected_time":3329000000000,"state":"active","ping":95},{"user_id":305,"name":"BeefHammer","steam_id":76561198078426223,"connected_time":3343000000000,"state":"active","ping":96},{"user_id":335,"name":"Ashley","steam_id":76561198056152479,"connected_time":145000000000,"state":"active","ping":59},{"user_id":325,"name":"Futaro","steam_id":76561198084534929,"connected_time":1457000000000,"state":"active","ping":61},{"user_id":289,"name":"Swagmaster","steam_id":76561198045828392,"connected_time":3888000000000,"state":"active","ping":56},{"user_id":332,"name":"Ziltoid","steam_id":76561198020753675,"connected_time":848000000000,"state":"active","ping":70},{"user_id":329,"name":"Spitfire","steam_id":76561198037876300,"connected_time":1043000000000,"state":"active","ping":45},{"user_id":254,"name":"Skarp","steam_id":76561198034398376,"connected_time":6802000000000,"state":"active","ping":52},{"user_id":300,"name":"post-nuke selfie","steam_id":76561198082502910,"connected_time":3507000000000,"state":"active","ping":49},{"user_id":302,"name":"Беляш-eбляш","steam_id":76561198122946306,"connected_time":3427000000000,"state":"active","ping":75},{"user_id":336,"name":"METhOphetamine","steam_id":76561198068216224,"connected_time":81000000000,"state":"active","ping":55},{"user_id":308,"name":"Vitun vittu","steam_id":76561198110679463,"connected_time":3319000000000,"state":"active","ping":75},{"user_id":330,"name":"Cosmic Gamer","steam_id":76561198027357981,"connected_time":1030000000000,"state":"active","ping":93},{"user_id":331,"name":"worgeral","steam_id":76561198050781898,"connected_time":1014000000000,"state":"active","ping":62},{"user_id":309,"name":"sui","steam_id":76561198185348855,"connected_time":3308000000000,"state":"active","ping":72},{"user_id":314,"name":"turbo shart","steam_id":76561198012351808,"connected_time":3222000000000,"state":"active","ping":69},{"user_id":322,"name":"Real (Real)","steam_id":76561198323425034,"connected_time":1848000000000,"state":"active","ping":74},{"user_id":323,"name":"Grog the caveman","steam_id":76561199040975062,"connected_time":1839000000000,"state":"active","ping":75},{"user_id":319,"name":"Suetolog","steam_id":76561199053090212,"connected_time":2290000000000,"state":"active","ping":52},{"user_id":287,"name":"Gorgeous George","steam_id":76561198144256544,"connected_time":4079000000000,"state":"active","ping":62},{"user_id":267,"name":"Lyncurion","steam_id":76561199260022725,"connected_time":5501000000000,"state":"active","ping":79},{"user_id":337,"name":"Duke Fishlord","steam_id":76561198079928327,"connected_time":76000000000,"state":"active","ping":67}]},{"server_id":309,"name":"Uncletopia | Frankfurt | 4 | All Maps","name_short":"frk-4","host":"frk-1.de.uncletopia.com","port":27045,"enabled":true,"region":"eu","cc":"de","latitude":50.110924,"longitude":8.682127,"reserved":0,"last_update":"0001-01-01T00:00:00Z","name_a2s":"Uncletopia | Frankfurt | 4 | All Maps","protocol":17,"map":"cp_dustbowl","folder":"tf","game":"Team Fortress","app_id":440,"player_count":6,"max_players":24,"Bots":0,"server_type":"Dedicated","server_os":"Linux","password":true,"vac":true,"version":"7961495","steam_id":85568392924504275,"keywords":["cp","nocrits","nodmgspread","uncletopia"],"game_id":440,"stv_port":27046,"stv_name":"Uncletopia | Frankfurt | 4 | All Maps | STV","players":[{"user_id":535,"name":"BLP_TF2","steam_id":76561199306940806,"connected_time":914000000000,"state":"active","ping":150},{"user_id":518,"name":"Skinny Man","steam_id":76561199071707695,"connected_time":3469000000000,"state":"active","ping":169},{"user_id":536,"name":"G-Star","steam_id":76561199276077189,"connected_time":857000000000,"state":"active","ping":163},{"user_id":538,"name":"Spoolonermaner","steam_id":76561199135835748,"connected_time":394000000000,"state":"active","ping":151},{"user_id":539,"name":"furrerthierry","steam_id":76561199088534006,"connected_time":233000000000,"state":"active","ping":56},{"user_id":512,"name":"The Storm That Is Approaching","steam_id":76561198982155864,"connected_time":4050000000000,"state":"active","ping":69}]},{"server_id":310,"name":"Uncletopia | Frankfurt | 5 | All Maps","name_short":"frk-5","host":"frk-1.de.uncletopia.com","port":27055,"enabled":true,"region":"eu","cc":"de","latitude":50.110924,"longitude":8.682127,"reserved":0,"last_update":"0001-01-01T00:00:00Z","name_a2s":"Uncletopia | Frankfurt | 5 | All Maps","protocol":17,"map":"pl_barnblitz","folder":"tf","game":"Team Fortress","app_id":440,"player_count":0,"max_players":24,"Bots":0,"server_type":"Dedicated","server_os":"Linux","password":true,"vac":true,"version":"7961495","steam_id":85568392924504277,"keywords":["nocrits","nodmgspread","payload","uncletopia"],"game_id":440,"stv_port":27056,"stv_name":"Uncletopia | Frankfurt | 5 | All Maps | STV","players":null},{"server_id":311,"name":"Uncletopia | Frankfurt | 6 | All Maps","name_short":"frk-6","host":"frk-1.de.uncletopia.com","port":27065,"enabled":true,"region":"eu","cc":"de","latitude":50.110924,"longitude":8.682127,"reserved":0,"last_update":"0001-01-01T00:00:00Z","name_a2s":"Uncletopia | Frankfurt | 6 | All Maps","protocol":17,"map":"pl_barnblitz","folder":"tf","game":"Team Fortress","app_id":440,"player_count":21,"max_players":24,"Bots":0,"server_type":"Dedicated","server_os":"Linux","password":true,"vac":true,"version":"7961495","steam_id":85568392924504278,"keywords":["nocrits","nodmgspread","payload","uncletopia"],"game_id":440,"stv_port":27066,"stv_name":"Uncletopia | Frankfurt | 6 | All Maps | STV","players":[{"user_id":251,"name":"Zamorocian","steam_id":76561198076604017,"connected_time":4273000000000,"state":"active","ping":47},{"user_id":305,"name":"Rezzarezz","steam_id":76561198092020043,"connected_time":62000000000,"state":"active","ping":60},{"user_id":252,"name":"The Lady","steam_id":76561198029895809,"connected_time":4273000000000,"state":"active","ping":72},{"user_id":279,"name":"kadanov","steam_id":76561198055365234,"connected_time":1302000000000,"state":"active","ping":88},{"user_id":306,"name":"\u003e\u003c\u003e","steam_id":76561198152392309,"connected_time":32000000000,"state":"active","ping":45},{"user_id":274,"name":"craig","steam_id":76561198907428350,"connected_time":1952000000000,"state":"active","ping":62},{"user_id":272,"name":"skam","steam_id":76561198393181352,"connected_time":2041000000000,"state":"active","ping":75},{"user_id":301,"name":"Watermelon","steam_id":76561198130305977,"connected_time":228000000000,"state":"active","ping":83},{"user_id":282,"name":"Costarona","steam_id":76561197989455970,"connected_time":998000000000,"state":"active","ping":70},{"user_id":278,"name":"shenanigan","steam_id":76561198043452925,"connected_time":1427000000000,"state":"active","ping":93},{"user_id":283,"name":"Mr. Salt Detector","steam_id":76561198089962282,"connected_time":984000000000,"state":"active","ping":71},{"user_id":304,"name":"Stefman","steam_id":76561199025104038,"connected_time":75000000000,"state":"active","ping":58},{"user_id":286,"name":"Grb.","steam_id":76561198067950470,"connected_time":954000000000,"state":"active","ping":63},{"user_id":303,"name":"Clydios","steam_id":76561198332311225,"connected_time":90000000000,"state":"active","ping":75},{"user_id":293,"name":"akciq ⁧⁧respect","steam_id":76561198390963456,"connected_time":775000000000,"state":"active","ping":77},{"user_id":299,"name":"Mr.Shpee","steam_id":76561198158701474,"connected_time":550000000000,"state":"active","ping":75},{"user_id":294,"name":"flip flop man(Lee)","steam_id":76561198374860339,"connected_time":742000000000,"state":"active","ping":59},{"user_id":302,"name":"MoeruKurowassan","steam_id":76561198319349647,"connected_time":143000000000,"state":"active","ping":77},{"user_id":258,"name":"shadow39344","steam_id":76561198090639618,"connected_time":3964000000000,"state":"active","ping":59},{"user_id":269,"name":"Isak","steam_id":76561198085959762,"connected_time":2587000000000,"state":"active","ping":72},{"user_id":298,"name":"http kid","steam_id":76561198876791756,"connected_time":588000000000,"state":"active","ping":100}]},{"server_id":23,"name":"Uncletopia | Frankfurt | 7 | Stopwatch","name_short":"frk-7","host":"frk-1.de.uncletopia.com","port":27075,"enabled":true,"region":"eu","cc":"de","latitude":50.110924,"longitude":8.682127,"reserved":0,"last_update":"0001-01-01T00:00:00Z","name_a2s":"Uncletopia | Frankfurt | 7 | Stopwatch","protocol":17,"map":"koth_lakeside_final","folder":"tf","game":"Team Fortress","app_id":440,"player_count":0,"max_players":24,"Bots":0,"server_type":"Dedicated","server_os":"Linux","password":true,"vac":true,"version":"7961495","steam_id":85568392924742827,"keywords":["cp","nocrits","nodmgspread","uncletopia"],"game_id":440,"stv_port":27076,"stv_name":"Uncletopia | Frankfurt | 7 | Stopwatch | STV","players":null},{"server_id":24,"name":"Uncletopia | Frankfurt | 8 | Community","name_short":"frk-8","host":"frk-1.de.uncletopia.com","port":27085,"enabled":true,"region":"eu","cc":"de","latitude":50.110924,"longitude":8.682127,"reserved":0,"last_update":"0001-01-01T00:00:00Z","name_a2s":"Uncletopia | Frankfurt | 8 | Community","protocol":17,"map":"workshop/koth_kemptown_rc1.ugc767410655","folder":"tf","game":"Team Fortress","app_id":440,"player_count":0,"max_players":24,"Bots":0,"server_type":"Dedicated","server_os":"Linux","password":true,"vac":true,"version":"7961495","steam_id":85568392924742828,"keywords":["cp","nocrits","nodmgspread","uncletopia"],"game_id":440,"stv_port":27086,"stv_name":"Uncletopia | Frankfurt | 8 | Community | STV","players":null},{"server_id":202,"name":"Uncletopia | Hong Kong | 1 | All Maps","name_short":"hgk-1","host":"hgk-1.hk.uncletopia.com","port":27015,"enabled":true,"region":"asia","cc":"hk","latitude":22.302711,"longitude":114.177216,"reserved":0,"last_update":"0001-01-01T00:00:00Z","name_a2s":"Uncletopia | Hong Kong | 1 | All Maps","protocol":17,"map":"pl_frontier_final","folder":"tf","game":"Team Fortress","app_id":440,"player_count":0,"max_players":24,"Bots":0,"server_type":"Dedicated","server_os":"Linux","password":true,"vac":true,"version":"7961495","steam_id":85568392924494504,"keywords":["nocrits","nodmgspread","payload","uncletopia"],"game_id":440,"stv_port":27016,"stv_name":"Uncletopia | Hong Kong | 1 | All Maps | STV","players":null},{"server_id":1,"name":"Uncletopia | Los Angeles | 1 | All Maps","name_short":"lax-1","host":"lax-1.us.uncletopia.com","port":27015,"enabled":true,"region":"us-west","cc":"us","latitude":33.94279,"longitude":-118.41004,"reserved":0,"last_update":"0001-01-01T00:00:00Z","name_a2s":"Uncletopia | Los Angeles | 1 | All Maps","protocol":17,"map":"cp_process_final","folder":"tf","game":"Team Fortress","app_id":440,"player_count":0,"max_players":24,"Bots":0,"server_type":"Dedicated","server_os":"Linux","password":true,"vac":true,"version":"7961495","steam_id":85568392924469991,"keywords":["cp","nocrits","nodmgspread","uncletopia"],"game_id":440,"stv_port":27016,"stv_name":"Uncletopia | Los Angeles | 1 | All Maps | STV","players":null},{"server_id":112,"name":"Uncletopia | Los Angeles | 2 | All Maps","name_short":"lax-2","host":"lax-1.us.uncletopia.com","port":27025,"enabled":true,"region":"us-west","cc":"us","latitude":33.94279,"longitude":-118.41004,"reserved":0,"last_update":"0001-01-01T00:00:00Z","name_a2s":"Uncletopia | Los Angeles | 2 | All Maps","protocol":17,"map":"pl_snowycoast","folder":"tf","game":"Team Fortress","app_id":440,"player_count":0,"max_players":24,"Bots":0,"server_type":"Dedicated","server_os":"Linux","password":true,"vac":true,"version":"7961495","steam_id":85568392924469992,"keywords":["nocrits","nodmgspread","payload","uncletopia"],"game_id":440,"stv_port":27026,"stv_name":"Uncletopia | Los Angeles | 2 | All Maps | STV","players":null},{"server_id":324,"name":"Uncletopia | Los Angeles | 3 | All Maps","name_short":"lax-3","host":"lax-1.us.uncletopia.com","port":27035,"enabled":true,"region":"us-west","cc":"us","latitude":33.94279,"longitude":-118.41004,"reserved":0,"last_update":"0001-01-01T00:00:00Z","name_a2s":"Uncletopia | Los Angeles | 3 | All Maps","protocol":17,"map":"koth_cascade","folder":"tf","game":"Team Fortress","app_id":440,"player_count":0,"max_players":24,"Bots":0,"server_type":"Dedicated","server_os":"Linux","password":true,"vac":true,"version":"7961495","steam_id":85568392924510198,"keywords":["cp","nocrits","nodmgspread","uncletopia"],"game_id":440,"stv_port":27036,"stv_name":"Uncletopia | Los Angeles | 3 | All Maps | STV","players":null},{"server_id":25,"name":"Uncletopia | Los Angeles | 4 | Stopwatch","name_short":"lax-4","host":"lax-1.us.uncletopia.com","port":27045,"enabled":true,"region":"us-west","cc":"us","latitude":33.94279,"longitude":-118.41004,"reserved":0,"last_update":"0001-01-01T00:00:00Z","name_a2s":"Uncletopia | Los Angeles | 4 | Stopwatch","protocol":17,"map":"pl_barnblitz","folder":"tf","game":"Team Fortress","app_id":440,"player_count":0,"max_players":24,"Bots":0,"server_type":"Dedicated","server_os":"Linux","password":true,"vac":true,"version":"7961495","steam_id":85568392924510199,"keywords":["nocrits","nodmgspread","payload","uncletopia"],"game_id":440,"stv_port":27046,"stv_name":"Uncletopia | Los Angeles | 4 | Stopwatch | STV","players":null},{"server_id":11,"name":"Uncletopia | London | 1 | All Maps","name_short":"lon-1","host":"lon-1.uk.uncletopia.com","port":27015,"enabled":true,"region":"eu","cc":"gb","latitude":51.509865,"longitude":-0.118092,"reserved":0,"last_update":"0001-01-01T00:00:00Z","name_a2s":"Uncletopia | London | 1 | All Maps","protocol":17,"map":"pl_pier","folder":"tf","game":"Team Fortress","app_id":440,"player_count":24,"max_players":24,"Bots":0,"server_type":"Dedicated","server_os":"Linux","password":true,"vac":true,"version":"7961495","steam_id":85568392924367362,"keywords":["nocrits","nodmgspread","payload","uncletopia"],"game_id":440,"stv_port":27016,"stv_name":"Uncletopia | London | 1 | All Maps | STV","players":[{"user_id":777,"name":"KnugenIV","steam_id":76561198127091993,"connected_time":774000000000,"state":"active","ping":58},{"user_id":780,"name":"Samitizer","steam_id":76561198354682764,"connected_time":495000000000,"state":"active","ping":63},{"user_id":763,"name":"waj","steam_id":76561198053628243,"connected_time":2408000000000,"state":"active","ping":44},{"user_id":749,"name":"Haha?","steam_id":76561198056882245,"connected_time":2883000000000,"state":"active","ping":42},{"user_id":722,"name":"RubyTheUnicorn","steam_id":76561198091772218,"connected_time":4527000000000,"state":"active","ping":61},{"user_id":764,"name":"BeepBeep2504Yes","steam_id":76561199118854229,"connected_time":2404000000000,"state":"active","ping":65},{"user_id":778,"name":"shooer!","steam_id":76561198110531281,"connected_time":756000000000,"state":"active","ping":69},{"user_id":751,"name":"Plith","steam_id":76561198027499887,"connected_time":2853000000000,"state":"active","ping":55},{"user_id":774,"name":"Dromeka","steam_id":76561198963557200,"connected_time":950000000000,"state":"active","ping":57},{"user_id":771,"name":"Aaron","steam_id":76561197990046953,"connected_time":983000000000,"state":"active","ping":53},{"user_id":773,"name":"SKY_","steam_id":76561198080980508,"connected_time":978000000000,"state":"active","ping":69},{"user_id":704,"name":"Purps","steam_id":76561198053886680,"connected_time":6950000000000,"state":"active","ping":44},{"user_id":775,"name":"eon","steam_id":76561197971360276,"connected_time":901000000000,"state":"active","ping":71},{"user_id":733,"name":"BreadBubbles","steam_id":76561198174332826,"connected_time":3655000000000,"state":"active","ping":58},{"user_id":754,"name":"froglids","steam_id":76561198045466919,"connected_time":2709000000000,"state":"active","ping":67},{"user_id":724,"name":"hmscole09","steam_id":76561198811362788,"connected_time":4137000000000,"state":"active","ping":48},{"user_id":746,"name":"Çodar","steam_id":76561198235518444,"connected_time":3026000000000,"state":"active","ping":35},{"user_id":755,"name":"scarfweather","steam_id":76561198121331836,"connected_time":2683000000000,"state":"active","ping":58},{"user_id":756,"name":"Oisklet","steam_id":76561198105734948,"connected_time":2676000000000,"state":"active","ping":61},{"user_id":779,"name":"A Succulent Chinese Meal","steam_id":76561198069472440,"connected_time":711000000000,"state":"active","ping":67},{"user_id":781,"name":"SeaKane","steam_id":76561198165453318,"connected_time":46000000000,"state":"active","ping":55},{"user_id":742,"name":"GUMBO","steam_id":76561198183949987,"connected_time":3215000000000,"state":"active","ping":55},{"user_id":768,"name":"No Status","steam_id":76561198119526557,"connected_time":2364000000000,"state":"active","ping":40},{"user_id":770,"name":"teddy","steam_id":76561198007436837,"connected_time":993000000000,"state":"active","ping":30}]},{"server_id":114,"name":"Uncletopia | London | 2 | All Maps","name_short":"lon-2","host":"lon-1.uk.uncletopia.com","port":27025,"enabled":true,"region":"eu","cc":"gb","latitude":51.509865,"longitude":-0.118092,"reserved":0,"last_update":"0001-01-01T00:00:00Z","name_a2s":"Uncletopia | London | 2 | All Maps","protocol":17,"map":"pl_frontier_final","folder":"tf","game":"Team Fortress","app_id":440,"player_count":0,"max_players":24,"Bots":0,"server_type":"Dedicated","server_os":"Linux","password":true,"vac":true,"version":"7961495","steam_id":85568392924470941,"keywords":["nocrits","nodmgspread","payload","uncletopia"],"game_id":440,"stv_port":27026,"stv_name":"Uncletopia | London | 2 | All Maps | STV","players":null},{"server_id":320,"name":"Uncletopia | London | 3 | All Maps","name_short":"lon-3","host":"lon-1.uk.uncletopia.com","port":27035,"enabled":true,"region":"eu","cc":"gb","latitude":51.509865,"longitude":-0.118092,"reserved":0,"last_update":"0001-01-01T00:00:00Z","name_a2s":"Uncletopia | London | 3 | All Maps","protocol":17,"map":"cp_process_final","folder":"tf","game":"Team Fortress","app_id":440,"player_count":0,"max_players":24,"Bots":0,"server_type":"Dedicated","server_os":"Linux","password":true,"vac":true,"version":"7961495","steam_id":85568392924510192,"keywords":["cp","nocrits","nodmgspread","uncletopia"],"game_id":440,"stv_port":27036,"stv_name":"Uncletopia | London | 3 | All Maps | STV","players":null},{"server_id":321,"name":"Uncletopia | London | 4 | All Maps","name_short":"lon-4","host":"lon-1.uk.uncletopia.com","port":27045,"enabled":true,"region":"eu","cc":"gb","latitude":51.509865,"longitude":-0.118092,"reserved":0,"last_update":"0001-01-01T00:00:00Z","name_a2s":"Uncletopia | London | 4 | All Maps","protocol":17,"map":"koth_cascade","folder":"tf","game":"Team Fortress","app_id":440,"player_count":21,"max_players":24,"Bots":0,"server_type":"Dedicated","server_os":"Linux","password":true,"vac":true,"version":"7961495","steam_id":85568392924510193,"keywords":["cp","nocrits","nodmgspread","uncletopia"],"game_id":440,"stv_port":27046,"stv_name":"Uncletopia | London | 4 | All Maps | STV","players":[{"user_id":436,"name":"Lilypadio","steam_id":76561198090146457,"connected_time":1589000000000,"state":"active","ping":37},{"user_id":457,"name":"tacungus","steam_id":76561198041416682,"connected_time":893000000000,"state":"active","ping":57},{"user_id":467,"name":"Jonno","steam_id":76561198023443744,"connected_time":19000000000,"state":"active","ping":46},{"user_id":407,"name":"haydar198112","steam_id":76561198131197590,"connected_time":3048000000000,"state":"active","ping":129},{"user_id":438,"name":"TrashVerN","steam_id":76561197977444051,"connected_time":1541000000000,"state":"active","ping":60},{"user_id":420,"name":"Pancholín","steam_id":76561198262777640,"connected_time":2319000000000,"state":"active","ping":75},{"user_id":455,"name":"nug","steam_id":76561198055396568,"connected_time":1016000000000,"state":"active","ping":59},{"user_id":441,"name":"thomas.jensen96","steam_id":76561198798803845,"connected_time":1449000000000,"state":"active","ping":45},{"user_id":445,"name":"Agro | KritzKast","steam_id":76561197970498549,"connected_time":1331000000000,"state":"active","ping":43},{"user_id":440,"name":"bigmouth strikes again","steam_id":76561198307037169,"connected_time":1501000000000,"state":"active","ping":59},{"user_id":446,"name":"☁ Lou1smeister ☁","steam_id":76561198004032968,"connected_time":1313000000000,"state":"active","ping":60},{"user_id":464,"name":"אבא","steam_id":76561198184360615,"connected_time":169000000000,"state":"active","ping":102},{"user_id":462,"name":"DrHappiness","steam_id":76561198132854516,"connected_time":607000000000,"state":"active","ping":44},{"user_id":422,"name":"smiley","steam_id":76561198042245117,"connected_time":2309000000000,"state":"active","ping":55},{"user_id":443,"name":"lawn","steam_id":76561198001243486,"connected_time":1377000000000,"state":"active","ping":31},{"user_id":359,"name":"TomNoSocks","steam_id":76561198114071046,"connected_time":5730000000000,"state":"active","ping":64},{"user_id":433,"name":"SoberDwarf","steam_id":76561198075477492,"connected_time":1837000000000,"state":"active","ping":136},{"user_id":449,"name":"Endi","steam_id":76561198914938199,"connected_time":1166000000000,"state":"active","ping":101},{"user_id":451,"name":"Zakucat","steam_id":76561198025422211,"connected_time":1118000000000,"state":"active","ping":59},{"user_id":416,"name":"Impostor","steam_id":76561198133957159,"connected_time":2558000000000,"state":"active","ping":91},{"user_id":456,"name":"General Petrov","steam_id":76561198027204104,"connected_time":1004000000000,"state":"active","ping":77}]},{"server_id":21,"name":"Uncletopia | London | 5 | All Maps","name_short":"lon-5","host":"lon-1.uk.uncletopia.com","port":27055,"enabled":true,"region":"eu","cc":"gb","latitude":51.509865,"longitude":-0.118092,"reserved":0,"last_update":"0001-01-01T00:00:00Z","name_a2s":"Uncletopia | London | 5 | All Maps","protocol":17,"map":"cp_process_final","folder":"tf","game":"Team Fortress","app_id":440,"player_count":0,"max_players":24,"Bots":0,"server_type":"Dedicated","server_os":"Linux","password":true,"vac":true,"version":"7961495","steam_id":85568392924742829,"keywords":["cp","nocrits","nodmgspread","uncletopia"],"game_id":440,"stv_port":27056,"stv_name":"Uncletopia | London | 5 | All Maps | STV","players":null},{"server_id":22,"name":"Uncletopia | London | 6 | All Maps","name_short":"lon-6","host":"lon-1.uk.uncletopia.com","port":27065,"enabled":true,"region":"eu","cc":"gb","latitude":51.509865,"longitude":-0.118092,"reserved":0,"last_update":"0001-01-01T00:00:00Z","name_a2s":"Uncletopia | London | 6 | All Maps","protocol":17,"map":"plr_hightower","folder":"tf","game":"Team Fortress","app_id":440,"player_count":24,"max_players":24,"Bots":0,"server_type":"Dedicated","server_os":"Linux","password":true,"vac":true,"version":"7961495","steam_id":85568392924742830,"keywords":["nocrits","nodmgspread","payload","uncletopia"],"game_id":440,"stv_port":27066,"stv_name":"Uncletopia | London | 6 | All Maps | STV","players":[{"user_id":510,"name":"beast mode","steam_id":76561198294114337,"connected_time":145000000000,"state":"active","ping":52},{"user_id":507,"name":"Captain Puddleboat","steam_id":76561198053913970,"connected_time":353000000000,"state":"active","ping":52},{"user_id":506,"name":"Testicular torsion","steam_id":76561198119547399,"connected_time":644000000000,"state":"active","ping":65},{"user_id":417,"name":"OutOfDucks","steam_id":76561198166376227,"connected_time":7811000000000,"state":"active","ping":62},{"user_id":474,"name":"NeonNewt","steam_id":76561198066699212,"connected_time":2910000000000,"state":"active","ping":53},{"user_id":486,"name":"Ninjeg","steam_id":76561197995307947,"connected_time":2265000000000,"state":"active","ping":61},{"user_id":427,"name":"Loberless","steam_id":76561198277844777,"connected_time":6814000000000,"state":"active","ping":45},{"user_id":497,"name":"flange","steam_id":76561198040182692,"connected_time":1320000000000,"state":"active","ping":42},{"user_id":492,"name":"Vivid","steam_id":76561198346546144,"connected_time":2032000000000,"state":"active","ping":43},{"user_id":503,"name":"Roco","steam_id":76561198179719681,"connected_time":911000000000,"state":"active","ping":76},{"user_id":468,"name":"Mason Troy Adams (Real) (Hunter","steam_id":76561198310010748,"connected_time":3034000000000,"state":"active","ping":68},{"user_id":466,"name":"swallowed 10 pennies please hel","steam_id":76561198055816412,"connected_time":3210000000000,"state":"active","ping":45},{"user_id":421,"name":"LordTrap.exe","steam_id":76561198318089716,"connected_time":7708000000000,"state":"active","ping":59},{"user_id":480,"name":"It's a me Malario","steam_id":76561198176546013,"connected_time":2559000000000,"state":"active","ping":50},{"user_id":471,"name":"MustangCricket","steam_id":76561197963408317,"connected_time":2988000000000,"state":"active","ping":59},{"user_id":489,"name":"A Cat","steam_id":76561199015740181,"connected_time":2170000000000,"state":"active","ping":63},{"user_id":482,"name":"tapeworms!","steam_id":76561198069649097,"connected_time":2528000000000,"state":"active","ping":63},{"user_id":333,"name":":3","steam_id":76561198169471853,"connected_time":13872000000000,"state":"active","ping":40},{"user_id":494,"name":"AriLg23","steam_id":76561198106685366,"connected_time":1858000000000,"state":"active","ping":47},{"user_id":496,"name":"Jayem","steam_id":76561198076470685,"connected_time":1538000000000,"state":"active","ping":70},{"user_id":504,"name":"Gelato","steam_id":76561198282596343,"connected_time":864000000000,"state":"active","ping":40},{"user_id":501,"name":"Paint","steam_id":76561198166823873,"connected_time":987000000000,"state":"active","ping":54},{"user_id":451,"name":"Fatmagic Mukbang ASMR","steam_id":76561198063492110,"connected_time":5413000000000,"state":"active","ping":79},{"user_id":485,"name":"Vastly Rigged","steam_id":76561198212991935,"connected_time":2470000000000,"state":"active","ping":96}]},{"server_id":40,"name":"Uncletopia | London | 7 | Stopwatch","name_short":"lon-7","host":"lon-1.uk.uncletopia.com","port":27075,"enabled":true,"region":"eu","cc":"gb","latitude":51.509865,"longitude":-0.118092,"reserved":0,"last_update":"0001-01-01T00:00:00Z","name_a2s":"Uncletopia | London | 7 | Stopwatch","protocol":17,"map":"workshop/koth_product_final.ugc454272353","folder":"tf","game":"Team Fortress","app_id":440,"player_count":0,"max_players":24,"Bots":0,"server_type":"Dedicated","server_os":"Linux","password":true,"vac":true,"version":"7961495","steam_id":85568392924964314,"keywords":["cp","nocrits","nodmgspread","uncletopia"],"game_id":440,"stv_port":27076,"stv_name":"Uncletopia | London | 7 | Stopwatch | STV","players":null},{"server_id":41,"name":"Uncletopia | London | 8 | Community","name_short":"lon-8","host":"lon-1.uk.uncletopia.com","port":27085,"enabled":true,"region":"eu","cc":"gb","latitude":51.509865,"longitude":-0.118092,"reserved":0,"last_update":"0001-01-01T00:00:00Z","name_a2s":"Uncletopia | London | 8 | Community","protocol":17,"map":"workshop/koth_kemptown_rc1.ugc767410655","folder":"tf","game":"Team Fortress","app_id":440,"player_count":0,"max_players":24,"Bots":0,"server_type":"Dedicated","server_os":"Linux","password":true,"vac":true,"version":"7961495","steam_id":85568392924964315,"keywords":["cp","nocrits","nodmgspread","uncletopia"],"game_id":440,"stv_port":27086,"stv_name":"Uncletopia | London | 8 | Community | STV","players":null},{"server_id":300,"name":"Uncletopia | Montréal | 1 | One Thousand Uncles","name_short":"mtl-1","host":"mtl-1.ca.uncletopia.com","port":27015,"enabled":true,"region":"us-east","cc":"ca","latitude":45.50889,"longitude":-73.56167,"reserved":0,"last_update":"0001-01-01T00:00:00Z","name_a2s":"","protocol":0,"map":"","folder":"","game":"","app_id":0,"player_count":0,"max_players":0,"Bots":0,"server_type":"","server_os":"","password":false,"vac":false,"version":"","steam_id":0,"keywords":null,"game_id":0,"stv_port":0,"stv_name":"","players":null},{"server_id":301,"name":"Uncletopia | Montréal | 2 | One Thousand Uncles","name_short":"mtl-2","host":"mtl-1.ca.uncletopia.com","port":27025,"enabled":true,"region":"us-east","cc":"ca","latitude":45.50889,"longitude":-73.56167,"reserved":0,"last_update":"0001-01-01T00:00:00Z","name_a2s":"","protocol":0,"map":"","folder":"","game":"","app_id":0,"player_count":2,"max_players":0,"Bots":0,"server_type":"","server_os":"","password":false,"vac":false,"version":"","steam_id":0,"keywords":null,"game_id":0,"stv_port":0,"stv_name":"","players":[{"user_id":2,"name":"Willi the Gifter of Chaos","steam_id":76561198066508251,"connected_time":3156000000000,"state":"active","ping":46},{"user_id":35,"name":"pan","steam_id":76561199019732036,"connected_time":56000000000,"state":"active","ping":59}]},{"server_id":302,"name":"Uncletopia | Montréal | 3 | One Thousand Uncles","name_short":"mtl-3","host":"mtl-1.ca.uncletopia.com","port":27035,"enabled":true,"region":"us-east","cc":"ca","latitude":45.50889,"longitude":-73.56167,"reserved":0,"last_update":"0001-01-01T00:00:00Z","name_a2s":"","protocol":0,"map":"","folder":"","game":"","app_id":0,"player_count":1,"max_players":0,"Bots":0,"server_type":"","server_os":"","password":false,"vac":false,"version":"","steam_id":0,"keywords":null,"game_id":0,"stv_port":0,"stv_name":"","players":[{"user_id":111,"name":"+==[:::::::::::::::::::::::\u003e","steam_id":76561199051212534,"connected_time":64000000000,"state":"active","ping":48}]},{"server_id":13,"name":"Uncletopia | New York City | 1 | All Maps","name_short":"nyc-1","host":"nyc-1.us.uncletopia.com","port":27015,"enabled":true,"region":"us-east","cc":"us","latitude":40.73061,"longitude":-73.93524,"reserved":0,"last_update":"0001-01-01T00:00:00Z","name_a2s":"Uncletopia | New York City | 1 | All Maps","protocol":17,"map":"pl_upward","folder":"tf","game":"Team Fortress","app_id":440,"player_count":24,"max_players":24,"Bots":0,"server_type":"Dedicated","server_os":"Linux","password":true,"vac":true,"version":"7961495","steam_id":85568392924469993,"keywords":["nocrits","nodmgspread","payload","uncletopia"],"game_id":440,"stv_port":27016,"stv_name":"Uncletopia | New York City | 1 | All Maps | STV","players":[{"user_id":161,"name":"backwoods","steam_id":76561198328109873,"connected_time":457000000000,"state":"active","ping":57},{"user_id":129,"name":"dzcreeper","steam_id":76561198072250723,"connected_time":2345000000000,"state":"active","ping":108},{"user_id":46,"name":"FrosbeeChill","steam_id":76561198182510862,"connected_time":8547000000000,"state":"active","ping":55},{"user_id":136,"name":"Hi, I'm Jesus","steam_id":76561198015327152,"connected_time":1141000000000,"state":"active","ping":53},{"user_id":149,"name":"tired.","steam_id":76561198838223023,"connected_time":833000000000,"state":"active","ping":60},{"user_id":158,"name":"drifter","steam_id":76561197980692654,"connected_time":533000000000,"state":"active","ping":45},{"user_id":132,"name":"flashwingfan2010","steam_id":76561199056223827,"connected_time":2229000000000,"state":"active","ping":48},{"user_id":162,"name":"the sludge","steam_id":76561198268816354,"connected_time":446000000000,"state":"active","ping":69},{"user_id":143,"name":"YouR dad","steam_id":76561198044013623,"connected_time":989000000000,"state":"active","ping":75},{"user_id":107,"name":"ElElliot","steam_id":76561198842278840,"connected_time":4412000000000,"state":"active","ping":69},{"user_id":170,"name":"Rated_C","steam_id":76561199226478414,"connected_time":262000000000,"state":"active","ping":99},{"user_id":164,"name":"Lemon Soda","steam_id":76561198140208761,"connected_time":367000000000,"state":"active","ping":54},{"user_id":157,"name":"joachym","steam_id":76561198428579761,"connected_time":597000000000,"state":"active","ping":151},{"user_id":125,"name":"I Missed","steam_id":76561199128672031,"connected_time":2514000000000,"state":"active","ping":58},{"user_id":167,"name":"your moms car","steam_id":76561199389283507,"connected_time":351000000000,"state":"active","ping":75},{"user_id":102,"name":"StretchySnail59","steam_id":76561198073535005,"connected_time":5262000000000,"state":"active","ping":69},{"user_id":165,"name":"DrZerg","steam_id":76561198071810495,"connected_time":366000000000,"state":"active","ping":161},{"user_id":89,"name":"Pugzilla","steam_id":76561198108088960,"connected_time":6599000000000,"state":"active","ping":44},{"user_id":166,"name":"Madeline","steam_id":76561199088573055,"connected_time":352000000000,"state":"active","ping":97},{"user_id":152,"name":"Reiner","steam_id":76561199201762178,"connected_time":821000000000,"state":"active","ping":84},{"user_id":168,"name":"MrDudeMan","steam_id":76561198959351282,"connected_time":348000000000,"state":"active","ping":78},{"user_id":131,"name":"o defensor do estupro","steam_id":76561199503705310,"connected_time":2321000000000,"state":"active","ping":39},{"user_id":142,"name":"Foolie","steam_id":76561198291741747,"connected_time":1036000000000,"state":"active","ping":86},{"user_id":74,"name":"Fly_Johnson","steam_id":76561198882285873,"connected_time":7368000000000,"state":"active","ping":47}]},{"server_id":14,"name":"Uncletopia | New York City | 2 | All Maps","name_short":"nyc-2","host":"nyc-1.us.uncletopia.com","port":27025,"enabled":true,"region":"us-east","cc":"us","latitude":40.73061,"longitude":-73.93524,"reserved":0,"last_update":"0001-01-01T00:00:00Z","name_a2s":"Uncletopia | New York City | 2 | All Maps","protocol":17,"map":"pl_swiftwater_final1","folder":"tf","game":"Team Fortress","app_id":440,"player_count":4,"max_players":24,"Bots":0,"server_type":"Dedicated","server_os":"Linux","password":true,"vac":true,"version":"7961495","steam_id":85568392924469994,"keywords":["nocrits","nodmgspread","payload","uncletopia"],"game_id":440,"stv_port":27026,"stv_name":"Uncletopia | New York City | 2 | All Maps | STV","players":[{"user_id":256,"name":"jmgstartan618 [GL]","steam_id":76561198136194367,"connected_time":728000000000,"state":"active","ping":36},{"user_id":228,"name":"Carson","steam_id":76561198076771071,"connected_time":2956000000000,"state":"active","ping":58},{"user_id":259,"name":"imng","steam_id":76561198014988031,"connected_time":304000000000,"state":"active","ping":73},{"user_id":227,"name":"kiwiichie ₍ᐢᐢ₎","steam_id":76561198315449521,"connected_time":3686000000000,"state":"active","ping":84}]},{"server_id":15,"name":"Uncletopia | New York City | 3 | Stopwatch","name_short":"nyc-3","host":"nyc-1.us.uncletopia.com","port":27035,"enabled":true,"region":"us-east","cc":"us","latitude":40.73061,"longitude":-73.93524,"reserved":0,"last_update":"0001-01-01T00:00:00Z","name_a2s":"Uncletopia | New York City | 3 | Stopwatch","protocol":17,"map":"workshop/pl_barnblitz_pro7.ugc582280235","folder":"tf","game":"Team Fortress","app_id":440,"player_count":0,"max_players":24,"Bots":0,"server_type":"Dedicated","server_os":"Linux","password":true,"vac":true,"version":"7961495","steam_id":85568392924742820,"keywords":["nocrits","nodmgspread","payload","uncletopia"],"game_id":440,"stv_port":27036,"stv_name":"Uncletopia | New York City | 3 | Stopwatch | STV","players":null},{"server_id":16,"name":"Uncletopia | New York City | 4 | Community","name_short":"nyc-4","host":"nyc-1.us.uncletopia.com","port":27045,"enabled":true,"region":"us-east","cc":"us","latitude":40.73061,"longitude":-73.93524,"reserved":0,"last_update":"0001-01-01T00:00:00Z","name_a2s":"Uncletopia | New York City | 4 | Community","protocol":17,"map":"workshop/koth_ramjam_rc1.ugc459778887","folder":"tf","game":"Team Fortress","app_id":440,"player_count":0,"max_players":24,"Bots":0,"server_type":"Dedicated","server_os":"Linux","password":true,"vac":true,"version":"7961495","steam_id":85568392924742821,"keywords":["cp","nocrits","nodmgspread","uncletopia"],"game_id":440,"stv_port":27046,"stv_name":"Uncletopia | New York City | 4 | Community | STV","players":null},{"server_id":142,"name":"Uncletopia | São Paulo | 1 | All Maps","name_short":"sao-1","host":"sao-1.br.uncletopia.com","port":27015,"enabled":true,"region":"sa","cc":"br","latitude":-23.533773,"longitude":-46.62529,"reserved":0,"last_update":"0001-01-01T00:00:00Z","name_a2s":"Uncletopia | São Paulo | 1 | All Maps","protocol":17,"map":"koth_highpass","folder":"tf","game":"Team Fortress","app_id":440,"player_count":0,"max_players":24,"Bots":0,"server_type":"Dedicated","server_os":"Linux","password":true,"vac":true,"version":"7961495","steam_id":85568392924469996,"keywords":["cp","nocrits","nodmgspread","uncletopia"],"game_id":440,"stv_port":27016,"stv_name":"Uncletopia | São Paulo | 1 | All Maps | STV","players":null},{"server_id":143,"name":"Uncletopia | São Paulo | 2 | Community","name_short":"sao-2","host":"sao-2.br.uncletopia.com","port":27015,"enabled":true,"region":"sa","cc":"br","latitude":-23.533773,"longitude":-46.62529,"reserved":0,"last_update":"0001-01-01T00:00:00Z","name_a2s":"Uncletopia | São Paulo | 2 | Community","protocol":17,"map":"workshop/cp_sulfur_rc2.ugc619869471","folder":"tf","game":"Team Fortress","app_id":440,"player_count":0,"max_players":24,"Bots":0,"server_type":"Dedicated","server_os":"Linux","password":true,"vac":true,"version":"7961495","steam_id":85568392924485349,"keywords":["cp","nocrits","nodmgspread","uncletopia"],"game_id":440,"stv_port":27016,"stv_name":"Uncletopia | São Paulo | 2 | Community | STV","players":null},{"server_id":7,"name":"Uncletopia | Seattle | 1 | All Maps","name_short":"sea-1","host":"sea-1.us.uncletopia.com","port":27015,"enabled":true,"region":"us-west","cc":"us","latitude":47.608013,"longitude":-122.33517,"reserved":0,"last_update":"0001-01-01T00:00:00Z","name_a2s":"Uncletopia | Seattle | 1 | All Maps","protocol":17,"map":"pl_badwater","folder":"tf","game":"Team Fortress","app_id":440,"player_count":24,"max_players":24,"Bots":0,"server_type":"Dedicated","server_os":"Linux","password":true,"vac":true,"version":"7961495","steam_id":85568392924469997,"keywords":["nocrits","nodmgspread","payload","uncletopia"],"game_id":440,"stv_port":27016,"stv_name":"Uncletopia | Seattle | 1 | All Maps | STV","players":[{"user_id":565,"name":"MacchuPeachu","steam_id":76561199093242587,"connected_time":2446000000000,"state":"active","ping":62},{"user_id":546,"name":"Dongus","steam_id":76561197979056451,"connected_time":3128000000000,"state":"active","ping":54},{"user_id":519,"name":"Rat Smoking a big cigar","steam_id":76561198090419068,"connected_time":5118000000000,"state":"active","ping":72},{"user_id":573,"name":"sadlaxx","steam_id":76561198061354919,"connected_time":1870000000000,"state":"active","ping":70},{"user_id":594,"name":"C^a^L","steam_id":76561198241124222,"connected_time":484000000000,"state":"active","ping":68},{"user_id":530,"name":"moe","steam_id":76561198929586245,"connected_time":4424000000000,"state":"active","ping":73},{"user_id":575,"name":"Peppy","steam_id":76561198866629645,"connected_time":1478000000000,"state":"active","ping":58},{"user_id":564,"name":"CHARLEMAGNE","steam_id":76561198042455103,"connected_time":2473000000000,"state":"active","ping":48},{"user_id":578,"name":"Punished Jeff #NeverSimpAgain","steam_id":76561198304252584,"connected_time":1023000000000,"state":"active","ping":72},{"user_id":595,"name":"Kuwait Grips","steam_id":76561198292689973,"connected_time":473000000000,"state":"active","ping":93},{"user_id":562,"name":"mobtownUSA","steam_id":76561198393054672,"connected_time":2541000000000,"state":"active","ping":87},{"user_id":580,"name":"Rennsellaer","steam_id":76561198096207580,"connected_time":989000000000,"state":"active","ping":90},{"user_id":581,"name":"DaddyGalaxy","steam_id":76561198139697796,"connected_time":973000000000,"state":"active","ping":56},{"user_id":588,"name":"Legendary Gunther","steam_id":76561198441804455,"connected_time":797000000000,"state":"active","ping":106},{"user_id":548,"name":"Mer","steam_id":76561198192171041,"connected_time":3124000000000,"state":"active","ping":152},{"user_id":596,"name":"miscellaneous","steam_id":76561199436642954,"connected_time":465000000000,"state":"active","ping":51},{"user_id":552,"name":"Set","steam_id":76561198063949642,"connected_time":3094000000000,"state":"active","ping":41},{"user_id":598,"name":"RedlineRush","steam_id":76561198122437356,"connected_time":54000000000,"state":"active","ping":40},{"user_id":593,"name":"vfa","steam_id":76561198055729118,"connected_time":590000000000,"state":"active","ping":53},{"user_id":585,"name":"GoblinActual","steam_id":76561198330743199,"connected_time":869000000000,"state":"active","ping":76},{"user_id":597,"name":"Tapler","steam_id":76561198338119327,"connected_time":418000000000,"state":"active","ping":37},{"user_id":586,"name":"C-Kitt","steam_id":76561199048854572,"connected_time":810000000000,"state":"active","ping":178},{"user_id":559,"name":"Whimsy!","steam_id":76561197989578836,"connected_time":2846000000000,"state":"active","ping":62},{"user_id":591,"name":"Hexakosioihexekontahexaphobia","steam_id":76561198058864058,"connected_time":731000000000,"state":"active","ping":121}]},{"server_id":119,"name":"Uncletopia | Seattle | 2 | All Maps","name_short":"sea-2","host":"sea-1.us.uncletopia.com","port":27025,"enabled":true,"region":"us-west","cc":"us","latitude":47.608013,"longitude":-122.33517,"reserved":0,"last_update":"0001-01-01T00:00:00Z","name_a2s":"Uncletopia | Seattle | 2 | All Maps","protocol":17,"map":"koth_cascade","folder":"tf","game":"Team Fortress","app_id":440,"player_count":0,"max_players":24,"Bots":0,"server_type":"Dedicated","server_os":"Linux","password":true,"vac":true,"version":"7961495","steam_id":85568392924469998,"keywords":["cp","nocrits","nodmgspread","uncletopia"],"game_id":440,"stv_port":27026,"stv_name":"Uncletopia | Seattle | 2 | All Maps | STV","players":null},{"server_id":406,"name":"Uncletopia | Seattle | 3 | Stopwatch","name_short":"sea-3","host":"sea-1.us.uncletopia.com","port":27035,"enabled":true,"region":"us-west","cc":"us","latitude":47.608013,"longitude":-122.33517,"reserved":0,"last_update":"0001-01-01T00:00:00Z","name_a2s":"Uncletopia | Seattle | 3 | Stopwatch","protocol":17,"map":"pl_pier","folder":"tf","game":"Team Fortress","app_id":440,"player_count":0,"max_players":24,"Bots":0,"server_type":"Dedicated","server_os":"Linux","password":true,"vac":true,"version":"7961495","steam_id":85568392924515217,"keywords":["nocrits","nodmgspread","payload","uncletopia"],"game_id":440,"stv_port":27036,"stv_name":"Uncletopia | Seattle | 3 | Stopwatch | STV","players":null},{"server_id":17,"name":"Uncletopia | San Francisco | 1 | All Maps","name_short":"sfo-1","host":"sfo-1.us.uncletopia.com","port":27015,"enabled":true,"region":"us-west","cc":"us","latitude":37.77397,"longitude":-122.4313,"reserved":0,"last_update":"0001-01-01T00:00:00Z","name_a2s":"Uncletopia | San Francisco | 1 | All Maps","protocol":17,"map":"koth_cascade","folder":"tf","game":"Team Fortress","app_id":440,"player_count":0,"max_players":24,"Bots":0,"server_type":"Dedicated","server_os":"Linux","password":true,"vac":true,"version":"7961495","steam_id":85568392924469999,"keywords":["cp","nocrits","nodmgspread","uncletopia"],"game_id":440,"stv_port":27016,"stv_name":"Uncletopia | San Francisco | 1 | All Maps | STV","players":null},{"server_id":18,"name":"Uncletopia | San Francisco | 2 | All Maps","name_short":"sfo-2","host":"sfo-1.us.uncletopia.com","port":27025,"enabled":true,"region":"us-west","cc":"us","latitude":37.77397,"longitude":-122.4313,"reserved":0,"last_update":"0001-01-01T00:00:00Z","name_a2s":"Uncletopia | San Francisco | 2 | All Maps","protocol":17,"map":"koth_highpass","folder":"tf","game":"Team Fortress","app_id":440,"player_count":0,"max_players":24,"Bots":0,"server_type":"Dedicated","server_os":"Linux","password":true,"vac":true,"version":"7961495","steam_id":85568392924470000,"keywords":["cp","nocrits","nodmgspread","uncletopia"],"game_id":440,"stv_port":27026,"stv_name":"Uncletopia | San Francisco | 2 | All Maps | STV","players":null},{"server_id":19,"name":"Uncletopia | San Francisco | 3 | Stopwatch","name_short":"sfo-3","host":"sfo-1.us.uncletopia.com","port":27035,"enabled":true,"region":"us-west","cc":"us","latitude":37.77397,"longitude":-122.4313,"reserved":0,"last_update":"0001-01-01T00:00:00Z","name_a2s":"Uncletopia | San Francisco | 3 | Stopwatch","protocol":17,"map":"pl_pier","folder":"tf","game":"Team Fortress","app_id":440,"player_count":0,"max_players":24,"Bots":0,"server_type":"Dedicated","server_os":"Linux","password":true,"vac":true,"version":"7961495","steam_id":85568392924742824,"keywords":["nocrits","nodmgspread","payload","uncletopia"],"game_id":440,"stv_port":27036,"stv_name":"Uncletopia | San Francisco | 3 | Stopwatch | STV","players":null},{"server_id":20,"name":"Uncletopia | San Francisco | 4 | Community","name_short":"sfo-4","host":"sfo-1.us.uncletopia.com","port":27045,"enabled":true,"region":"us-west","cc":"us","latitude":37.77397,"longitude":-122.4313,"reserved":0,"last_update":"0001-01-01T00:00:00Z","name_a2s":"Uncletopia | San Francisco | 4 | Community","protocol":17,"map":"pl_pier","folder":"tf","game":"Team Fortress","app_id":440,"player_count":0,"max_players":24,"Bots":0,"server_type":"Dedicated","server_os":"Linux","password":true,"vac":true,"version":"7961495","steam_id":85568392924742826,"keywords":["nocrits","nodmgspread","payload","uncletopia"],"game_id":440,"stv_port":27046,"stv_name":"Uncletopia | San Francisco | 4 | Community | STV","players":null},{"server_id":141,"name":"Uncletopia | Sydney | 1 | All Maps","name_short":"syd-1","host":"syd-1.au.uncletopia.com","port":27015,"enabled":true,"region":"au","cc":"au","latitude":-33.865143,"longitude":151.2099,"reserved":0,"last_update":"0001-01-01T00:00:00Z","name_a2s":"Uncletopia | Sydney | 1 | All Maps","protocol":17,"map":"koth_viaduct","folder":"tf","game":"Team Fortress","app_id":440,"player_count":0,"max_players":24,"Bots":0,"server_type":"Dedicated","server_os":"Linux","password":true,"vac":true,"version":"7961495","steam_id":85568392924470001,"keywords":["cp","nocrits","nodmgspread","uncletopia"],"game_id":440,"stv_port":27016,"stv_name":"Uncletopia | Sydney | 1 | All Maps | STV","players":null},{"server_id":123,"name":"Uncletopia | Sydney | 2 | All Maps","name_short":"syd-2","host":"syd-1.au.uncletopia.com","port":27025,"enabled":true,"region":"au","cc":"au","latitude":-33.865143,"longitude":151.2099,"reserved":0,"last_update":"0001-01-01T00:00:00Z","name_a2s":"Uncletopia | Sydney | 2 | All Maps","protocol":17,"map":"koth_lakeside_final","folder":"tf","game":"Team Fortress","app_id":440,"player_count":0,"max_players":24,"Bots":0,"server_type":"Dedicated","server_os":"Linux","password":true,"vac":true,"version":"7961495","steam_id":85568392924470002,"keywords":["cp","nocrits","nodmgspread","uncletopia"],"game_id":440,"stv_port":27026,"stv_name":"Uncletopia | Sydney | 2 | All Maps | STV","players":null},{"server_id":395,"name":"Uncletopia | Sydney | 3 | All Maps","name_short":"syd-3","host":"syd-1.au.uncletopia.com","port":27035,"enabled":true,"region":"au","cc":"au","latitude":-33.865143,"longitude":151.2099,"reserved":0,"last_update":"0001-01-01T00:00:00Z","name_a2s":"Uncletopia | Sydney | 3 | All Maps","protocol":17,"map":"pl_frontier_final","folder":"tf","game":"Team Fortress","app_id":440,"player_count":0,"max_players":24,"Bots":0,"server_type":"Dedicated","server_os":"Linux","password":true,"vac":true,"version":"7961495","steam_id":85568392925194467,"keywords":["nocrits","nodmgspread","payload","uncletopia"],"game_id":440,"stv_port":27036,"stv_name":"Uncletopia | Sydney | 3 | All Maps | STV","players":null},{"server_id":396,"name":"Uncletopia | Sydney | 4 | All Maps","name_short":"syd-4","host":"syd-1.au.uncletopia.com","port":27045,"enabled":true,"region":"au","cc":"au","latitude":-33.865143,"longitude":151.2099,"reserved":0,"last_update":"0001-01-01T00:00:00Z","name_a2s":"Uncletopia | Sydney | 4 | All Maps","protocol":17,"map":"cp_process_final","folder":"tf","game":"Team Fortress","app_id":440,"player_count":0,"max_players":24,"Bots":0,"server_type":"Dedicated","server_os":"Linux","password":true,"vac":true,"version":"7961495","steam_id":85568392925397958,"keywords":["cp","nocrits","nodmgspread","uncletopia"],"game_id":440,"stv_port":27046,"stv_name":"Uncletopia | Sydney | 4 | All Maps | STV","players":null},{"server_id":58,"name":"Uncletopia | Sydney | 5 | Stopwatch","name_short":"syd-5","host":"syd-1.au.uncletopia.com","port":27055,"enabled":true,"region":"au","cc":"au","latitude":-33.865143,"longitude":151.2099,"reserved":0,"last_update":"0001-01-01T00:00:00Z","name_a2s":"Uncletopia | Sydney | 5 | Stopwatch","protocol":17,"map":"pl_frontier_final","folder":"tf","game":"Team Fortress","app_id":440,"player_count":0,"max_players":24,"Bots":0,"server_type":"Dedicated","server_os":"Linux","password":true,"vac":true,"version":"7961495","steam_id":85568392925397959,"keywords":["nocrits","nodmgspread","payload","uncletopia"],"game_id":440,"stv_port":27056,"stv_name":"Uncletopia | Sydney | 5 | Stopwatch | STV","players":null},{"server_id":59,"name":"Uncletopia | Sydney | 6 | Community","name_short":"syd-6","host":"syd-1.au.uncletopia.com","port":27065,"enabled":true,"region":"au","cc":"au","latitude":-33.865143,"longitude":151.2099,"reserved":0,"last_update":"0001-01-01T00:00:00Z","name_a2s":"Uncletopia | Sydney | 6 | Community","protocol":17,"map":"cp_sunshine","folder":"tf","game":"Team Fortress","app_id":440,"player_count":0,"max_players":24,"Bots":0,"server_type":"Dedicated","server_os":"Linux","password":true,"vac":true,"version":"7961495","steam_id":85568392925397960,"keywords":["cp","nocrits","nodmgspread","uncletopia"],"game_id":440,"stv_port":27066,"stv_name":"Uncletopia | Sydney | 6 | Community | STV","players":null},{"server_id":49,"name":"Uncletopia | Warsaw | 1 | One Thousand Uncles","name_short":"waw-1","host":"waw-1.pl.uncletopia.com","port":27015,"enabled":true,"region":"eu","cc":"pl","latitude":52.2297,"longitude":21.017532,"reserved":0,"last_update":"0001-01-01T00:00:00Z","name_a2s":"Uncletopia | Warsaw | 1 | One Thousand Uncles","protocol":17,"map":"pl_goldrush","folder":"tf","game":"Team Fortress","app_id":440,"player_count":24,"max_players":32,"Bots":16,"server_type":"Dedicated","server_os":"Linux","password":true,"vac":true,"version":"7961495","steam_id":85568392925397850,"keywords":["alltalk","bots","danepve","increased_maxplayers","nocrits","norespawntime","payload","uncletopia"],"game_id":440,"stv_port":0,"stv_name":"","players":[{"user_id":632,"name":"hmm yes","steam_id":76561198170322809,"connected_time":292000000000,"state":"active","ping":73},{"user_id":627,"name":"erdemozgurytt","steam_id":76561199500260951,"connected_time":1644000000000,"state":"active","ping":91},{"user_id":621,"name":"tyroksi :D","steam_id":76561198103875245,"connected_time":2591000000000,"state":"active","ping":105},{"user_id":619,"name":"Who?","steam_id":76561198271901063,"connected_time":2831000000000,"state":"active","ping":80},{"user_id":536,"name":"yes man","steam_id":76561199403589748,"connected_time":9381000000000,"state":"active","ping":157},{"user_id":611,"name":"( ͠° ͟ʖ ͡°)","steam_id":76561199362861027,"connected_time":3983000000000,"state":"active","ping":320},{"user_id":631,"name":"sad bitch kiki","steam_id":76561198838277022,"connected_time":568000000000,"state":"active","ping":46},{"user_id":633,"name":"tralalaOuiOui","steam_id":76561197963471507,"connected_time":277000000000,"state":"active","ping":66}]},{"server_id":50,"name":"Uncletopia | Warsaw | 2 | One Thousand Uncles","name_short":"waw-2","host":"waw-1.pl.uncletopia.com","port":27025,"enabled":true,"region":"eu","cc":"pl","latitude":52.2297,"longitude":21.017532,"reserved":0,"last_update":"0001-01-01T00:00:00Z","name_a2s":"Uncletopia | Warsaw | 2 | One Thousand Uncles","protocol":17,"map":"cp_egypt_final","folder":"tf","game":"Team Fortress","app_id":440,"player_count":0,"max_players":32,"Bots":0,"server_type":"Dedicated","server_os":"Linux","password":true,"vac":true,"version":"7961495","steam_id":85568392925397851,"keywords":["alltalk","cp","danepve","increased_maxplayers","nocrits","norespawntime","uncletopia"],"game_id":440,"stv_port":0,"stv_name":"","players":null},{"server_id":51,"name":"Uncletopia | Warsaw | 3 | All Maps","name_short":"waw-3","host":"waw-1.pl.uncletopia.com","port":27035,"enabled":true,"region":"eu","cc":"pl","latitude":52.2297,"longitude":21.017532,"reserved":0,"last_update":"0001-01-01T00:00:00Z","name_a2s":"Uncletopia | Warsaw | 3 | All Maps","protocol":17,"map":"cp_dustbowl","folder":"tf","game":"Team Fortress","app_id":440,"player_count":0,"max_players":24,"Bots":0,"server_type":"Dedicated","server_os":"Linux","password":true,"vac":true,"version":"7961495","steam_id":85568392925397852,"keywords":["cp","nocrits","nodmgspread","uncletopia"],"game_id":440,"stv_port":27036,"stv_name":"Uncletopia | Warsaw | 3 | All Maps | STV","players":null},{"server_id":52,"name":"Uncletopia | Warsaw | 4 | All Maps","name_short":"waw-4","host":"waw-1.pl.uncletopia.com","port":27045,"enabled":true,"region":"eu","cc":"pl","latitude":52.2297,"longitude":21.017532,"reserved":0,"last_update":"0001-01-01T00:00:00Z","name_a2s":"Uncletopia | Warsaw | 4 | All Maps","protocol":17,"map":"cp_coldfront","folder":"tf","game":"Team Fortress","app_id":440,"player_count":0,"max_players":24,"Bots":0,"server_type":"Dedicated","server_os":"Linux","password":true,"vac":true,"version":"7961495","steam_id":85568392925397853,"keywords":["cp","nocrits","nodmgspread","uncletopia"],"game_id":440,"stv_port":27046,"stv_name":"Uncletopia | Warsaw | 4 | All Maps | STV","players":null},{"server_id":53,"name":"Uncletopia | Warsaw | 5 | Stopwatch","name_short":"waw-5","host":"waw-1.pl.uncletopia.com","port":27055,"enabled":true,"region":"eu","cc":"pl","latitude":52.2297,"longitude":21.017532,"reserved":0,"last_update":"0001-01-01T00:00:00Z","name_a2s":"Uncletopia | Warsaw | 5 | Stopwatch","protocol":17,"map":"workshop/pl_badwater_pro_v12.ugc2142942074","folder":"tf","game":"Team Fortress","app_id":440,"player_count":0,"max_players":24,"Bots":0,"server_type":"Dedicated","server_os":"Linux","password":true,"vac":true,"version":"7961495","steam_id":85568392925397854,"keywords":["nocrits","nodmgspread","payload","uncletopia"],"game_id":440,"stv_port":27056,"stv_name":"Uncletopia | Warsaw | 5 | Stopwatch | STV","players":null},{"server_id":54,"name":"Uncletopia | Warsaw | 6 | Community","name_short":"waw-6","host":"waw-1.pl.uncletopia.com","port":27065,"enabled":true,"region":"eu","cc":"pl","latitude":52.2297,"longitude":21.017532,"reserved":0,"last_update":"0001-01-01T00:00:00Z","name_a2s":"Uncletopia | Warsaw | 6 | Community","protocol":17,"map":"workshop/rd_asteroid_redux_b1.ugc2154902912","folder":"tf","game":"Team Fortress","app_id":440,"player_count":0,"max_players":24,"Bots":0,"server_type":"Dedicated","server_os":"Linux","password":true,"vac":true,"version":"7961495","steam_id":85568392925397856,"keywords":["beta","nocrits","nodmgspread","rd","uncletopia"],"game_id":440,"stv_port":27066,"stv_name":"Uncletopia | Warsaw | 6 | Community | STV","players":null}]}