{"status":true,"message":"","result":[{"server_id":9,"name":"Uncletopia | Atlanta | 1 | All Maps","name_short":"atl-1","host":"atl-1.us.uncletopia.com","port":27015,"enabled":true,"region":"us-east","cc":"us","latitude":33.753746,"longitude":-84.38633,"reserved":0,"last_update":"0001-01-01T00:00:00Z","name_a2s":"Uncletopia | Atlanta | 1 | All Maps","protocol":17,"map":"pl_badwater","folder":"tf","game":"Team Fortress","app_id":440,"player_count":10,"max_players":24,"Bots":0,"server_type":"Dedicated","server_os":"Linux","password":true,"vac":true,"version":"7757534","steam_id":85568392924469982,"keywords":["nocrits","nodmgspread","payload","uncletopia"],"game_id":440,"stv_port":27016,"stv_name":"Uncletopia | Atlanta | 1 | All Maps | STV","players":[{"user_id":779,"name":"shooty","steam_id":76561198128485603,"connected_time":156000000000,"state":"active","ping":43},{"user_id":772,"name":"Stargriefer190","steam_id":76561198996425356,"connected_time":1632000000000,"state":"active","ping":71},{"user_id":774,"name":"eBay","steam_id":76561198061214569,"connected_time":1129000000000,"state":"active","ping":93},{"user_id":768,"name":"John16Mark","steam_id":76561198119445407,"connected_time":2303000000000,"state":"active","ping":77},{"user_id":758,"name":"bibexual","steam_id":76561198086615208,"connected_time":3251000000000,"state":"active","ping":56},{"user_id":780,"name":"Genetic Komodo","steam_id":76561198174806758,"connected_time":105000000000,"state":"active","ping":46},{"user_id":775,"name":"jake1west","steam_id":76561199468452444,"connected_time":1028000000000,"state":"active","ping":122},{"user_id":730,"name":"lker","steam_id":76561197976975075,"connected_time":5129000000000,"state":"active","ping":31},{"user_id":753,"name":"Qwewi","steam_id":76561198303671197,"connected_time":3678000000000,"state":"active","ping":76},{"user_id":766,"name":"Shmoopy","steam_id":76561198030459152,"connected_time":2963000000000,"state":"active","ping":60}]},{"server_id":400,"name":"Uncletopia | Atlanta | 3 | Community","name_short":"atl-3","host":"atl-1.us.uncletopia.com","port":27035,"enabled":true,"region":"us-east","cc":"us","latitude":33.753746,"longitude":-84.38633,"reserved":0,"last_update":"0001-01-01T00:00:00Z","name_a2s":"Uncletopia | Atlanta | 3 | Community","protocol":17,"map":"workshop/koth_kemptown_rc1.ugc767410655","folder":"tf","game":"Team Fortress","app_id":440,"player_count":0,"max_players":32,"Bots":0,"server_type":"Dedicated","server_os":"Linux","password":true,"vac":true,"version":"7757534","steam_id":85568392924515187,"keywords":["cp","increased_maxplayers","nocrits","nodmgspread","uncletopia"],"game_id":440,"stv_port":27036,"stv_name":"Uncletopia | Atlanta | 3 | Community | STV","players":null},{"server_id":401,"name":"Uncletopia | Atlanta | 4 | No Payload","name_short":"atl-4","host":"atl-1.us.uncletopia.com","port":27045,"enabled":true,"region":"us-east","cc":"us","latitude":33.753746,"longitude":-84.38633,"reserved":0,"last_update":"0001-01-01T00:00:00Z","name_a2s":"","protocol":0,"map":"","folder":"","game":"","app_id":0,"player_count":0,"max_players":0,"Bots":0,"server_type":"","server_os":"","password":false,"vac":false,"version":"","steam_id":0,"keywords":null,"game_id":0,"stv_port":0,"stv_name":"","players":null},{"server_id":2,"name":"Uncletopia | Chicago | 1 | All Maps","name_short":"chi-1","host":"chi-1.us.uncletopia.com","port":27015,"enabled":true,"region":"us-central","cc":"us","latitude":41.881832,"longitude":-87.62318,"reserved":0,"last_update":"0001-01-01T00:00:00Z","name_a2s":"Uncletopia | Chicago | 1 | All Maps","protocol":17,"map":"pl_pier","folder":"tf","game":"Team Fortress","app_id":440,"player_count":24,"max_players":24,"Bots":0,"server_type":"Dedicated","server_os":"Linux","password":true,"vac":true,"version":"7757534","steam_id":85568392924469984,"keywords":["nocrits","nodmgspread","payload","uncletopia"],"game_id":440,"stv_port":27016,"stv_name":"Uncletopia | Chicago | 1 | All Maps | STV","players":[{"user_id":901,"name":"hud_saytext_time 0","steam_id":76561198010327228,"connected_time":2569000000000,"state":"active","ping":170},{"user_id":926,"name":"C papi","steam_id":76561198027779564,"connected_time":961000000000,"state":"active","ping":55},{"user_id":923,"name":"Strange Festive Femboy","steam_id":76561198050385093,"connected_time":1301000000000,"state":"active","ping":98},{"user_id":931,"name":"Jello","steam_id":76561198890633732,"connected_time":590000000000,"state":"active","ping":90},{"user_id":908,"name":"Kdash","steam_id":76561198043829155,"connected_time":2143000000000,"state":"active","ping":74},{"user_id":927,"name":"godtierJack.jpeg","steam_id":76561198089827454,"connected_time":960000000000,"state":"active","ping":58},{"user_id":924,"name":"Pootsworthy™","steam_id":76561198058802333,"connected_time":1201000000000,"state":"active","ping":119},{"user_id":909,"name":"Nolan","steam_id":76561198169648081,"connected_time":2129000000000,"state":"active","ping":88},{"user_id":875,"name":"Lore","steam_id":76561198098407538,"connected_time":4372000000000,"state":"active","ping":50},{"user_id":920,"name":"I bomb atomically","steam_id":76561198009818412,"connected_time":1673000000000,"state":"active","ping":75},{"user_id":906,"name":"prestige worldwide (wide)","steam_id":76561198045655893,"connected_time":2251000000000,"state":"active","ping":58},{"user_id":921,"name":"kiko","steam_id":76561198018564445,"connected_time":1663000000000,"state":"active","ping":69},{"user_id":907,"name":"Chrisscar","steam_id":76561198086298130,"connected_time":2249000000000,"state":"active","ping":103},{"user_id":896,"name":"Vladikr1","steam_id":76561198401495362,"connected_time":3362000000000,"state":"active","ping":58},{"user_id":886,"name":"trappy (showered)","steam_id":76561198402801140,"connected_time":3601000000000,"state":"active","ping":65},{"user_id":888,"name":"garbage (very bad)","steam_id":76561198172454407,"connected_time":3567000000000,"state":"active","ping":78},{"user_id":889,"name":"daemon","steam_id":76561198001541433,"connected_time":3564000000000,"state":"active","ping":60},{"user_id":900,"name":"gato","steam_id":76561198097588802,"connected_time":2905000000000,"state":"active","ping":47},{"user_id":932,"name":"SlippyPunk","steam_id":76561198048551455,"connected_time":572000000000,"state":"active","ping":87},{"user_id":919,"name":"for the king","steam_id":76561197973488858,"connected_time":1691000000000,"state":"active","ping":61},{"user_id":917,"name":"Pharthus","steam_id":76561198093866050,"connected_time":1719000000000,"state":"active","ping":93},{"user_id":911,"name":"NovaSc6ut","steam_id":76561198277163301,"connected_time":2013000000000,"state":"active","ping":72},{"user_id":902,"name":"Bliztank | RGL.gg","steam_id":76561198019252798,"connected_time":2397000000000,"state":"active","ping":60},{"user_id":933,"name":"trash beast","steam_id":76561198015792736,"connected_time":511000000000,"state":"active","ping":75}]},{"server_id":106,"name":"Uncletopia | Chicago | 2 | All Maps","name_short":"chi-2","host":"chi-1.us.uncletopia.com","port":27025,"enabled":true,"region":"us-central","cc":"us","latitude":41.881832,"longitude":-87.62318,"reserved":0,"last_update":"0001-01-01T00:00:00Z","name_a2s":"Uncletopia | Chicago | 2 | All Maps","protocol":17,"map":"pl_pier","folder":"tf","game":"Team Fortress","app_id":440,"player_count":14,"max_players":24,"Bots":0,"server_type":"Dedicated","server_os":"Linux","password":true,"vac":true,"version":"7757534","steam_id":85568392924469985,"keywords":["nocrits","nodmgspread","payload","uncletopia"],"game_id":440,"stv_port":27026,"stv_name":"Uncletopia | Chicago | 2 | All Maps | STV","players":[{"user_id":652,"name":"Epsilon","steam_id":76561198446977327,"connected_time":1014000000000,"state":"active","ping":71},{"user_id":661,"name":"doggirl dairy queen","steam_id":76561198039506482,"connected_time":389000000000,"state":"active","ping":51},{"user_id":662,"name":"Rari","steam_id":76561198128537564,"connected_time":376000000000,"state":"active","ping":44},{"user_id":647,"name":"Oniko","steam_id":76561198087703138,"connected_time":1208000000000,"state":"active","ping":61},{"user_id":650,"name":"MrhobbitRequiem","steam_id":76561198976215013,"connected_time":1051000000000,"state":"active","ping":69},{"user_id":648,"name":"MotherlyMistress","steam_id":76561199049881551,"connected_time":1180000000000,"state":"active","ping":65},{"user_id":651,"name":"Butterfly Pancakes","steam_id":76561198286158414,"connected_time":1041000000000,"state":"active","ping":107},{"user_id":655,"name":"name420","steam_id":76561198129374525,"connected_time":616000000000,"state":"active","ping":75},{"user_id":659,"name":"crackhead engineer","steam_id":76561199068606356,"connected_time":509000000000,"state":"active","ping":89},{"user_id":657,"name":"Ryan Lewis truther","steam_id":76561198050505826,"connected_time":531000000000,"state":"active","ping":74},{"user_id":658,"name":"Chillin Turt","steam_id":76561198025796849,"connected_time":516000000000,"state":"active","ping":73},{"user_id":660,"name":"Source Engine Enjoyer","steam_id":76561198403146542,"connected_time":500000000000,"state":"active","ping":82},{"user_id":637,"name":"heisenberg","steam_id":76561198075341060,"connected_time":2875000000000,"state":"active","ping":113},{"user_id":524,"name":"ZombieSkeletor2","steam_id":76561198244937990,"connected_time":14294000000000,"state":"active","ping":112}]},{"server_id":402,"name":"Uncletopia | Chicago | 3 | All Maps","name_short":"chi-3","host":"chi-1.us.uncletopia.com","port":27035,"enabled":true,"region":"us-central","cc":"us","latitude":41.881832,"longitude":-87.62318,"reserved":0,"last_update":"0001-01-01T00:00:00Z","name_a2s":"Uncletopia | Chicago | 3 | All Maps","protocol":17,"map":"pl_upward","folder":"tf","game":"Team Fortress","app_id":440,"player_count":0,"max_players":24,"Bots":0,"server_type":"Dedicated","server_os":"Linux","password":true,"vac":true,"version":"7757534","steam_id":85568392924515191,"keywords":["nocrits","nodmgspread","payload","uncletopia"],"game_id":440,"stv_port":27036,"stv_name":"Uncletopia | Chicago | 3 | All Maps | STV","players":null},{"server_id":403,"name":"Uncletopia | Chicago | 4 | All Maps","name_short":"chi-4","host":"chi-1.us.uncletopia.com","port":27045,"enabled":true,"region":"us-central","cc":"us","latitude":41.881832,"longitude":-87.62318,"reserved":0,"last_update":"0001-01-01T00:00:00Z","name_a2s":"Uncletopia | Chicago | 4 | All Maps","protocol":17,"map":"pl_frontier_final","folder":"tf","game":"Team Fortress","app_id":440,"player_count":24,"max_players":24,"Bots":0,"server_type":"Dedicated","server_os":"Linux","password":true,"vac":true,"version":"7757534","steam_id":85568392924515193,"keywords":["nocrits","nodmgspread","payload","uncletopia"],"game_id":440,"stv_port":27046,"stv_name":"Uncletopia | Chicago | 4 | All Maps | STV","players":[{"user_id":875,"name":"Salad","steam_id":76561198842089895,"connected_time":379000000000,"state":"active","ping":65},{"user_id":881,"name":"Raphael","steam_id":76561198101425586,"connected_time":127000000000,"state":"active","ping":93},{"user_id":856,"name":"Whirblewind","steam_id":76561197964722449,"connected_time":1609000000000,"state":"active","ping":67},{"user_id":883,"name":"Trusty","steam_id":76561198035444237,"connected_time":28000000000,"state":"active","ping":58},{"user_id":758,"name":"Nickel D","steam_id":76561197993588996,"connected_time":7776000000000,"state":"active","ping":77},{"user_id":816,"name":"AliCat","steam_id":76561198308360862,"connected_time":4270000000000,"state":"active","ping":84},{"user_id":845,"name":"TheUKnowWho","steam_id":76561198181418159,"connected_time":2448000000000,"state":"active","ping":74},{"user_id":872,"name":"Crazy face","steam_id":76561198035251337,"connected_time":482000000000,"state":"active","ping":76},{"user_id":858,"name":"enolteiii","steam_id":76561198140843225,"connected_time":1571000000000,"state":"active","ping":124},{"user_id":869,"name":"king of bogers","steam_id":76561198045731295,"connected_time":1194000000000,"state":"active","ping":63},{"user_id":882,"name":"Veirū Viseris","steam_id":76561197989857176,"connected_time":36000000000,"state":"spawning","ping":165},{"user_id":877,"name":"Tusk","steam_id":76561199066977033,"connected_time":307000000000,"state":"active","ping":72},{"user_id":870,"name":"RaidBoss","steam_id":76561198138777659,"connected_time":1008000000000,"state":"active","ping":143},{"user_id":851,"name":"ManicButtonMasher","steam_id":76561198026725131,"connected_time":2141000000000,"state":"active","ping":96},{"user_id":843,"name":"rudy","steam_id":76561198088712799,"connected_time":2559000000000,"state":"active","ping":77},{"user_id":876,"name":"Hurt Man","steam_id":76561197995238607,"connected_time":332000000000,"state":"active","ping":53},{"user_id":846,"name":"Squid121","steam_id":76561198038832034,"connected_time":2293000000000,"state":"active","ping":105},{"user_id":878,"name":"Blobulonn","steam_id":76561198247949502,"connected_time":299000000000,"state":"active","ping":50},{"user_id":868,"name":"The Trash Man","steam_id":76561198071375772,"connected_time":1262000000000,"state":"active","ping":53},{"user_id":847,"name":"k1tty","steam_id":76561198869348268,"connected_time":2260000000000,"state":"active","ping":104},{"user_id":867,"name":"seats","steam_id":76561197998756039,"connected_time":1356000000000,"state":"active","ping":100},{"user_id":839,"name":"CeigeBirb","steam_id":76561198068538473,"connected_time":3354000000000,"state":"active","ping":74},{"user_id":840,"name":"Fluffeline","steam_id":76561198352909489,"connected_time":3345000000000,"state":"active","ping":136},{"user_id":880,"name":"Werakzz","steam_id":76561199043947806,"connected_time":250000000000,"state":"active","ping":150}]},{"server_id":36,"name":"Uncletopia | Chicago | 5 | All Maps","name_short":"chi-5","host":"chi-2.us.uncletopia.com","port":27015,"enabled":true,"region":"us-central","cc":"us","latitude":41.881832,"longitude":-87.62318,"reserved":0,"last_update":"0001-01-01T00:00:00Z","name_a2s":"Uncletopia | Chicago | 5 | All Maps","protocol":17,"map":"pl_borneo","folder":"tf","game":"Team Fortress","app_id":440,"player_count":7,"max_players":24,"Bots":0,"server_type":"Dedicated","server_os":"Linux","password":true,"vac":true,"version":"7757534","steam_id":85568392924866362,"keywords":["nocrits","nodmgspread","payload","uncletopia"],"game_id":440,"stv_port":27016,"stv_name":"Uncletopia | Chicago | 5 | All Maps | STV","players":[{"user_id":1025,"name":"dwnkins","steam_id":76561198856016840,"connected_time":376000000000,"state":"active","ping":83},{"user_id":1026,"name":"Lazarust","steam_id":76561198355322731,"connected_time":202000000000,"state":"active","ping":76},{"user_id":992,"name":"Windex","steam_id":76561198105561395,"connected_time":3388000000000,"state":"active","ping":75},{"user_id":1006,"name":"Sapphireblitz","steam_id":76561198272635379,"connected_time":2317000000000,"state":"active","ping":75},{"user_id":1007,"name":"SuperFresh","steam_id":76561198200723198,"connected_time":2269000000000,"state":"active","ping":41},{"user_id":1016,"name":"SHADOW (he/him)","steam_id":76561198207768148,"connected_time":1749000000000,"state":"active","ping":116},{"user_id":1024,"name":"daxter4hire","steam_id":76561198250722116,"connected_time":442000000000,"state":"active","ping":65}]},{"server_id":37,"name":"Uncletopia | Chicago | 6 | All Maps","name_short":"chi-6","host":"chi-2.us.uncletopia.com","port":27025,"enabled":true,"region":"us-central","cc":"us","latitude":41.881832,"longitude":-87.62318,"reserved":0,"last_update":"0001-01-01T00:00:00Z","name_a2s":"Uncletopia | Chicago | 6 | All Maps","protocol":17,"map":"pl_goldrush","folder":"tf","game":"Team Fortress","app_id":440,"player_count":18,"max_players":24,"Bots":0,"server_type":"Dedicated","server_os":"Linux","password":true,"vac":true,"version":"7757534","steam_id":85568392924866363,"keywords":["nocrits","nodmgspread","payload","uncletopia"],"game_id":440,"stv_port":27026,"stv_name":"Uncletopia | Chicago | 6 | All Maps | STV","players":[{"user_id":415,"name":"Grayson","steam_id":76561198072228259,"connected_time":390000000000,"state":"active","ping":87},{"user_id":411,"name":"Snoopist","steam_id":76561198144023761,"connected_time":763000000000,"state":"active","ping":32},{"user_id":378,"name":"Too Lame 2 Name","steam_id":76561198390863385,"connected_time":5440000000000,"state":"active","ping":104},{"user_id":422,"name":"SomeFuckingGuy","steam_id":76561199239165015,"connected_time":39000000000,"state":"active","ping":74},{"user_id":395,"name":"gasparmx","steam_id":76561197998611994,"connected_time":3239000000000,"state":"active","ping":104},{"user_id":385,"name":"Wub","steam_id":76561198072947773,"connected_time":4415000000000,"state":"active","ping":53},{"user_id":396,"name":"CheeseCake488","steam_id":76561199407617942,"connected_time":3179000000000,"state":"active","ping":175},{"user_id":417,"name":"Nim","steam_id":76561198041236943,"connected_time":284000000000,"state":"active","ping":60},{"user_id":361,"name":"Vortigaunt","steam_id":76561198058653274,"connected_time":6629000000000,"state":"active","ping":100},{"user_id":393,"name":"Random Crit","steam_id":76561198334676366,"connected_time":3600000000000,"state":"active","ping":73},{"user_id":398,"name":"Bocchi the Rock","steam_id":76561198025668771,"connected_time":2965000000000,"state":"active","ping":121},{"user_id":418,"name":"〣dust〣 -she/her-","steam_id":76561198045218909,"connected_time":190000000000,"state":"active","ping":89},{"user_id":407,"name":"big ol' buford","steam_id":76561198290675957,"connected_time":1441000000000,"state":"active","ping":56},{"user_id":419,"name":"Yesterday's Grouse's Son","steam_id":76561198259873083,"connected_time":170000000000,"state":"active","ping":117},{"user_id":420,"name":"Lane","steam_id":76561197965828506,"connected_time":141000000000,"state":"active","ping":39},{"user_id":413,"name":"Jelqing Table","steam_id":76561198051373750,"connected_time":748000000000,"state":"active","ping":115},{"user_id":355,"name":"Black Mesa Scientist","steam_id":76561198064466577,"connected_time":7017000000000,"state":"active","ping":77},{"user_id":356,"name":"xivRocky","steam_id":76561198083184351,"connected_time":7004000000000,"state":"active","ping":96}]},{"server_id":38,"name":"Uncletopia | Chicago | 7 | Stopwatch Beta","name_short":"chi-7","host":"chi-2.us.uncletopia.com","port":27035,"enabled":true,"region":"us-central","cc":"us","latitude":41.881832,"longitude":-87.62318,"reserved":0,"last_update":"0001-01-01T00:00:00Z","name_a2s":"Uncletopia | Chicago | 7 | Stopwatch Beta","protocol":17,"map":"pl_upward","folder":"tf","game":"Team Fortress","app_id":440,"player_count":0,"max_players":24,"Bots":0,"server_type":"Dedicated","server_os":"Linux","password":true,"vac":true,"version":"7757534","steam_id":85568392924866364,"keywords":["nocrits","nodmgspread","payload","uncletopia"],"game_id":440,"stv_port":27036,"stv_name":"Uncletopia | Chicago | 7 | Stopwatch Beta | STV","players":null},{"server_id":39,"name":"Uncletopia | Chicago | 8 | Community","name_short":"chi-8","host":"chi-2.us.uncletopia.com","port":27045,"enabled":true,"region":"us-central","cc":"us","latitude":41.881832,"longitude":-87.62318,"reserved":0,"last_update":"0001-01-01T00:00:00Z","name_a2s":"Uncletopia | Chicago | 8 | Community","protocol":17,"map":"workshop/cp_snowbase_b18.ugc2081770490","folder":"tf","game":"Team Fortress","app_id":440,"player_count":0,"max_players":24,"Bots":0,"server_type":"Dedicated","server_os":"Linux","password":true,"vac":true,"version":"7757534","steam_id":85568392924866365,"keywords":["cp","nocrits","nodmgspread","uncletopia"],"game_id":440,"stv_port":27046,"stv_name":"Uncletopia | Chicago | 8 | Community | STV","players":null},{"server_id":8,"name":"Uncletopia | Dallas | 1 | All Maps","name_short":"dal-1","host":"dal-1.us.uncletopia.com","port":27015,"enabled":true,"region":"us-central","cc":"us","latitude":32.779167,"longitude":-96.80889,"reserved":0,"last_update":"0001-01-01T00:00:00Z","name_a2s":"Uncletopia | Dallas | 1 | All Maps","protocol":17,"map":"koth_lakeside_final","folder":"tf","game":"Team Fortress","app_id":440,"player_count":0,"max_players":24,"Bots":0,"server_type":"Dedicated","server_os":"Linux","password":true,"vac":true,"version":"7757534","steam_id":85568392924469986,"keywords":["cp","nocrits","nodmgspread","uncletopia"],"game_id":440,"stv_port":27016,"stv_name":"Uncletopia | Dallas | 1 | All Maps | STV","players":null},{"server_id":108,"name":"Uncletopia | Dallas | 2 | All Maps","name_short":"dal-2","host":"dal-1.us.uncletopia.com","port":27025,"enabled":true,"region":"us-central","cc":"us","latitude":32.779167,"longitude":-96.80889,"reserved":0,"last_update":"0001-01-01T00:00:00Z","name_a2s":"Uncletopia | Dallas | 2 | All Maps","protocol":17,"map":"pl_barnblitz","folder":"tf","game":"Team Fortress","app_id":440,"player_count":20,"max_players":24,"Bots":0,"server_type":"Dedicated","server_os":"Linux","password":true,"vac":true,"version":"7757534","steam_id":85568392924469988,"keywords":["nocrits","nodmgspread","payload","uncletopia"],"game_id":440,"stv_port":27026,"stv_name":"Uncletopia | Dallas | 2 | All Maps | STV","players":[{"user_id":354,"name":"xZackAttack27x","steam_id":76561198035446639,"connected_time":6812000000000,"state":"active","ping":33},{"user_id":398,"name":"3713biggest:bug:FEAR:IT","steam_id":76561198126386686,"connected_time":4510000000000,"state":"active","ping":75},{"user_id":440,"name":"Buckytr","steam_id":76561198096335025,"connected_time":64000000000,"state":"active","ping":84},{"user_id":427,"name":"Professor Sex","steam_id":76561198396414319,"connected_time":1875000000000,"state":"active","ping":87},{"user_id":379,"name":"Kjorque","steam_id":76561198091978710,"connected_time":6081000000000,"state":"active","ping":118},{"user_id":382,"name":"01000101","steam_id":76561198027981956,"connected_time":6023000000000,"state":"active","ping":61},{"user_id":433,"name":"FearTheJynx","steam_id":76561198136487957,"connected_time":865000000000,"state":"active","ping":61},{"user_id":441,"name":"Antknee","steam_id":76561198263793809,"connected_time":59000000000,"state":"active","ping":74},{"user_id":434,"name":"Mr. Bixby","steam_id":76561198868839264,"connected_time":551000000000,"state":"active","ping":46},{"user_id":356,"name":"Pleiades, the Sorceror","steam_id":76561198079590693,"connected_time":6751000000000,"state":"active","ping":61},{"user_id":442,"name":"NFiggy","steam_id":76561198070706289,"connected_time":20000000000,"state":"active","ping":107},{"user_id":426,"name":"bash -lc ./asshat.sh","steam_id":76561198004584315,"connected_time":2096000000000,"state":"active","ping":78},{"user_id":375,"name":"Gary","steam_id":76561198133309753,"connected_time":6279000000000,"state":"active","ping":89},{"user_id":438,"name":"Crombun","steam_id":76561198031559642,"connected_time":171000000000,"state":"active","ping":75},{"user_id":412,"name":"SPREAD CHRISTMAS CHEER AND JOY","steam_id":76561198800386026,"connected_time":2955000000000,"state":"active","ping":95},{"user_id":390,"name":"october","steam_id":76561199435885514,"connected_time":5604000000000,"state":"active","ping":79},{"user_id":358,"name":"Miss Pauling Gaming","steam_id":76561198078479083,"connected_time":6728000000000,"state":"active","ping":70},{"user_id":437,"name":"Nymiir","steam_id":76561198029352880,"connected_time":298000000000,"state":"active","ping":102},{"user_id":404,"name":"Etomb","steam_id":76561198210017208,"connected_time":4390000000000,"state":"active","ping":74},{"user_id":436,"name":"The_Skull_boy","steam_id":76561198227692664,"connected_time":395000000000,"state":"active","ping":86}]},{"server_id":5,"name":"Uncletopia | Frankfurt | 1 | All Maps","name_short":"frk-1","host":"frk-1.de.uncletopia.com","port":27015,"enabled":true,"region":"eu","cc":"de","latitude":50.110924,"longitude":8.682127,"reserved":0,"last_update":"0001-01-01T00:00:00Z","name_a2s":"Uncletopia | Frankfurt | 1 | All Maps","protocol":17,"map":"koth_highpass","folder":"tf","game":"Team Fortress","app_id":440,"player_count":0,"max_players":24,"Bots":0,"server_type":"Dedicated","server_os":"Linux","password":true,"vac":true,"version":"7757534","steam_id":85568392924469989,"keywords":["cp","nocrits","nodmgspread","uncletopia"],"game_id":440,"stv_port":27016,"stv_name":"Uncletopia | Frankfurt | 1 | All Maps | STV","players":null},{"server_id":110,"name":"Uncletopia | Frankfurt | 2 | All Maps","name_short":"frk-2","host":"frk-1.de.uncletopia.com","port":27025,"enabled":true,"region":"eu","cc":"de","latitude":50.110924,"longitude":8.682127,"reserved":0,"last_update":"0001-01-01T00:00:00Z","name_a2s":"Uncletopia | Frankfurt | 2 | All Maps","protocol":17,"map":"pl_snowycoast","folder":"tf","game":"Team Fortress","app_id":440,"player_count":0,"max_players":24,"Bots":0,"server_type":"Dedicated","server_os":"Linux","password":true,"vac":true,"version":"7757534","steam_id":85568392924469990,"keywords":["nocrits","nodmgspread","payload","uncletopia"],"game_id":440,"stv_port":27026,"stv_name":"Uncletopia | Frankfurt | 2 | All Maps | STV","players":null},{"server_id":308,"name":"Uncletopia | Frankfurt | 3 | All Maps","name_short":"frk-3","host":"frk-1.de.uncletopia.com","port":27035,"enabled":true,"region":"eu","cc":"de","latitude":50.110924,"longitude":8.682127,"reserved":0,"last_update":"0001-01-01T00:00:00Z","name_a2s":"Uncletopia | Frankfurt | 3 | All Maps","protocol":17,"map":"cp_altitude","folder":"tf","game":"Team Fortress","app_id":440,"player_count":0,"max_players":24,"Bots":0,"server_type":"Dedicated","server_os":"Linux","password":true,"vac":true,"version":"7757534","steam_id":85568392924504274,"keywords":["cp","nocrits","nodmgspread","uncletopia"],"game_id":440,"stv_port":27036,"stv_name":"Uncletopia | Frankfurt | 3 | All Maps | STV","players":null},{"server_id":309,"name":"Uncletopia | Frankfurt | 4 | All Maps","name_short":"frk-4","host":"frk-1.de.uncletopia.com","port":27045,"enabled":true,"region":"eu","cc":"de","latitude":50.110924,"longitude":8.682127,"reserved":0,"last_update":"0001-01-01T00:00:00Z","name_a2s":"Uncletopia | Frankfurt | 4 | All Maps","protocol":17,"map":"cp_altitude","folder":"tf","game":"Team Fortress","app_id":440,"player_count":0,"max_players":24,"Bots":0,"server_type":"Dedicated","server_os":"Linux","password":true,"vac":true,"version":"7757534","steam_id":85568392924504275,"keywords":["cp","nocrits","nodmgspread","uncletopia"],"game_id":440,"stv_port":27046,"stv_name":"Uncletopia | Frankfurt | 4 | All Maps | STV","players":null},{"server_id":310,"name":"Uncletopia | Frankfurt | 5 | All Maps","name_short":"frk-5","host":"frk-1.de.uncletopia.com","port":27055,"enabled":true,"region":"eu","cc":"de","latitude":50.110924,"longitude":8.682127,"reserved":0,"last_update":"0001-01-01T00:00:00Z","name_a2s":"Uncletopia | Frankfurt | 5 | All Maps","protocol":17,"map":"cp_altitude","folder":"tf","game":"Team Fortress","app_id":440,"player_count":0,"max_players":24,"Bots":0,"server_type":"Dedicated","server_os":"Linux","password":true,"vac":true,"version":"7757534","steam_id":85568392924504277,"keywords":["cp","nocrits","nodmgspread","uncletopia"],"game_id":440,"stv_port":27056,"stv_name":"Uncletopia | Frankfurt | 5 | All Maps | STV","players":null},{"server_id":311,"name":"Uncletopia | Frankfurt | 6 | All Maps","name_short":"frk-6","host":"frk-1.de.uncletopia.com","port":27065,"enabled":true,"region":"eu","cc":"de","latitude":50.110924,"longitude":8.682127,"reserved":0,"last_update":"0001-01-01T00:00:00Z","name_a2s":"Uncletopia | Frankfurt | 6 | All Maps","protocol":17,"map":"koth_highpass","folder":"tf","game":"Team Fortress","app_id":440,"player_count":0,"max_players":24,"Bots":0,"server_type":"Dedicated","server_os":"Linux","password":true,"vac":true,"version":"7757534","steam_id":85568392924504278,"keywords":["cp","nocrits","nodmgspread","uncletopia"],"game_id":440,"stv_port":27066,"stv_name":"Uncletopia | Frankfurt | 6 | All Maps | STV","players":null},{"server_id":23,"name":"Uncletopia | Frankfurt | 7 | Stopwatch Beta","name_short":"frk-7","host":"frk-1.de.uncletopia.com","port":27075,"enabled":true,"region":"eu","cc":"de","latitude":50.110924,"longitude":8.682127,"reserved":0,"last_update":"0001-01-01T00:00:00Z","name_a2s":"Uncletopia | Frankfurt | 7 | Stopwatch Beta","protocol":17,"map":"pl_frontier_final","folder":"tf","game":"Team Fortress","app_id":440,"player_count":0,"max_players":24,"Bots":0,"server_type":"Dedicated","server_os":"Linux","password":true,"vac":true,"version":"7757534","steam_id":85568392924742827,"keywords":["nocrits","nodmgspread","payload","uncletopia"],"game_id":440,"stv_port":27076,"stv_name":"Uncletopia | Frankfurt | 7 | Stopwatch Beta | STV","players":null},{"server_id":24,"name":"Uncletopia | Frankfurt | 8 | Community","name_short":"frk-8","host":"frk-1.de.uncletopia.com","port":27085,"enabled":true,"region":"eu","cc":"de","latitude":50.110924,"longitude":8.682127,"reserved":0,"last_update":"0001-01-01T00:00:00Z","name_a2s":"Uncletopia | Frankfurt | 8 | Community","protocol":17,"map":"pl_badwater","folder":"tf","game":"Team Fortress","app_id":440,"player_count":0,"max_players":24,"Bots":0,"server_type":"Dedicated","server_os":"Linux","password":true,"vac":true,"version":"7757534","steam_id":85568392924742828,"keywords":["nocrits","nodmgspread","payload","uncletopia"],"game_id":440,"stv_port":27086,"stv_name":"Uncletopia | Frankfurt | 8 | Community | STV","players":null},{"server_id":202,"name":"Uncletopia | Hong Kong | 1 | All Maps","name_short":"hgk-1","host":"hgk-1.hk.uncletopia.com","port":27015,"enabled":true,"region":"asia","cc":"hk","latitude":22.302711,"longitude":114.177216,"reserved":0,"last_update":"0001-01-01T00:00:00Z","name_a2s":"Uncletopia | Hong Kong | 1 | All Maps","protocol":17,"map":"pl_pier","folder":"tf","game":"Team Fortress","app_id":440,"player_count":23,"max_players":24,"Bots":0,"server_type":"Dedicated","server_os":"Linux","password":true,"vac":true,"version":"7757534","steam_id":85568392924494504,"keywords":["nocrits","nodmgspread","payload","uncletopia"],"game_id":440,"stv_port":27016,"stv_name":"Uncletopia | Hong Kong | 1 | All Maps | STV","players":[{"user_id":192,"name":"greeny","steam_id":76561198024666371,"connected_time":1696000000000,"state":"active","ping":89},{"user_id":203,"name":"Doormann","steam_id":76561199219230108,"connected_time":215000000000,"state":"active","ping":65},{"user_id":195,"name":"Dobby","steam_id":76561198076823643,"connected_time":1398000000000,"state":"active","ping":81},{"user_id":184,"name":"sterzun","steam_id":76561198300004922,"connected_time":2319000000000,"state":"active","ping":112},{"user_id":200,"name":"Dude Time","steam_id":76561198092991160,"connected_time":823000000000,"state":"active","ping":161},{"user_id":197,"name":"chaechae","steam_id":76561198240627872,"connected_time":1100000000000,"state":"active","ping":47},{"user_id":187,"name":"Teampangit","steam_id":76561198087774626,"connected_time":2137000000000,"state":"active","ping":131},{"user_id":166,"name":"Phou","steam_id":76561198322136756,"connected_time":3673000000000,"state":"active","ping":86},{"user_id":132,"name":"Pillboi","steam_id":76561198011172886,"connected_time":5902000000000,"state":"active","ping":45},{"user_id":194,"name":"uptriste","steam_id":76561198158666692,"connected_time":1667000000000,"state":"active","ping":42},{"user_id":79,"name":"煙海 | Enkai","steam_id":76561198050460825,"connected_time":8839000000000,"state":"active","ping":75},{"user_id":190,"name":"malas solat","steam_id":76561198154470283,"connected_time":1888000000000,"state":"active","ping":76},{"user_id":204,"name":"Leroy","steam_id":76561199137927625,"connected_time":160000000000,"state":"active","ping":126},{"user_id":153,"name":"CHEESE","steam_id":76561198013197822,"connected_time":4181000000000,"state":"active","ping":74},{"user_id":106,"name":"ironhelmet8","steam_id":76561198354900426,"connected_time":6746000000000,"state":"active","ping":74},{"user_id":183,"name":"母の肉団子@hao123.com","steam_id":76561198069561896,"connected_time":2499000000000,"state":"active","ping":38},{"user_id":206,"name":"Vynth","steam_id":76561199466006054,"connected_time":77000000000,"state":"active","ping":54},{"user_id":169,"name":"Sir Stupido","steam_id":76561199174449723,"connected_time":3385000000000,"state":"active","ping":118},{"user_id":201,"name":"Milk❤ (UT's Moaner)","steam_id":76561198163911560,"connected_time":753000000000,"state":"active","ping":166},{"user_id":199,"name":"tortiglioni","steam_id":76561199131857098,"connected_time":899000000000,"state":"active","ping":68},{"user_id":176,"name":"Vesha","steam_id":76561199208233146,"connected_time":3122000000000,"state":"active","ping":85},{"user_id":181,"name":"Telekhine","steam_id":76561198387120618,"connected_time":2827000000000,"state":"active","ping":58},{"user_id":202,"name":"Mega 00F","steam_id":76561198962485791,"connected_time":479000000000,"state":"active","ping":131}]},{"server_id":1,"name":"Uncletopia | Los Angeles | 1 | All Maps","name_short":"lax-1","host":"lax-1.us.uncletopia.com","port":27015,"enabled":true,"region":"us-west","cc":"us","latitude":33.94279,"longitude":-118.41004,"reserved":0,"last_update":"0001-01-01T00:00:00Z","name_a2s":"Uncletopia | Los Angeles | 1 | All Maps","protocol":17,"map":"pl_thundermountain","folder":"tf","game":"Team Fortress","app_id":440,"player_count":23,"max_players":24,"Bots":0,"server_type":"Dedicated","server_os":"Linux","password":true,"vac":true,"version":"7757534","steam_id":85568392924469991,"keywords":["nocrits","nodmgspread","payload","uncletopia"],"game_id":440,"stv_port":27016,"stv_name":"Uncletopia | Los Angeles | 1 | All Maps | STV","players":[{"user_id":489,"name":"Amogous Supreme","steam_id":76561198025476774,"connected_time":3199000000000,"state":"active","ping":60},{"user_id":506,"name":"Jhon Xina","steam_id":76561198411174051,"connected_time":2081000000000,"state":"active","ping":85},{"user_id":505,"name":"greens beans","steam_id":76561198153611491,"connected_time":2095000000000,"state":"active","ping":67},{"user_id":497,"name":"lol","steam_id":76561198026491738,"connected_time":2933000000000,"state":"active","ping":54},{"user_id":511,"name":"evan_is_sauce","steam_id":76561199086802383,"connected_time":1828000000000,"state":"active","ping":103},{"user_id":526,"name":"epic stlye","steam_id":76561198082971363,"connected_time":953000000000,"state":"active","ping":85},{"user_id":466,"name":"Proskills50","steam_id":76561198986181888,"connected_time":5234000000000,"state":"active","ping":57},{"user_id":513,"name":"Sheev Palpatine","steam_id":76561198252332430,"connected_time":1797000000000,"state":"active","ping":97},{"user_id":520,"name":"jesus christ","steam_id":76561198315825042,"connected_time":1388000000000,"state":"active","ping":63},{"user_id":522,"name":"BucketofIce","steam_id":76561199108563726,"connected_time":1259000000000,"state":"active","ping":52},{"user_id":418,"name":"hotdog every meal","steam_id":76561198392514273,"connected_time":9551000000000,"state":"active","ping":76},{"user_id":530,"name":"Excalibrine","steam_id":76561198129312118,"connected_time":794000000000,"state":"active","ping":71},{"user_id":537,"name":"BarelyAnimateObject","steam_id":76561198986264116,"connected_time":212000000000,"state":"active","ping":39},{"user_id":452,"name":"Tetra","steam_id":76561198012329955,"connected_time":6388000000000,"state":"active","ping":86},{"user_id":531,"name":"Sacrificial Wormy","steam_id":76561198054539200,"connected_time":751000000000,"state":"active","ping":76},{"user_id":512,"name":"zam","steam_id":76561199010236650,"connected_time":1817000000000,"state":"active","ping":110},{"user_id":527,"name":"I like sour dough","steam_id":76561198408595791,"connected_time":947000000000,"state":"active","ping":91},{"user_id":528,"name":"Kiwimpediment","steam_id":76561198322781400,"connected_time":914000000000,"state":"active","ping":133},{"user_id":514,"name":"moe","steam_id":76561198929586245,"connected_time":1780000000000,"state":"active","ping":43},{"user_id":532,"name":"rock gaming","steam_id":76561199402868311,"connected_time":735000000000,"state":"active","ping":57},{"user_id":516,"name":"you got games on your phone?","steam_id":76561198981135699,"connected_time":1763000000000,"state":"active","ping":110},{"user_id":534,"name":"banan team fortes","steam_id":76561199073621650,"connected_time":545000000000,"state":"active","ping":57},{"user_id":535,"name":"Berserk","steam_id":76561198000357361,"connected_time":544000000000,"state":"active","ping":79}]},{"server_id":112,"name":"Uncletopia | Los Angeles | 2 | All Maps","name_short":"lax-2","host":"lax-1.us.uncletopia.com","port":27025,"enabled":true,"region":"us-west","cc":"us","latitude":33.94279,"longitude":-118.41004,"reserved":0,"last_update":"0001-01-01T00:00:00Z","name_a2s":"Uncletopia | Los Angeles | 2 | All Maps","protocol":17,"map":"cp_sunshine","folder":"tf","game":"Team Fortress","app_id":440,"player_count":24,"max_players":24,"Bots":0,"server_type":"Dedicated","server_os":"Linux","password":true,"vac":true,"version":"7757534","steam_id":85568392924469992,"keywords":["cp","nocrits","nodmgspread","uncletopia"],"game_id":440,"stv_port":27026,"stv_name":"Uncletopia | Los Angeles | 2 | All Maps | STV","players":[{"user_id":471,"name":"the fool","steam_id":76561198133933158,"connected_time":676000000000,"state":"active","ping":41},{"user_id":470,"name":"SpinnerSpecial","steam_id":76561198065661869,"connected_time":968000000000,"state":"active","ping":104},{"user_id":394,"name":"Wenlost","steam_id":76561198292026612,"connected_time":7979000000000,"state":"active","ping":46},{"user_id":472,"name":"Average Nagatoro enjoyer","steam_id":76561198324944145,"connected_time":614000000000,"state":"active","ping":97},{"user_id":436,"name":"Bomb Squirtle™","steam_id":76561197998931145,"connected_time":4820000000000,"state":"active","ping":126},{"user_id":456,"name":"ol' b","steam_id":76561198088759047,"connected_time":2876000000000,"state":"active","ping":61},{"user_id":431,"name":"jrmadmallard","steam_id":76561198275994616,"connected_time":5717000000000,"state":"active","ping":94},{"user_id":475,"name":"Hifumi Togo","steam_id":76561198074930636,"connected_time":445000000000,"state":"active","ping":94},{"user_id":476,"name":"MegaMott","steam_id":76561199172245274,"connected_time":425000000000,"state":"active","ping":65},{"user_id":474,"name":"Kaluka","steam_id":76561198036861445,"connected_time":498000000000,"state":"active","ping":106},{"user_id":447,"name":"Chalupa Jones","steam_id":76561198335855588,"connected_time":3723000000000,"state":"active","ping":46},{"user_id":435,"name":"IMPACT!","steam_id":76561198131458027,"connected_time":5085000000000,"state":"active","ping":117},{"user_id":381,"name":"Soap Man","steam_id":76561198000490235,"connected_time":9292000000000,"state":"active","ping":101},{"user_id":480,"name":"CakeWut","steam_id":76561198156272110,"connected_time":322000000000,"state":"active","ping":74},{"user_id":424,"name":"Quacc???","steam_id":76561198844428250,"connected_time":5948000000000,"state":"active","ping":86},{"user_id":441,"name":"The Arm","steam_id":76561197983066285,"connected_time":4095000000000,"state":"active","ping":69},{"user_id":478,"name":"upgrade9000","steam_id":76561198443060751,"connected_time":386000000000,"state":"active","ping":43},{"user_id":425,"name":"Sxotty_","steam_id":76561198873820457,"connected_time":5947000000000,"state":"active","ping":91},{"user_id":479,"name":"PageBoiSkull","steam_id":76561198237353578,"connected_time":348000000000,"state":"active","ping":70},{"user_id":481,"name":"riri ᗜᴗᗜ","steam_id":76561198055462404,"connected_time":282000000000,"state":"active","ping":39},{"user_id":483,"name":"Jeffery","steam_id":76561199226711716,"connected_time":148000000000,"state":"active","ping":75},{"user_id":482,"name":"LazerPencilBox","steam_id":76561198355108566,"connected_time":265000000000,"state":"active","ping":56},{"user_id":457,"name":"Andreshatesmondays","steam_id":76561198889349797,"connected_time":2758000000000,"state":"active","ping":51},{"user_id":454,"name":"Satori Komeiji","steam_id":76561198158211423,"connected_time":3221000000000,"state":"active","ping":45}]},{"server_id":324,"name":"Uncletopia | Los Angeles | 3 | All Maps","name_short":"lax-3","host":"lax-1.us.uncletopia.com","port":27035,"enabled":true,"region":"us-west","cc":"us","latitude":33.94279,"longitude":-118.41004,"reserved":0,"last_update":"0001-01-01T00:00:00Z","name_a2s":"Uncletopia | Los Angeles | 3 | All Maps","protocol":17,"map":"pl_frontier_final","folder":"tf","game":"Team Fortress","app_id":440,"player_count":24,"max_players":24,"Bots":0,"server_type":"Dedicated","server_os":"Linux","password":true,"vac":true,"version":"7757534","steam_id":85568392924510198,"keywords":["nocrits","nodmgspread","payload","uncletopia"],"game_id":440,"stv_port":27036,"stv_name":"Uncletopia | Los Angeles | 3 | All Maps | STV","players":[{"user_id":463,"name":"Lilac","steam_id":76561198977523626,"connected_time":1215000000000,"state":"active","ping":67},{"user_id":451,"name":"Thequirka","steam_id":76561198968058652,"connected_time":1466000000000,"state":"active","ping":74},{"user_id":452,"name":"El Monte","steam_id":76561198263562991,"connected_time":1403000000000,"state":"active","ping":88},{"user_id":409,"name":"El Gato Paranoico","steam_id":76561198116567116,"connected_time":4089000000000,"state":"active","ping":93},{"user_id":437,"name":"Fajita Master","steam_id":76561198329150962,"connected_time":2269000000000,"state":"active","ping":101},{"user_id":453,"name":"Florida man","steam_id":76561198074743971,"connected_time":1392000000000,"state":"active","ping":105},{"user_id":443,"name":"Daddy Topps","steam_id":76561198203594332,"connected_time":1775000000000,"state":"active","ping":75},{"user_id":447,"name":"MissMatches_                   ","steam_id":76561198048925904,"connected_time":1637000000000,"state":"active","ping":61},{"user_id":448,"name":"honked off the bobo","steam_id":76561198123287268,"connected_time":1630000000000,"state":"active","ping":104},{"user_id":469,"name":"kittygirl ketamine","steam_id":76561198265633146,"connected_time":451000000000,"state":"active","ping":58},{"user_id":455,"name":"Iron Argus","steam_id":76561198181088245,"connected_time":1386000000000,"state":"active","ping":137},{"user_id":456,"name":"-r","steam_id":76561198089649422,"connected_time":1352000000000,"state":"active","ping":53},{"user_id":467,"name":"Van Tastic","steam_id":76561198063855523,"connected_time":998000000000,"state":"active","ping":70},{"user_id":461,"name":"craxyt","steam_id":76561198050192689,"connected_time":1266000000000,"state":"active","ping":50},{"user_id":458,"name":"Chicken.SRT","steam_id":76561198282147927,"connected_time":1342000000000,"state":"active","ping":119},{"user_id":459,"name":"Vertron47","steam_id":76561198835606342,"connected_time":1320000000000,"state":"active","ping":115},{"user_id":460,"name":"YHH face","steam_id":76561198035629877,"connected_time":1294000000000,"state":"active","ping":90},{"user_id":464,"name":"TheLuckyPear","steam_id":76561198125501490,"connected_time":1128000000000,"state":"active","ping":36},{"user_id":428,"name":"frappe444","steam_id":76561199032973937,"connected_time":3039000000000,"state":"active","ping":61},{"user_id":465,"name":"alex bird","steam_id":76561198360719932,"connected_time":1102000000000,"state":"active","ping":57},{"user_id":429,"name":"Fi \u003c3","steam_id":76561198315348942,"connected_time":3021000000000,"state":"active","ping":77},{"user_id":466,"name":"Platino","steam_id":76561198410957728,"connected_time":1034000000000,"state":"active","ping":102},{"user_id":468,"name":"DaBeatGoOff?","steam_id":76561198106507400,"connected_time":936000000000,"state":"active","ping":55},{"user_id":430,"name":"Makali","steam_id":76561198839601234,"connected_time":3009000000000,"state":"active","ping":64}]},{"server_id":25,"name":"Uncletopia | Los Angeles | 4 | Stopwatch Beta","name_short":"lax-4","host":"lax-1.us.uncletopia.com","port":27045,"enabled":true,"region":"us-west","cc":"us","latitude":33.94279,"longitude":-118.41004,"reserved":0,"last_update":"0001-01-01T00:00:00Z","name_a2s":"Uncletopia | Los Angeles | 4 | Stopwatch Beta","protocol":17,"map":"pl_frontier_final","folder":"tf","game":"Team Fortress","app_id":440,"player_count":0,"max_players":24,"Bots":0,"server_type":"Dedicated","server_os":"Linux","password":true,"vac":true,"version":"7757534","steam_id":85568392924510199,"keywords":["nocrits","nodmgspread","payload","uncletopia"],"game_id":440,"stv_port":27046,"stv_name":"Uncletopia | Los Angeles | 4 | Stopwatch Beta | STV","players":null},{"server_id":11,"name":"Uncletopia | London | 1 | All Maps","name_short":"lon-1","host":"lon-1.uk.uncletopia.com","port":27015,"enabled":true,"region":"eu","cc":"gb","latitude":51.509865,"longitude":-0.118092,"reserved":0,"last_update":"0001-01-01T00:00:00Z","name_a2s":"Uncletopia | London | 1 | All Maps","protocol":17,"map":"koth_viaduct","folder":"tf","game":"Team Fortress","app_id":440,"player_count":0,"max_players":24,"Bots":0,"server_type":"Dedicated","server_os":"Linux","password":true,"vac":true,"version":"7757534","steam_id":85568392924367362,"keywords":["cp","nocrits","nodmgspread","uncletopia"],"game_id":440,"stv_port":27016,"stv_name":"Uncletopia | London | 1 | All Maps | STV","players":null},{"server_id":114,"name":"Uncletopia | London | 2 | All Maps","name_short":"lon-2","host":"lon-1.uk.uncletopia.com","port":27025,"enabled":true,"region":"eu","cc":"gb","latitude":51.509865,"longitude":-0.118092,"reserved":0,"last_update":"0001-01-01T00:00:00Z","name_a2s":"Uncletopia | London | 2 | All Maps","protocol":17,"map":"cp_dustbowl","folder":"tf","game":"Team Fortress","app_id":440,"player_count":0,"max_players":24,"Bots":0,"server_type":"Dedicated","server_os":"Linux","password":true,"vac":true,"version":"7757534","steam_id":85568392924470941,"keywords":["cp","nocrits","nodmgspread","uncletopia"],"game_id":440,"stv_port":27026,"stv_name":"Uncletopia | London | 2 | All Maps | STV","players":null},{"server_id":320,"name":"Uncletopia | London | 3 | All Maps","name_short":"lon-3","host":"lon-1.uk.uncletopia.com","port":27035,"enabled":true,"region":"eu","cc":"gb","latitude":51.509865,"longitude":-0.118092,"reserved":0,"last_update":"0001-01-01T00:00:00Z","name_a2s":"Uncletopia | London | 3 | All Maps","protocol":17,"map":"pl_badwater","folder":"tf","game":"Team Fortress","app_id":440,"player_count":0,"max_players":24,"Bots":0,"server_type":"Dedicated","server_os":"Linux","password":true,"vac":true,"version":"7757534","steam_id":85568392924510192,"keywords":["nocrits","nodmgspread","payload","uncletopia"],"game_id":440,"stv_port":27036,"stv_name":"Uncletopia | London | 3 | All Maps | STV","players":null},{"server_id":321,"name":"Uncletopia | London | 4 | All Maps","name_short":"lon-4","host":"lon-1.uk.uncletopia.com","port":27045,"enabled":true,"region":"eu","cc":"gb","latitude":51.509865,"longitude":-0.118092,"reserved":0,"last_update":"0001-01-01T00:00:00Z","name_a2s":"Uncletopia | London | 4 | All Maps","protocol":17,"map":"koth_viaduct","folder":"tf","game":"Team Fortress","app_id":440,"player_count":0,"max_players":24,"Bots":0,"server_type":"Dedicated","server_os":"Linux","password":true,"vac":true,"version":"7757534","steam_id":85568392924510193,"keywords":["cp","nocrits","nodmgspread","uncletopia"],"game_id":440,"stv_port":27046,"stv_name":"Uncletopia | London | 4 | All Maps | STV","players":null},{"server_id":21,"name":"Uncletopia | London | 5 | All Maps","name_short":"lon-5","host":"lon-1.uk.uncletopia.com","port":27055,"enabled":true,"region":"eu","cc":"gb","latitude":51.509865,"longitude":-0.118092,"reserved":0,"last_update":"0001-01-01T00:00:00Z","name_a2s":"Uncletopia | London | 5 | All Maps","protocol":17,"map":"cp_snakewater_final1","folder":"tf","game":"Team Fortress","app_id":440,"player_count":0,"max_players":24,"Bots":0,"server_type":"Dedicated","server_os":"Linux","password":true,"vac":true,"version":"7757534","steam_id":85568392924742829,"keywords":["cp","nocrits","nodmgspread","uncletopia"],"game_id":440,"stv_port":27056,"stv_name":"Uncletopia | London | 5 | All Maps | STV","players":null},{"server_id":22,"name":"Uncletopia | London | 6 | All Maps","name_short":"lon-6","host":"lon-1.uk.uncletopia.com","port":27065,"enabled":true,"region":"eu","cc":"gb","latitude":51.509865,"longitude":-0.118092,"reserved":0,"last_update":"0001-01-01T00:00:00Z","name_a2s":"Uncletopia | London | 6 | All Maps","protocol":17,"map":"koth_cascade","folder":"tf","game":"Team Fortress","app_id":440,"player_count":0,"max_players":24,"Bots":0,"server_type":"Dedicated","server_os":"Linux","password":true,"vac":true,"version":"7757534","steam_id":85568392924742830,"keywords":["cp","nocrits","nodmgspread","uncletopia"],"game_id":440,"stv_port":27066,"stv_name":"Uncletopia | London | 6 | All Maps | STV","players":null},{"server_id":40,"name":"Uncletopia | London | 7 | No Payload","name_short":"lon-7","host":"lon-1.uk.uncletopia.com","port":27075,"enabled":true,"region":"eu","cc":"gb","latitude":51.509865,"longitude":-0.118092,"reserved":0,"last_update":"0001-01-01T00:00:00Z","name_a2s":"Uncletopia | London | 7 | No Payload","protocol":17,"map":"cp_process_final","folder":"tf","game":"Team Fortress","app_id":440,"player_count":0,"max_players":24,"Bots":0,"server_type":"Dedicated","server_os":"Linux","password":true,"vac":true,"version":"7757534","steam_id":85568392924964314,"keywords":["cp","nocrits","nodmgspread","uncletopia"],"game_id":440,"stv_port":27076,"stv_name":"Uncletopia | London | 7 | No Payload | STV","players":null},{"server_id":41,"name":"Uncletopia | London | 8 | Community","name_short":"lon-8","host":"lon-1.uk.uncletopia.com","port":27085,"enabled":true,"region":"eu","cc":"gb","latitude":51.509865,"longitude":-0.118092,"reserved":0,"last_update":"0001-01-01T00:00:00Z","name_a2s":"Uncletopia | London | 8 | Community","protocol":17,"map":"pl_upward","folder":"tf","game":"Team Fortress","app_id":440,"player_count":0,"max_players":24,"Bots":0,"server_type":"Dedicated","server_os":"Linux","password":true,"vac":true,"version":"7757534","steam_id":85568392924964315,"keywords":["nocrits","nodmgspread","payload","uncletopia"],"game_id":440,"stv_port":27086,"stv_name":"Uncletopia | London | 8 | Community | STV","players":null},{"server_id":300,"name":"Uncletopia | Montréal | 1 | All Maps","name_short":"mtl-1","host":"mtl-1.ca.uncletopia.com","port":27015,"enabled":true,"region":"us-east","cc":"ca","latitude":45.50889,"longitude":-73.56167,"reserved":0,"last_update":"0001-01-01T00:00:00Z","name_a2s":"Uncletopia | Montréal | 1 | All Maps","protocol":17,"map":"koth_lakeside_final","folder":"tf","game":"Team Fortress","app_id":440,"player_count":0,"max_players":24,"Bots":0,"server_type":"Dedicated","server_os":"Linux","password":true,"vac":true,"version":"7757534","steam_id":85568392924500087,"keywords":["cp","nocrits","nodmgspread","uncletopia"],"game_id":440,"stv_port":27016,"stv_name":"Uncletopia | Montréal | 1 | All Maps | STV","players":null},{"server_id":301,"name":"Uncletopia | Montréal | 2 | All Maps","name_short":"mtl-2","host":"mtl-1.ca.uncletopia.com","port":27025,"enabled":true,"region":"us-east","cc":"ca","latitude":45.50889,"longitude":-73.56167,"reserved":0,"last_update":"0001-01-01T00:00:00Z","name_a2s":"Uncletopia | Montréal | 2 | All Maps","protocol":17,"map":"koth_cascade","folder":"tf","game":"Team Fortress","app_id":440,"player_count":5,"max_players":24,"Bots":0,"server_type":"Dedicated","server_os":"Linux","password":true,"vac":true,"version":"7757534","steam_id":85568392924500088,"keywords":["cp","nocrits","nodmgspread","uncletopia"],"game_id":440,"stv_port":27026,"stv_name":"Uncletopia | Montréal | 2 | All Maps | STV","players":[{"user_id":6,"name":"Miami","steam_id":76561198316753540,"connected_time":1633000000000,"state":"active","ping":74},{"user_id":37,"name":"itsgearfear","steam_id":76561198801849281,"connected_time":110000000000,"state":"spawning","ping":0},{"user_id":8,"name":"uperlip","steam_id":76561199027475297,"connected_time":1628000000000,"state":"active","ping":85},{"user_id":32,"name":"KingKong's Big Dong","steam_id":76561198313345413,"connected_time":507000000000,"state":"active","ping":86},{"user_id":36,"name":"Vibess","steam_id":76561199086964735,"connected_time":235000000000,"state":"active","ping":55}]},{"server_id":302,"name":"Uncletopia | Montréal | 3 | All Maps","name_short":"mtl-3","host":"mtl-1.ca.uncletopia.com","port":27035,"enabled":true,"region":"us-east","cc":"ca","latitude":45.50889,"longitude":-73.56167,"reserved":0,"last_update":"0001-01-01T00:00:00Z","name_a2s":"Uncletopia | Montréal | 3 | All Maps","protocol":17,"map":"cp_dustbowl","folder":"tf","game":"Team Fortress","app_id":440,"player_count":0,"max_players":24,"Bots":0,"server_type":"Dedicated","server_os":"Linux","password":true,"vac":true,"version":"7757534","steam_id":85568392924500089,"keywords":["cp","nocrits","nodmgspread","uncletopia"],"game_id":440,"stv_port":27036,"stv_name":"Uncletopia | Montréal | 3 | All Maps | STV","players":null},{"server_id":303,"name":"Uncletopia | Montréal | 4 | No Payload","name_short":"mtl-4","host":"mtl-1.ca.uncletopia.com","port":27045,"enabled":true,"region":"us-east","cc":"ca","latitude":45.50889,"longitude":-73.56167,"reserved":0,"last_update":"0001-01-01T00:00:00Z","name_a2s":"Uncletopia | Montréal | 4 | No Payload","protocol":17,"map":"koth_viaduct","folder":"tf","game":"Team Fortress","app_id":440,"player_count":0,"max_players":24,"Bots":0,"server_type":"Dedicated","server_os":"Linux","password":true,"vac":true,"version":"7757534","steam_id":85568392924500090,"keywords":["cp","nocrits","nodmgspread","uncletopia"],"game_id":440,"stv_port":27046,"stv_name":"Uncletopia | Montréal | 4 | No Payload | STV","players":null},{"server_id":13,"name":"Uncletopia | New York City | 1 | All Maps","name_short":"nyc-1","host":"nyc-1.us.uncletopia.com","port":27015,"enabled":true,"region":"us-east","cc":"us","latitude":40.73061,"longitude":-73.93524,"reserved":0,"last_update":"0001-01-01T00:00:00Z","name_a2s":"Uncletopia | New York City | 1 | All Maps","protocol":17,"map":"pl_pier","folder":"tf","game":"Team Fortress","app_id":440,"player_count":24,"max_players":24,"Bots":0,"server_type":"Dedicated","server_os":"Linux","password":true,"vac":true,"version":"7757534","steam_id":85568392924469993,"keywords":["nocrits","nodmgspread","payload","uncletopia"],"game_id":440,"stv_port":27016,"stv_name":"Uncletopia | New York City | 1 | All Maps | STV","players":[{"user_id":691,"name":"Lawtumn","steam_id":76561198347286009,"connected_time":3695000000000,"state":"active","ping":58},{"user_id":715,"name":"obamo","steam_id":76561199192686708,"connected_time":922000000000,"state":"active","ping":120},{"user_id":710,"name":"Gandalf Gaming","steam_id":76561198368151490,"connected_time":1272000000000,"state":"active","ping":58},{"user_id":692,"name":"ndvr","steam_id":76561199379200102,"connected_time":3612000000000,"state":"active","ping":54},{"user_id":716,"name":"pretty lady :3","steam_id":76561198337705174,"connected_time":863000000000,"state":"active","ping":80},{"user_id":723,"name":"megaboi796","steam_id":76561198122995438,"connected_time":457000000000,"state":"active","ping":67},{"user_id":714,"name":"pine","steam_id":76561198156891654,"connected_time":1061000000000,"state":"active","ping":49},{"user_id":724,"name":"Tor","steam_id":76561198148621828,"connected_time":422000000000,"state":"active","ping":102},{"user_id":694,"name":"Bart Harley Jarvis","steam_id":76561199215811448,"connected_time":3288000000000,"state":"active","ping":66},{"user_id":646,"name":"BONZ","steam_id":76561199445629071,"connected_time":7138000000000,"state":"active","ping":61},{"user_id":675,"name":"Rythmiki","steam_id":76561198398952454,"connected_time":4876000000000,"state":"active","ping":41},{"user_id":717,"name":"gettysburg","steam_id":76561198016157051,"connected_time":742000000000,"state":"active","ping":75},{"user_id":718,"name":"CobyNoH0es","steam_id":76561198122236594,"connected_time":654000000000,"state":"active","ping":70},{"user_id":652,"name":"groond","steam_id":76561198309426720,"connected_time":6665000000000,"state":"active","ping":74},{"user_id":719,"name":"Dougtherouge","steam_id":76561198211300573,"connected_time":585000000000,"state":"active","ping":86},{"user_id":720,"name":"Tec","steam_id":76561199096762480,"connected_time":581000000000,"state":"active","ping":156},{"user_id":721,"name":"Potassium_","steam_id":76561199085021046,"connected_time":573000000000,"state":"active","ping":80},{"user_id":730,"name":"Phillip Jeffries","steam_id":76561198064052174,"connected_time":86000000000,"state":"active","ping":72},{"user_id":726,"name":"Big Cock Brock","steam_id":76561198093244204,"connected_time":391000000000,"state":"active","ping":64},{"user_id":727,"name":"Fivan","steam_id":76561198097145922,"connected_time":327000000000,"state":"active","ping":88},{"user_id":728,"name":"We're Just Normal Men","steam_id":76561197997899866,"connected_time":311000000000,"state":"active","ping":97},{"user_id":695,"name":"scooterre","steam_id":76561198055068182,"connected_time":2826000000000,"state":"active","ping":80},{"user_id":729,"name":"DidlyBoi","steam_id":76561198091735024,"connected_time":306000000000,"state":"active","ping":85},{"user_id":712,"name":"ciliorkun18","steam_id":76561198228942500,"connected_time":1248000000000,"state":"active","ping":164}]},{"server_id":14,"name":"Uncletopia | New York City | 2 | All Maps","name_short":"nyc-2","host":"nyc-1.us.uncletopia.com","port":27025,"enabled":true,"region":"us-east","cc":"us","latitude":40.73061,"longitude":-73.93524,"reserved":0,"last_update":"0001-01-01T00:00:00Z","name_a2s":"Uncletopia | New York City | 2 | All Maps","protocol":17,"map":"pl_barnblitz","folder":"tf","game":"Team Fortress","app_id":440,"player_count":24,"max_players":24,"Bots":0,"server_type":"Dedicated","server_os":"Linux","password":true,"vac":true,"version":"7757534","steam_id":85568392924469994,"keywords":["nocrits","nodmgspread","payload","uncletopia"],"game_id":440,"stv_port":27026,"stv_name":"Uncletopia | New York City | 2 | All Maps | STV","players":[{"user_id":543,"name":"The Demented Dr. Pussy","steam_id":76561198047557533,"connected_time":2094000000000,"state":"active","ping":60},{"user_id":535,"name":"Vaude","steam_id":76561198369187511,"connected_time":3267000000000,"state":"active","ping":62},{"user_id":546,"name":"zrsp1","steam_id":76561199030845505,"connected_time":1245000000000,"state":"active","ping":63},{"user_id":558,"name":"Glitchy stick","steam_id":76561199013429386,"connected_time":411000000000,"state":"active","ping":60},{"user_id":545,"name":"old slimey ichabod","steam_id":76561198043900518,"connected_time":1327000000000,"state":"active","ping":73},{"user_id":538,"name":"Howoriginal","steam_id":76561197993701184,"connected_time":3176000000000,"state":"active","ping":44},{"user_id":541,"name":"Little King Trash Mouth","steam_id":76561198241162728,"connected_time":2914000000000,"state":"active","ping":49},{"user_id":540,"name":"Alphadin.EXE -Tamamo","steam_id":76561198010005351,"connected_time":3084000000000,"state":"active","ping":75},{"user_id":559,"name":"AnonTron","steam_id":76561199031895493,"connected_time":336000000000,"state":"active","ping":234},{"user_id":560,"name":"Jon Snuh","steam_id":76561198075298635,"connected_time":322000000000,"state":"active","ping":70},{"user_id":473,"name":"Landjrin","steam_id":76561198415410003,"connected_time":8213000000000,"state":"active","ping":114},{"user_id":548,"name":"Revenge of the Jews in 3D","steam_id":76561199381623663,"connected_time":1235000000000,"state":"active","ping":176},{"user_id":550,"name":"ASingleCrow","steam_id":76561199050104793,"connected_time":1090000000000,"state":"active","ping":98},{"user_id":510,"name":"Monkey","steam_id":76561198031015186,"connected_time":6034000000000,"state":"active","ping":62},{"user_id":457,"name":"Best_Garbage","steam_id":76561199070436446,"connected_time":8795000000000,"state":"active","ping":69},{"user_id":561,"name":"I ate those food","steam_id":76561198084614149,"connected_time":146000000000,"state":"active","ping":42},{"user_id":539,"name":"Birdhorse Of Course","steam_id":76561198038997485,"connected_time":3167000000000,"state":"active","ping":55},{"user_id":551,"name":"The Sauce Boss","steam_id":76561198056556496,"connected_time":1044000000000,"state":"active","ping":116},{"user_id":511,"name":"Hydroxianchaos","steam_id":76561198043786828,"connected_time":5897000000000,"state":"active","ping":66},{"user_id":512,"name":"Mr. Sandman","steam_id":76561198316206249,"connected_time":5809000000000,"state":"active","ping":101},{"user_id":477,"name":"DiscoTraveler","steam_id":76561199240168088,"connected_time":8094000000000,"state":"active","ping":49},{"user_id":557,"name":"LordGooch","steam_id":76561198968335919,"connected_time":441000000000,"state":"active","ping":109},{"user_id":556,"name":"flappyflap2","steam_id":76561198285048973,"connected_time":781000000000,"state":"active","ping":45},{"user_id":555,"name":"StinkFist RotOff","steam_id":76561198079102999,"connected_time":932000000000,"state":"active","ping":89}]},{"server_id":15,"name":"Uncletopia | New York City | 3 | Stopwatch Beta","name_short":"nyc-3","host":"nyc-1.us.uncletopia.com","port":27035,"enabled":true,"region":"us-east","cc":"us","latitude":40.73061,"longitude":-73.93524,"reserved":0,"last_update":"0001-01-01T00:00:00Z","name_a2s":"Uncletopia | New York City | 3 | Stopwatch Beta","protocol":17,"map":"workshop/koth_ramjam_rc1.ugc459778887","folder":"tf","game":"Team Fortress","app_id":440,"player_count":0,"max_players":24,"Bots":0,"server_type":"Dedicated","server_os":"Linux","password":true,"vac":true,"version":"7757534","steam_id":85568392924742820,"keywords":["cp","nocrits","nodmgspread","uncletopia"],"game_id":440,"stv_port":27036,"stv_name":"Uncletopia | New York City | 3 | Stopwatch Beta | STV","players":null},{"server_id":16,"name":"Uncletopia | New York City | 4 | Community","name_short":"nyc-4","host":"nyc-1.us.uncletopia.com","port":27045,"enabled":true,"region":"us-east","cc":"us","latitude":40.73061,"longitude":-73.93524,"reserved":0,"last_update":"0001-01-01T00:00:00Z","name_a2s":"Uncletopia | New York City | 4 | Community","protocol":17,"map":"workshop/pl_divulgence_b4b.ugc2884808746","folder":"tf","game":"Team Fortress","app_id":440,"player_count":0,"max_players":24,"Bots":0,"server_type":"Dedicated","server_os":"Linux","password":true,"vac":true,"version":"7757534","steam_id":85568392924742821,"keywords":["nocrits","nodmgspread","payload","uncletopia"],"game_id":440,"stv_port":27046,"stv_name":"Uncletopia | New York City | 4 | Community | STV","players":null},{"server_id":142,"name":"Uncletopia | São Paulo | 1 | All Maps","name_short":"sao-1","host":"sao-1.br.uncletopia.com","port":27015,"enabled":true,"region":"sa","cc":"br","latitude":-23.533773,"longitude":-46.62529,"reserved":0,"last_update":"0001-01-01T00:00:00Z","name_a2s":"Uncletopia | São Paulo | 1 | All Maps","protocol":17,"map":"koth_viaduct","folder":"tf","game":"Team Fortress","app_id":440,"player_count":0,"max_players":24,"Bots":0,"server_type":"Dedicated","server_os":"Linux","password":true,"vac":true,"version":"7757534","steam_id":85568392924469996,"keywords":["cp","nocrits","nodmgspread","uncletopia"],"game_id":440,"stv_port":27016,"stv_name":"Uncletopia | São Paulo | 1 | All Maps | STV","players":null},{"server_id":143,"name":"Uncletopia | São Paulo | 2 | All Maps","name_short":"sao-2","host":"sao-2.br.uncletopia.com","port":27015,"enabled":true,"region":"sa","cc":"br","latitude":-23.533773,"longitude":-46.62529,"reserved":0,"last_update":"0001-01-01T00:00:00Z","name_a2s":"Uncletopia | São Paulo | 2 | All Maps","protocol":17,"map":"koth_lakeside_final","folder":"tf","game":"Team Fortress","app_id":440,"player_count":0,"max_players":24,"Bots":0,"server_type":"Dedicated","server_os":"Linux","password":true,"vac":true,"version":"7757534","steam_id":85568392924485349,"keywords":["cp","nocrits","nodmgspread","uncletopia"],"game_id":440,"stv_port":27016,"stv_name":"Uncletopia | São Paulo | 2 | All Maps | STV","players":null},{"server_id":7,"name":"Uncletopia | Seattle | 1 | All Maps","name_short":"sea-1","host":"sea-1.us.uncletopia.com","port":27015,"enabled":true,"region":"us-west","cc":"us","latitude":47.608013,"longitude":-122.33517,"reserved":0,"last_update":"0001-01-01T00:00:00Z","name_a2s":"Uncletopia | Seattle | 1 | All Maps","protocol":17,"map":"koth_nucleus","folder":"tf","game":"Team Fortress","app_id":440,"player_count":24,"max_players":24,"Bots":0,"server_type":"Dedicated","server_os":"Linux","password":true,"vac":true,"version":"7757534","steam_id":85568392924469997,"keywords":["cp","nocrits","nodmgspread","uncletopia"],"game_id":440,"stv_port":27016,"stv_name":"Uncletopia | Seattle | 1 | All Maps | STV","players":[{"user_id":783,"name":"HaphazardHazel","steam_id":76561198316812693,"connected_time":565000000000,"state":"active","ping":135},{"user_id":756,"name":"Strikerbolt","steam_id":76561199095622897,"connected_time":2808000000000,"state":"active","ping":84},{"user_id":765,"name":"Tungsten","steam_id":76561198312854342,"connected_time":1625000000000,"state":"active","ping":61},{"user_id":782,"name":"fragadelphia","steam_id":76561198066116363,"connected_time":639000000000,"state":"active","ping":47},{"user_id":722,"name":"Elias","steam_id":76561198031295139,"connected_time":5904000000000,"state":"active","ping":45},{"user_id":757,"name":"Bryce Gobo","steam_id":76561199411560141,"connected_time":2509000000000,"state":"active","ping":47},{"user_id":751,"name":"ikuyo","steam_id":76561198996950205,"connected_time":3383000000000,"state":"active","ping":69},{"user_id":602,"name":"soup","steam_id":76561198043209046,"connected_time":11028000000000,"state":"active","ping":77},{"user_id":764,"name":"brobtlcehc","steam_id":76561198043558709,"connected_time":1636000000000,"state":"active","ping":46},{"user_id":717,"name":"Arsonist Goose","steam_id":76561198147441830,"connected_time":5955000000000,"state":"active","ping":74},{"user_id":715,"name":"[TrC] Dackstrus","steam_id":76561197973518509,"connected_time":6014000000000,"state":"active","ping":60},{"user_id":777,"name":"Thanks Ants","steam_id":76561197966221018,"connected_time":974000000000,"state":"active","ping":53},{"user_id":760,"name":"rorywashere /ᐠ - ˕ -マ Ⳋ","steam_id":76561198065825165,"connected_time":2483000000000,"state":"active","ping":120},{"user_id":704,"name":"rat gets the cheese","steam_id":76561198031234032,"connected_time":6477000000000,"state":"active","ping":96},{"user_id":787,"name":"bob1444","steam_id":76561198110258432,"connected_time":416000000000,"state":"active","ping":154},{"user_id":724,"name":"[TrC] Nosy","steam_id":76561197978859310,"connected_time":5733000000000,"state":"active","ping":61},{"user_id":788,"name":"JZ","steam_id":76561198377029198,"connected_time":404000000000,"state":"active","ping":116},{"user_id":752,"name":"gorlab","steam_id":76561198025089694,"connected_time":3167000000000,"state":"active","ping":63},{"user_id":786,"name":"Jazz Hands","steam_id":76561199225708271,"connected_time":507000000000,"state":"active","ping":66},{"user_id":789,"name":"Attrition","steam_id":76561197969881916,"connected_time":295000000000,"state":"active","ping":51},{"user_id":761,"name":"squash","steam_id":76561198150281353,"connected_time":2443000000000,"state":"active","ping":55},{"user_id":791,"name":"lavender","steam_id":76561199069518286,"connected_time":67000000000,"state":"active","ping":73},{"user_id":750,"name":"Archimedes!","steam_id":76561199446023933,"connected_time":3425000000000,"state":"active","ping":82},{"user_id":755,"name":"Hassium","steam_id":76561198162541373,"connected_time":2870000000000,"state":"active","ping":57}]},{"server_id":119,"name":"Uncletopia | Seattle | 2 | All Maps","name_short":"sea-2","host":"sea-1.us.uncletopia.com","port":27025,"enabled":true,"region":"us-west","cc":"us","latitude":47.608013,"longitude":-122.33517,"reserved":0,"last_update":"0001-01-01T00:00:00Z","name_a2s":"Uncletopia | Seattle | 2 | All Maps","protocol":17,"map":"ctf_2fort","folder":"tf","game":"Team Fortress","app_id":440,"player_count":18,"max_players":24,"Bots":0,"server_type":"Dedicated","server_os":"Linux","password":true,"vac":true,"version":"7757534","steam_id":85568392924469998,"keywords":["ctf","nocrits","nodmgspread","uncletopia"],"game_id":440,"stv_port":27026,"stv_name":"Uncletopia | Seattle | 2 | All Maps | STV","players":[{"user_id":641,"name":"Villchip","steam_id":76561198198599982,"connected_time":1342000000000,"state":"active","ping":49},{"user_id":624,"name":"Western_spy","steam_id":76561198968587046,"connected_time":2144000000000,"state":"active","ping":70},{"user_id":650,"name":"shiftshock01","steam_id":76561199049488870,"connected_time":540000000000,"state":"active","ping":64},{"user_id":628,"name":"breathing meat donut","steam_id":76561198123566649,"connected_time":1991000000000,"state":"active","ping":101},{"user_id":656,"name":"Koolaid","steam_id":76561199200296010,"connected_time":95000000000,"state":"active","ping":140},{"user_id":651,"name":"Arcy","steam_id":76561198237030056,"connected_time":336000000000,"state":"active","ping":50},{"user_id":655,"name":"American Dad Funny Moments #32","steam_id":76561198254874328,"connected_time":99000000000,"state":"active","ping":75},{"user_id":637,"name":"reymundo","steam_id":76561197989412830,"connected_time":1605000000000,"state":"active","ping":94},{"user_id":653,"name":"Macro","steam_id":76561199442846226,"connected_time":193000000000,"state":"active","ping":131},{"user_id":649,"name":"mmmBoyo","steam_id":76561198821360261,"connected_time":678000000000,"state":"active","ping":50},{"user_id":654,"name":"Hsepirn","steam_id":76561198152395431,"connected_time":170000000000,"state":"active","ping":91},{"user_id":657,"name":"Lime","steam_id":76561198080786408,"connected_time":68000000000,"state":"active","ping":47},{"user_id":557,"name":"Moth","steam_id":76561198170253694,"connected_time":7859000000000,"state":"active","ping":66},{"user_id":658,"name":"Cardboardcoin","steam_id":76561199421284163,"connected_time":52000000000,"state":"active","ping":65},{"user_id":659,"name":"Cam(era)","steam_id":76561198285054047,"connected_time":34000000000,"state":"active","ping":79},{"user_id":621,"name":"Ena","steam_id":76561198066986108,"connected_time":2397000000000,"state":"active","ping":39},{"user_id":597,"name":"goldhed","steam_id":76561198051751133,"connected_time":4745000000000,"state":"active","ping":55},{"user_id":617,"name":"Algibruh","steam_id":76561199221599415,"connected_time":2805000000000,"state":"active","ping":59}]},{"server_id":406,"name":"Uncletopia | Seattle | 3 | Stopwatch Beta","name_short":"sea-3","host":"sea-1.us.uncletopia.com","port":27035,"enabled":true,"region":"us-west","cc":"us","latitude":47.608013,"longitude":-122.33517,"reserved":0,"last_update":"0001-01-01T00:00:00Z","name_a2s":"Uncletopia | Seattle | 3 | Stopwatch Beta","protocol":17,"map":"pl_borneo","folder":"tf","game":"Team Fortress","app_id":440,"player_count":0,"max_players":24,"Bots":0,"server_type":"Dedicated","server_os":"Linux","password":true,"vac":true,"version":"7757534","steam_id":85568392924515217,"keywords":["nocrits","nodmgspread","payload","uncletopia"],"game_id":440,"stv_port":27036,"stv_name":"Uncletopia | Seattle | 3 | Stopwatch Beta | STV","players":null},{"server_id":17,"name":"Uncletopia | San Francisco | 1 | All Maps","name_short":"sfo-1","host":"sfo-1.us.uncletopia.com","port":27015,"enabled":true,"region":"us-west","cc":"us","latitude":37.77397,"longitude":-122.4313,"reserved":0,"last_update":"0001-01-01T00:00:00Z","name_a2s":"Uncletopia | San Francisco | 1 | All Maps","protocol":17,"map":"pl_badwater","folder":"tf","game":"Team Fortress","app_id":440,"player_count":24,"max_players":24,"Bots":0,"server_type":"Dedicated","server_os":"Linux","password":true,"vac":true,"version":"7757534","steam_id":85568392924469999,"keywords":["nocrits","nodmgspread","payload","uncletopia"],"game_id":440,"stv_port":27016,"stv_name":"Uncletopia | San Francisco | 1 | All Maps | STV","players":[{"user_id":452,"name":"mechanicvirus","steam_id":76561198038161480,"connected_time":3964000000000,"state":"active","ping":66},{"user_id":482,"name":"Beeveelution","steam_id":76561198331526301,"connected_time":1958000000000,"state":"active","ping":56},{"user_id":480,"name":"Sleepy Zombie","steam_id":76561197999126875,"connected_time":2062000000000,"state":"active","ping":113},{"user_id":443,"name":"Stapler","steam_id":76561198099295077,"connected_time":4221000000000,"state":"active","ping":47},{"user_id":476,"name":"Some Drunken Bear","steam_id":76561199387415364,"connected_time":2212000000000,"state":"active","ping":73},{"user_id":488,"name":"Fargo","steam_id":76561198044703931,"connected_time":1099000000000,"state":"active","ping":85},{"user_id":489,"name":"wzyazrael","steam_id":76561198844221455,"connected_time":1083000000000,"state":"active","ping":56},{"user_id":462,"name":"Swag6","steam_id":76561198064110837,"connected_time":3161000000000,"state":"active","ping":48},{"user_id":478,"name":"Spy Sappin My Sentry","steam_id":76561199148191703,"connected_time":2172000000000,"state":"active","ping":78},{"user_id":495,"name":"Troy","steam_id":76561198005572722,"connected_time":826000000000,"state":"active","ping":118},{"user_id":483,"name":"Milotic","steam_id":76561198047995713,"connected_time":1899000000000,"state":"active","ping":72},{"user_id":463,"name":"Swag5","steam_id":76561198065311356,"connected_time":3157000000000,"state":"active","ping":51},{"user_id":474,"name":"Bindox","steam_id":76561198148430891,"connected_time":2375000000000,"state":"active","ping":90},{"user_id":484,"name":"John Wick's puppy","steam_id":76561198064662875,"connected_time":1831000000000,"state":"active","ping":46},{"user_id":419,"name":"the bulldozer","steam_id":76561198800334545,"connected_time":5657000000000,"state":"active","ping":52},{"user_id":497,"name":"boba tea","steam_id":76561198319442494,"connected_time":307000000000,"state":"active","ping":65},{"user_id":487,"name":"Tweeterhead","steam_id":76561198399117913,"connected_time":1308000000000,"state":"active","ping":82},{"user_id":486,"name":"ferby","steam_id":76561198028229594,"connected_time":1798000000000,"state":"active","ping":46},{"user_id":491,"name":"HOG RIDER","steam_id":76561198298589502,"connected_time":1019000000000,"state":"active","ping":60},{"user_id":492,"name":"fish","steam_id":76561198194508197,"connected_time":1015000000000,"state":"active","ping":60},{"user_id":438,"name":"Markz","steam_id":76561197996278159,"connected_time":4605000000000,"state":"active","ping":77},{"user_id":494,"name":"mmmm","steam_id":76561198041744957,"connected_time":923000000000,"state":"active","ping":61},{"user_id":473,"name":"Are you retarded","steam_id":76561198072364702,"connected_time":2457000000000,"state":"active","ping":121},{"user_id":477,"name":"Candy-Man","steam_id":76561198051702098,"connected_time":2208000000000,"state":"active","ping":67}]},{"server_id":18,"name":"Uncletopia | San Francisco | 2 | All Maps","name_short":"sfo-2","host":"sfo-1.us.uncletopia.com","port":27025,"enabled":true,"region":"us-west","cc":"us","latitude":37.77397,"longitude":-122.4313,"reserved":0,"last_update":"0001-01-01T00:00:00Z","name_a2s":"Uncletopia | San Francisco | 2 | All Maps","protocol":17,"map":"cp_process_final","folder":"tf","game":"Team Fortress","app_id":440,"player_count":0,"max_players":24,"Bots":0,"server_type":"Dedicated","server_os":"Linux","password":true,"vac":true,"version":"7757534","steam_id":85568392924470000,"keywords":["cp","nocrits","nodmgspread","uncletopia"],"game_id":440,"stv_port":27026,"stv_name":"Uncletopia | San Francisco | 2 | All Maps | STV","players":null},{"server_id":19,"name":"Uncletopia | San Francisco | 3 | Stopwatch Beta","name_short":"sfo-3","host":"sfo-1.us.uncletopia.com","port":27035,"enabled":true,"region":"us-west","cc":"us","latitude":37.77397,"longitude":-122.4313,"reserved":0,"last_update":"0001-01-01T00:00:00Z","name_a2s":"Uncletopia | San Francisco | 3 | Stopwatch Beta","protocol":17,"map":"pl_borneo","folder":"tf","game":"Team Fortress","app_id":440,"player_count":0,"max_players":24,"Bots":0,"server_type":"Dedicated","server_os":"Linux","password":true,"vac":true,"version":"7757534","steam_id":85568392924742824,"keywords":["nocrits","nodmgspread","payload","uncletopia"],"game_id":440,"stv_port":27036,"stv_name":"Uncletopia | San Francisco | 3 | Stopwatch Beta | STV","players":null},{"server_id":20,"name":"Uncletopia | San Francisco | 4 | Community","name_short":"sfo-4","host":"sfo-1.us.uncletopia.com","port":27045,"enabled":true,"region":"us-west","cc":"us","latitude":37.77397,"longitude":-122.4313,"reserved":0,"last_update":"0001-01-01T00:00:00Z","name_a2s":"Uncletopia | San Francisco | 4 | Community","protocol":17,"map":"workshop/pl_corrode_rc2.ugc546577989","folder":"tf","game":"Team Fortress","app_id":440,"player_count":4,"max_players":24,"Bots":0,"server_type":"Dedicated","server_os":"Linux","password":true,"vac":true,"version":"7757534","steam_id":85568392924742826,"keywords":["nocrits","nodmgspread","payload","uncletopia"],"game_id":440,"stv_port":27046,"stv_name":"Uncletopia | San Francisco | 4 | Community | STV","players":[{"user_id":23,"name":"Sayori","steam_id":76561198957479336,"connected_time":1293000000000,"state":"active","ping":98},{"user_id":26,"name":"Joker's Skull","steam_id":76561199185320627,"connected_time":362000000000,"state":"active","ping":106},{"user_id":25,"name":"Doctor X (Michiko Daemon)","steam_id":76561199106264424,"connected_time":577000000000,"state":"active","ping":102},{"user_id":27,"name":"Nekogaming1500","steam_id":76561198979123816,"connected_time":249000000000,"state":"active","ping":67}]},{"server_id":141,"name":"Uncletopia | Sydney | 1 | All Maps","name_short":"syd-1","host":"syd-1.au.uncletopia.com","port":27015,"enabled":true,"region":"au","cc":"au","latitude":-33.865143,"longitude":151.2099,"reserved":0,"last_update":"0001-01-01T00:00:00Z","name_a2s":"Uncletopia | Sydney | 1 | All Maps","protocol":17,"map":"pl_frontier_final","folder":"tf","game":"Team Fortress","app_id":440,"player_count":24,"max_players":24,"Bots":0,"server_type":"Dedicated","server_os":"Linux","password":true,"vac":true,"version":"7757534","steam_id":85568392924470001,"keywords":["nocrits","nodmgspread","payload","uncletopia"],"game_id":440,"stv_port":27016,"stv_name":"Uncletopia | Sydney | 1 | All Maps | STV","players":[{"user_id":330,"name":"Shtinky","steam_id":76561199186320078,"connected_time":279000000000,"state":"active","ping":44},{"user_id":310,"name":"Lincoln2603","steam_id":76561198170236666,"connected_time":1732000000000,"state":"active","ping":38},{"user_id":297,"name":"JohnWilkesBooth2603","steam_id":76561199262196710,"connected_time":2767000000000,"state":"active","ping":37},{"user_id":298,"name":"Hally","steam_id":76561198045236233,"connected_time":2655000000000,"state":"active","ping":54},{"user_id":290,"name":"Toody","steam_id":76561198212656752,"connected_time":3220000000000,"state":"active","ping":46},{"user_id":318,"name":"honk knoh","steam_id":76561198054079203,"connected_time":1531000000000,"state":"active","ping":90},{"user_id":322,"name":"AfroMeerkat","steam_id":76561197995499647,"connected_time":1010000000000,"state":"active","ping":66},{"user_id":311,"name":"Dr Barry Mundy PhD","steam_id":76561198034512686,"connected_time":1726000000000,"state":"active","ping":76},{"user_id":313,"name":"1ocalTechSuppor1","steam_id":76561198175547093,"connected_time":1632000000000,"state":"active","ping":81},{"user_id":331,"name":"MikkyD","steam_id":76561198043452962,"connected_time":261000000000,"state":"active","ping":65},{"user_id":328,"name":"pants money","steam_id":76561198066256359,"connected_time":521000000000,"state":"active","ping":54},{"user_id":314,"name":"hive","steam_id":76561199099744527,"connected_time":1623000000000,"state":"active","ping":45},{"user_id":240,"name":"Oysenberry","steam_id":76561198125443335,"connected_time":7553000000000,"state":"active","ping":41},{"user_id":294,"name":"bird up","steam_id":76561198347964028,"connected_time":3191000000000,"state":"active","ping":41},{"user_id":324,"name":"Barry Bougar M.D.","steam_id":76561198301282416,"connected_time":795000000000,"state":"active","ping":69},{"user_id":333,"name":"bowser","steam_id":76561198271462646,"connected_time":118000000000,"state":"active","ping":101},{"user_id":321,"name":"CouldBeKarlos","steam_id":76561198956180767,"connected_time":1371000000000,"state":"active","ping":48},{"user_id":317,"name":"Tantei Rotana","steam_id":76561198041204323,"connected_time":1573000000000,"state":"active","ping":60},{"user_id":267,"name":"soupy","steam_id":76561198073734936,"connected_time":5504000000000,"state":"active","ping":84},{"user_id":320,"name":"SinisterMagnus","steam_id":76561198133867907,"connected_time":1484000000000,"state":"active","ping":64},{"user_id":332,"name":"chaker","steam_id":76561198031908335,"connected_time":244000000000,"state":"active","ping":53},{"user_id":329,"name":"itsdemo","steam_id":76561198216065689,"connected_time":477000000000,"state":"active","ping":46},{"user_id":281,"name":"blortzoing","steam_id":76561198063481761,"connected_time":4052000000000,"state":"active","ping":45},{"user_id":296,"name":"conga man","steam_id":76561198406959622,"connected_time":2988000000000,"state":"active","ping":59}]},{"server_id":123,"name":"Uncletopia | Sydney | 2 | All Maps","name_short":"syd-2","host":"syd-1.au.uncletopia.com","port":27025,"enabled":true,"region":"au","cc":"au","latitude":-33.865143,"longitude":151.2099,"reserved":0,"last_update":"0001-01-01T00:00:00Z","name_a2s":"Uncletopia | Sydney | 2 | All Maps","protocol":17,"map":"koth_viaduct","folder":"tf","game":"Team Fortress","app_id":440,"player_count":7,"max_players":24,"Bots":0,"server_type":"Dedicated","server_os":"Linux","password":true,"vac":true,"version":"7757534","steam_id":85568392924470002,"keywords":["cp","nocrits","nodmgspread","uncletopia"],"game_id":440,"stv_port":27026,"stv_name":"Uncletopia | Sydney | 2 | All Maps | STV","players":[{"user_id":9,"name":"Crumpet","steam_id":76561199096381193,"connected_time":2754000000000,"state":"active","ping":58},{"user_id":37,"name":"Kaynis82","steam_id":76561199067369201,"connected_time":1000000000,"state":"spawning","ping":19},{"user_id":19,"name":"GappyZero","steam_id":76561199270883180,"connected_time":1169000000000,"state":"active","ping":154},{"user_id":35,"name":"coomズ彡し","steam_id":76561199015946981,"connected_time":404000000000,"state":"active","ping":43},{"user_id":36,"name":"Wake'n'Bake'n'Make'n'Bacon","steam_id":76561198061960926,"connected_time":259000000000,"state":"active","ping":101},{"user_id":26,"name":"jbobanno3","steam_id":76561199200267518,"connected_time":797000000000,"state":"active","ping":56},{"user_id":23,"name":"primal","steam_id":76561198257852006,"connected_time":975000000000,"state":"active","ping":62}]},{"server_id":395,"name":"Uncletopia | Sydney | 3 | All Maps","name_short":"syd-3","host":"syd-1.au.uncletopia.com","port":27035,"enabled":true,"region":"au","cc":"au","latitude":-33.865143,"longitude":151.2099,"reserved":0,"last_update":"0001-01-01T00:00:00Z","name_a2s":"Uncletopia | Sydney | 3 | All Maps","protocol":17,"map":"koth_viaduct","folder":"tf","game":"Team Fortress","app_id":440,"player_count":0,"max_players":24,"Bots":0,"server_type":"Dedicated","server_os":"Linux","password":true,"vac":true,"version":"7757534","steam_id":85568392925194467,"keywords":["cp","nocrits","nodmgspread","uncletopia"],"game_id":440,"stv_port":27036,"stv_name":"Uncletopia | Sydney | 3 | All Maps | STV","players":null},{"server_id":396,"name":"Uncletopia | Sydney | 4 | All Maps","name_short":"syd-4","host":"syd-1.au.uncletopia.com","port":27045,"enabled":true,"region":"au","cc":"au","latitude":-33.865143,"longitude":151.2099,"reserved":0,"last_update":"0001-01-01T00:00:00Z","name_a2s":"Uncletopia | Sydney | 4 | All Maps","protocol":17,"map":"koth_viaduct","folder":"tf","game":"Team Fortress","app_id":440,"player_count":0,"max_players":24,"Bots":0,"server_type":"Dedicated","server_os":"Linux","password":true,"vac":true,"version":"7757534","steam_id":85568392925397958,"keywords":["cp","nocrits","nodmgspread","uncletopia"],"game_id":440,"stv_port":27046,"stv_name":"Uncletopia | Sydney | 4 | All Maps | STV","players":null},{"server_id":58,"name":"Uncletopia | Sydney | 5 | Stopwatch Beta","name_short":"syd-5","host":"syd-1.au.uncletopia.com","port":27055,"enabled":true,"region":"au","cc":"au","latitude":-33.865143,"longitude":151.2099,"reserved":0,"last_update":"0001-01-01T00:00:00Z","name_a2s":"Uncletopia | Sydney | 5 | Stopwatch Beta","protocol":17,"map":"workshop/pl_summercoast_rc8e.ugc1761528829","folder":"tf","game":"Team Fortress","app_id":440,"player_count":0,"max_players":24,"Bots":0,"server_type":"Dedicated","server_os":"Linux","password":true,"vac":true,"version":"7757534","steam_id":85568392925397959,"keywords":["nocrits","nodmgspread","payload","uncletopia"],"game_id":440,"stv_port":27056,"stv_name":"Uncletopia | Sydney | 5 | Stopwatch Beta | STV","players":null},{"server_id":59,"name":"Uncletopia | Sydney | 6 | Community","name_short":"syd-6","host":"syd-1.au.uncletopia.com","port":27065,"enabled":true,"region":"au","cc":"au","latitude":-33.865143,"longitude":151.2099,"reserved":0,"last_update":"0001-01-01T00:00:00Z","name_a2s":"Uncletopia | Sydney | 6 | Community","protocol":17,"map":"cp_sunshine","folder":"tf","game":"Team Fortress","app_id":440,"player_count":0,"max_players":24,"Bots":0,"server_type":"Dedicated","server_os":"Linux","password":true,"vac":true,"version":"7757534","steam_id":85568392925397960,"keywords":["cp","nocrits","nodmgspread","uncletopia"],"game_id":440,"stv_port":27066,"stv_name":"Uncletopia | Sydney | 6 | Community | STV","players":null},{"server_id":49,"name":"Uncletopia | Warsaw | 1 | All Maps","name_short":"waw-1","host":"waw-1.pl.uncletopia.com","port":27015,"enabled":true,"region":"eu","cc":"pl","latitude":52.2297,"longitude":21.017532,"reserved":0,"last_update":"0001-01-01T00:00:00Z","name_a2s":"","protocol":0,"map":"","folder":"","game":"","app_id":0,"player_count":0,"max_players":0,"Bots":0,"server_type":"","server_os":"","password":false,"vac":false,"version":"","steam_id":0,"keywords":null,"game_id":0,"stv_port":0,"stv_name":"","players":null},{"server_id":50,"name":"Uncletopia | Warsaw | 2 | All Maps","name_short":"waw-2","host":"waw-1.pl.uncletopia.com","port":27025,"enabled":true,"region":"eu","cc":"pl","latitude":52.2297,"longitude":21.017532,"reserved":0,"last_update":"0001-01-01T00:00:00Z","name_a2s":"Uncletopia | Warsaw | 2 | All Maps","protocol":17,"map":"cp_process_final","folder":"tf","game":"Team Fortress","app_id":440,"player_count":0,"max_players":24,"Bots":0,"server_type":"Dedicated","server_os":"Linux","password":true,"vac":true,"version":"7757534","steam_id":85568392925397851,"keywords":["cp","nocrits","nodmgspread","uncletopia"],"game_id":440,"stv_port":27026,"stv_name":"Uncletopia | Warsaw | 2 | All Maps | STV","players":null},{"server_id":51,"name":"Uncletopia | Warsaw | 3 | All Maps","name_short":"waw-3","host":"waw-1.pl.uncletopia.com","port":27035,"enabled":true,"region":"eu","cc":"pl","latitude":52.2297,"longitude":21.017532,"reserved":0,"last_update":"0001-01-01T00:00:00Z","name_a2s":"Uncletopia | Warsaw | 3 | All Maps","protocol":17,"map":"pl_barnblitz","folder":"tf","game":"Team Fortress","app_id":440,"player_count":0,"max_players":24,"Bots":0,"server_type":"Dedicated","server_os":"Linux","password":true,"vac":true,"version":"7757534","steam_id":85568392925397852,"keywords":["nocrits","nodmgspread","payload","uncletopia"],"game_id":440,"stv_port":27036,"stv_name":"Uncletopia | Warsaw | 3 | All Maps | STV","players":null},{"server_id":52,"name":"Uncletopia | Warsaw | 4 | All Maps","name_short":"waw-4","host":"waw-1.pl.uncletopia.com","port":27045,"enabled":true,"region":"eu","cc":"pl","latitude":52.2297,"longitude":21.017532,"reserved":0,"last_update":"0001-01-01T00:00:00Z","name_a2s":"Uncletopia | Warsaw | 4 | All Maps","protocol":17,"map":"pl_snowycoast","folder":"tf","game":"Team Fortress","app_id":440,"player_count":0,"max_players":24,"Bots":0,"server_type":"Dedicated","server_os":"Linux","password":true,"vac":true,"version":"7757534","steam_id":85568392925397853,"keywords":["nocrits","nodmgspread","payload","uncletopia"],"game_id":440,"stv_port":27046,"stv_name":"Uncletopia | Warsaw | 4 | All Maps | STV","players":null},{"server_id":53,"name":"Uncletopia | Warsaw | 5 | Stopwatch Beta","name_short":"waw-5","host":"waw-1.pl.uncletopia.com","port":27055,"enabled":true,"region":"eu","cc":"pl","latitude":52.2297,"longitude":21.017532,"reserved":0,"last_update":"0001-01-01T00:00:00Z","name_a2s":"Uncletopia | Warsaw | 5 | Stopwatch Beta","protocol":17,"map":"pl_barnblitz","folder":"tf","game":"Team Fortress","app_id":440,"player_count":0,"max_players":24,"Bots":0,"server_type":"Dedicated","server_os":"Linux","password":true,"vac":true,"version":"7757534","steam_id":85568392925397854,"keywords":["nocrits","nodmgspread","payload","uncletopia"],"game_id":440,"stv_port":27056,"stv_name":"Uncletopia | Warsaw | 5 | Stopwatch Beta | STV","players":null},{"server_id":54,"name":"Uncletopia | Warsaw | 6 | Community","name_short":"waw-6","host":"waw-1.pl.uncletopia.com","port":27065,"enabled":true,"region":"eu","cc":"pl","latitude":52.2297,"longitude":21.017532,"reserved":0,"last_update":"0001-01-01T00:00:00Z","name_a2s":"Uncletopia | Warsaw | 6 | Community","protocol":17,"map":"pl_swiftwater_final1","folder":"tf","game":"Team Fortress","app_id":440,"player_count":0,"max_players":24,"Bots":0,"server_type":"Dedicated","server_os":"Linux","password":true,"vac":true,"version":"7757534","steam_id":85568392925397856,"keywords":["nocrits","nodmgspread","payload","uncletopia"],"game_id":440,"stv_port":27066,"stv_name":"Uncletopia | Warsaw | 6 | Community | STV","players":null}]}