{"status":true,"message":"","result":[{"server_id":9,"name":"Uncletopia | Atlanta | 1 | All Maps","name_short":"atl-1","host":"atl-1.us.uncletopia.com","port":27015,"enabled":true,"region":"us-east","cc":"us","latitude":33.753746,"longitude":-84.38633,"reserved":0,"last_update":"0001-01-01T00:00:00Z","name_a2s":"Uncletopia | Atlanta | 1 | All Maps","protocol":17,"map":"cp_gravelpit","folder":"tf","game":"Team Fortress","app_id":440,"player_count":24,"max_players":24,"Bots":0,"server_type":"Dedicated","server_os":"Linux","password":true,"vac":true,"version":"7757534","steam_id":85568392924469982,"keywords":["cp","nocrits","nodmgspread","uncletopia"],"game_id":440,"stv_port":27016,"stv_name":"Uncletopia | Atlanta | 1 | All Maps | STV","players":[{"user_id":91,"name":"anhedonia","steam_id":76561198014557455,"connected_time":585000000000,"state":"active","ping":77},{"user_id":16,"name":"frizzle fried","steam_id":76561198062991744,"connected_time":4970000000000,"state":"active","ping":60},{"user_id":94,"name":"troll","steam_id":76561198040890252,"connected_time":349000000000,"state":"active","ping":52},{"user_id":80,"name":"Legit_Jaxer","steam_id":76561198172234053,"connected_time":1308000000000,"state":"active","ping":102},{"user_id":73,"name":"g00bur","steam_id":76561197993622520,"connected_time":1832000000000,"state":"active","ping":66},{"user_id":21,"name":"esc frame","steam_id":76561198044856349,"connected_time":4697000000000,"state":"active","ping":68},{"user_id":82,"name":"SnazzyCelestial","steam_id":76561198328763813,"connected_time":1009000000000,"state":"active","ping":67},{"user_id":74,"name":"Rocco Murder","steam_id":76561197995620232,"connected_time":1742000000000,"state":"active","ping":47},{"user_id":90,"name":"bee","steam_id":76561198025553902,"connected_time":762000000000,"state":"active","ping":60},{"user_id":83,"name":"scrapheap","steam_id":76561198202407087,"connected_time":985000000000,"state":"active","ping":78},{"user_id":97,"name":"Mkwhackertracker","steam_id":76561198128343704,"connected_time":5000000000,"state":"spawning","ping":82},{"user_id":57,"name":"Lilith","steam_id":76561198125102885,"connected_time":3319000000000,"state":"active","ping":63},{"user_id":88,"name":"Slazzer","steam_id":76561198404351844,"connected_time":922000000000,"state":"active","ping":67},{"user_id":64,"name":"Bear of the Polar Variety","steam_id":76561198370330710,"connected_time":2706000000000,"state":"active","ping":165},{"user_id":62,"name":"Kiso ÁÅ´","steam_id":76561198141026844,"connected_time":2843000000000,"state":"active","ping":105},{"user_id":93,"name":"DualiTea","steam_id":76561198081733870,"connected_time":573000000000,"state":"active","ping":75},{"user_id":98,"name":"boylover54","steam_id":76561199030726701,"connected_time":3000000000,"state":"spawning","ping":74},{"user_id":95,"name":"Frenemy \u003e:D","steam_id":76561198011363677,"connected_time":216000000000,"state":"active","ping":75},{"user_id":65,"name":"Carl, Good to see you","steam_id":76561198070574075,"connected_time":2637000000000,"state":"active","ping":60},{"user_id":86,"name":"Elizabeth","steam_id":76561198245846186,"connected_time":951000000000,"state":"active","ping":172},{"user_id":75,"name":"Motorol¬™","steam_id":76561198358119669,"connected_time":1649000000000,"state":"active","ping":118},{"user_id":52,"name":"BrokenDoop","steam_id":76561198072954386,"connected_time":3497000000000,"state":"active","ping":121},{"user_id":78,"name":"DuckKey","steam_id":76561198904477889,"connected_time":1568000000000,"state":"active","ping":62},{"user_id":46,"name":"Bocchi the Cock","steam_id":76561198152455316,"connected_time":3939000000000,"state":"active","ping":124}]},{"server_id":104,"name":"Uncletopia | Atlanta | 2 | All Maps","name_short":"atl-2","host":"atl-1.us.uncletopia.com","port":27025,"enabled":true,"region":"us-east","cc":"us","latitude":33.753746,"longitude":-84.38633,"reserved":0,"last_update":"0001-01-01T00:00:00Z","name_a2s":"Uncletopia | Atlanta | 2 | All Maps","protocol":17,"map":"koth_highpass","folder":"tf","game":"Team Fortress","app_id":440,"player_count":0,"max_players":24,"Bots":0,"server_type":"Dedicated","server_os":"Linux","password":true,"vac":true,"version":"7757534","steam_id":85568392924469983,"keywords":["cp","nocrits","nodmgspread","uncletopia"],"game_id":440,"stv_port":27026,"stv_name":"Uncletopia | Atlanta | 2 | All Maps | STV","players":null},{"server_id":400,"name":"Uncletopia | Atlanta | 3 | Community","name_short":"atl-3","host":"atl-1.us.uncletopia.com","port":27035,"enabled":true,"region":"us-east","cc":"us","latitude":33.753746,"longitude":-84.38633,"reserved":0,"last_update":"0001-01-01T00:00:00Z","name_a2s":"Uncletopia | Atlanta | 3 | Community","protocol":17,"map":"workshop/koth_bagel_rc6.ugc2514036946","folder":"tf","game":"Team Fortress","app_id":440,"player_count":0,"max_players":24,"Bots":0,"server_type":"Dedicated","server_os":"Linux","password":true,"vac":true,"version":"7757534","steam_id":85568392924515187,"keywords":["cp","nocrits","nodmgspread","uncletopia"],"game_id":440,"stv_port":27036,"stv_name":"Uncletopia | Atlanta | 3 | Community | STV","players":null},{"server_id":401,"name":"Uncletopia | Atlanta | 4 | No Payload","name_short":"atl-4","host":"atl-1.us.uncletopia.com","port":27045,"enabled":true,"region":"us-east","cc":"us","latitude":33.753746,"longitude":-84.38633,"reserved":0,"last_update":"0001-01-01T00:00:00Z","name_a2s":"","protocol":0,"map":"","folder":"","game":"","app_id":0,"player_count":0,"max_players":0,"Bots":0,"server_type":"","server_os":"","password":false,"vac":false,"version":"","steam_id":0,"keywords":null,"game_id":0,"stv_port":0,"stv_name":"","players":null},{"server_id":2,"name":"Uncletopia | Chicago | 1 | All Maps","name_short":"chi-1","host":"chi-1.us.uncletopia.com","port":27015,"enabled":true,"region":"us-central","cc":"us","latitude":41.881832,"longitude":-87.62318,"reserved":0,"last_update":"0001-01-01T00:00:00Z","name_a2s":"Uncletopia | Chicago | 1 | All Maps","protocol":17,"map":"pl_barnblitz","folder":"tf","game":"Team Fortress","app_id":440,"player_count":24,"max_players":24,"Bots":0,"server_type":"Dedicated","server_os":"Linux","password":true,"vac":true,"version":"7757534","steam_id":85568392924469984,"keywords":["nocrits","nodmgspread","payload","uncletopia"],"game_id":440,"stv_port":27016,"stv_name":"Uncletopia | Chicago | 1 | All Maps | STV","players":[{"user_id":152,"name":"Stoa","steam_id":76561198332519926,"connected_time":1510000000000,"state":"active","ping":82},{"user_id":163,"name":"Gaben Gaming","steam_id":76561198330119627,"connected_time":113000000000,"state":"active","ping":71},{"user_id":132,"name":"Super Ghostbusters (Full Album)","steam_id":76561198057415490,"connected_time":2897000000000,"state":"active","ping":45},{"user_id":155,"name":"Firedrakecheerful","steam_id":76561198141166902,"connected_time":1152000000000,"state":"active","ping":50},{"user_id":139,"name":"Hylic","steam_id":76561199051314589,"connected_time":2722000000000,"state":"active","ping":62},{"user_id":159,"name":"Commodore Fox05","steam_id":76561198400161840,"connected_time":1076000000000,"state":"active","ping":88},{"user_id":126,"name":"BasicPeaches","steam_id":76561198190890150,"connected_time":3067000000000,"state":"active","ping":76},{"user_id":148,"name":"Vox Vulpera","steam_id":76561198796227041,"connected_time":2014000000000,"state":"active","ping":67},{"user_id":98,"name":"Pershing[GER]","steam_id":76561197970330818,"connected_time":5488000000000,"state":"active","ping":173},{"user_id":130,"name":"feenman","steam_id":76561199383834799,"connected_time":2947000000000,"state":"active","ping":97},{"user_id":147,"name":"Im High","steam_id":76561198049954886,"connected_time":2081000000000,"state":"active","ping":65},{"user_id":156,"name":"Capn. Wing Ding","steam_id":76561198076068424,"connected_time":1133000000000,"state":"active","ping":73},{"user_id":151,"name":"ùô¥ ùö° ùöå ùöé ùöï ùöï \ufffd","steam_id":76561198011887958,"connected_time":1561000000000,"state":"active","ping":60},{"user_id":141,"name":"Xx_UrineEnjoyer_xX","steam_id":76561198397991402,"connected_time":2479000000000,"state":"active","ping":133},{"user_id":114,"name":"Eminem Sandvich","steam_id":76561198064631314,"connected_time":4517000000000,"state":"active","ping":65},{"user_id":149,"name":"sansa musa","steam_id":76561198163723555,"connected_time":2010000000000,"state":"active","ping":60},{"user_id":167,"name":"Snapdragron","steam_id":76561198348485302,"connected_time":71000000000,"state":"active","ping":75},{"user_id":157,"name":"The Rock","steam_id":76561198433328517,"connected_time":1115000000000,"state":"active","ping":73},{"user_id":162,"name":"Lia_Rein (ttv)","steam_id":76561198151569597,"connected_time":603000000000,"state":"active","ping":146},{"user_id":158,"name":"barbara","steam_id":76561198072417792,"connected_time":1111000000000,"state":"active","ping":65},{"user_id":144,"name":"carrion goat","steam_id":76561198262064871,"connected_time":2431000000000,"state":"active","ping":53},{"user_id":137,"name":"wickit","steam_id":76561199241555613,"connected_time":2791000000000,"state":"active","ping":56},{"user_id":164,"name":"Veir≈´ Viseris","steam_id":76561197989857176,"connected_time":112000000000,"state":"active","ping":165},{"user_id":165,"name":"wentilyator","steam_id":76561198173626526,"connected_time":111000000000,"state":"active","ping":171}]},{"server_id":106,"name":"Uncletopia | Chicago | 2 | All Maps","name_short":"chi-2","host":"chi-1.us.uncletopia.com","port":27025,"enabled":true,"region":"us-central","cc":"us","latitude":41.881832,"longitude":-87.62318,"reserved":0,"last_update":"0001-01-01T00:00:00Z","name_a2s":"Uncletopia | Chicago | 2 | All Maps","protocol":17,"map":"cp_dustbowl","folder":"tf","game":"Team Fortress","app_id":440,"player_count":3,"max_players":24,"Bots":0,"server_type":"Dedicated","server_os":"Linux","password":true,"vac":true,"version":"7757534","steam_id":85568392924469985,"keywords":["cp","nocrits","nodmgspread","uncletopia"],"game_id":440,"stv_port":27026,"stv_name":"Uncletopia | Chicago | 2 | All Maps | STV","players":[{"user_id":7,"name":"god usop","steam_id":76561199230412397,"connected_time":141000000000,"state":"active","ping":202},{"user_id":8,"name":"FakeBot","steam_id":76561197961193303,"connected_time":65000000000,"state":"active","ping":113},{"user_id":9,"name":"Santa (Real)","steam_id":76561199057730282,"connected_time":43000000000,"state":"active","ping":69}]},{"server_id":402,"name":"Uncletopia | Chicago | 3 | All Maps","name_short":"chi-3","host":"chi-1.us.uncletopia.com","port":27035,"enabled":true,"region":"us-central","cc":"us","latitude":41.881832,"longitude":-87.62318,"reserved":0,"last_update":"0001-01-01T00:00:00Z","name_a2s":"Uncletopia | Chicago | 3 | All Maps","protocol":17,"map":"pl_pier","folder":"tf","game":"Team Fortress","app_id":440,"player_count":0,"max_players":24,"Bots":0,"server_type":"Dedicated","server_os":"Linux","password":true,"vac":true,"version":"7757534","steam_id":85568392924515191,"keywords":["nocrits","nodmgspread","payload","uncletopia"],"game_id":440,"stv_port":27036,"stv_name":"Uncletopia | Chicago | 3 | All Maps | STV","players":null},{"server_id":403,"name":"Uncletopia | Chicago | 4 | All Maps","name_short":"chi-4","host":"chi-1.us.uncletopia.com","port":27045,"enabled":true,"region":"us-central","cc":"us","latitude":41.881832,"longitude":-87.62318,"reserved":0,"last_update":"0001-01-01T00:00:00Z","name_a2s":"Uncletopia | Chicago | 4 | All Maps","protocol":17,"map":"koth_lakeside_final","folder":"tf","game":"Team Fortress","app_id":440,"player_count":0,"max_players":24,"Bots":0,"server_type":"Dedicated","server_os":"Linux","password":true,"vac":true,"version":"7757534","steam_id":85568392924515193,"keywords":["cp","nocrits","nodmgspread","uncletopia"],"game_id":440,"stv_port":27046,"stv_name":"Uncletopia | Chicago | 4 | All Maps | STV","players":null},{"server_id":36,"name":"Uncletopia | Chicago | 5 | All Maps","name_short":"chi-5","host":"chi-2.us.uncletopia.com","port":27015,"enabled":true,"region":"us-central","cc":"us","latitude":41.881832,"longitude":-87.62318,"reserved":0,"last_update":"0001-01-01T00:00:00Z","name_a2s":"Uncletopia | Chicago | 5 | All Maps","protocol":17,"map":"koth_cascade","folder":"tf","game":"Team Fortress","app_id":440,"player_count":2,"max_players":24,"Bots":0,"server_type":"Dedicated","server_os":"Linux","password":true,"vac":true,"version":"7757534","steam_id":85568392924866362,"keywords":["cp","nocrits","nodmgspread","uncletopia"],"game_id":440,"stv_port":27016,"stv_name":"Uncletopia | Chicago | 5 | All Maps | STV","players":[{"user_id":4,"name":"jeann√©mard","steam_id":76561199014082729,"connected_time":45000000000,"state":"active","ping":160},{"user_id":5,"name":"Rip_Shadow","steam_id":76561199231745710,"connected_time":31000000000,"state":"active","ping":174}]},{"server_id":37,"name":"Uncletopia | Chicago | 6 | All Maps","name_short":"chi-6","host":"chi-2.us.uncletopia.com","port":27025,"enabled":true,"region":"us-central","cc":"us","latitude":41.881832,"longitude":-87.62318,"reserved":0,"last_update":"0001-01-01T00:00:00Z","name_a2s":"Uncletopia | Chicago | 6 | All Maps","protocol":17,"map":"pl_snowycoast","folder":"tf","game":"Team Fortress","app_id":440,"player_count":23,"max_players":24,"Bots":0,"server_type":"Dedicated","server_os":"Linux","password":true,"vac":true,"version":"7757534","steam_id":85568392924866363,"keywords":["nocrits","nodmgspread","payload","uncletopia"],"game_id":440,"stv_port":27026,"stv_name":"Uncletopia | Chicago | 6 | All Maps | STV","players":[{"user_id":10,"name":"TheDude","steam_id":76561198314764519,"connected_time":9055000000000,"state":"active","ping":100},{"user_id":125,"name":"Fargo","steam_id":76561198044703931,"connected_time":986000000000,"state":"active","ping":66},{"user_id":123,"name":"ue","steam_id":76561198328109873,"connected_time":1021000000000,"state":"active","ping":78},{"user_id":128,"name":"hehehehehe","steam_id":76561198909415646,"connected_time":514000000000,"state":"active","ping":78},{"user_id":127,"name":"Skill Saw Stan","steam_id":76561199013064727,"connected_time":696000000000,"state":"active","ping":76},{"user_id":130,"name":"SHADY SWEATER SALESMAN","steam_id":76561198014616865,"connected_time":322000000000,"state":"active","ping":74},{"user_id":106,"name":"xen","steam_id":76561198048568188,"connected_time":2157000000000,"state":"active","ping":63},{"user_id":55,"name":"mrselfdestruct13","steam_id":76561197992054553,"connected_time":6970000000000,"state":"active","ping":82},{"user_id":133,"name":"capeeKo","steam_id":76561197970346623,"connected_time":127000000000,"state":"active","ping":82},{"user_id":112,"name":"Blitz3k","steam_id":76561198055758741,"connected_time":1911000000000,"state":"active","ping":62},{"user_id":26,"name":"wally","steam_id":76561198027450079,"connected_time":8072000000000,"state":"active","ping":64},{"user_id":121,"name":"rotmone","steam_id":76561198846618797,"connected_time":1188000000000,"state":"active","ping":79},{"user_id":116,"name":"Fresh0c0","steam_id":76561198271933283,"connected_time":1741000000000,"state":"active","ping":54},{"user_id":122,"name":"caligulasAquarium","steam_id":76561198297961039,"connected_time":1156000000000,"state":"active","ping":83},{"user_id":113,"name":"Degenerate","steam_id":76561198079416360,"connected_time":1910000000000,"state":"active","ping":69},{"user_id":118,"name":"The Good","steam_id":76561198133253633,"connected_time":1438000000000,"state":"active","ping":96},{"user_id":120,"name":"The Law","steam_id":76561198202209948,"connected_time":1209000000000,"state":"active","ping":54},{"user_id":124,"name":"blakejack226","steam_id":76561199128917566,"connected_time":1020000000000,"state":"active","ping":84},{"user_id":76,"name":"Ringo x Seiran","steam_id":76561198357437908,"connected_time":5389000000000,"state":"active","ping":62},{"user_id":104,"name":"Ernsperh","steam_id":76561198067072920,"connected_time":2659000000000,"state":"active","ping":57},{"user_id":132,"name":"xthyl","steam_id":76561199361299006,"connected_time":140000000000,"state":"active","ping":83},{"user_id":92,"name":"VIEGO CORLEONE","steam_id":76561198273568117,"connected_time":3494000000000,"state":"active","ping":74},{"user_id":105,"name":":|","steam_id":76561198098440698,"connected_time":2653000000000,"state":"active","ping":56}]},{"server_id":38,"name":"Uncletopia | Chicago | 7 | Stopwatch Beta","name_short":"chi-7","host":"chi-2.us.uncletopia.com","port":27035,"enabled":true,"region":"us-central","cc":"us","latitude":41.881832,"longitude":-87.62318,"reserved":0,"last_update":"0001-01-01T00:00:00Z","name_a2s":"Uncletopia | Chicago | 7 | Stopwatch Beta","protocol":17,"map":"pl_barnblitz","folder":"tf","game":"Team Fortress","app_id":440,"player_count":0,"max_players":24,"Bots":0,"server_type":"Dedicated","server_os":"Linux","password":true,"vac":true,"version":"7757534","steam_id":85568392924866364,"keywords":["nocrits","nodmgspread","payload","uncletopia"],"game_id":440,"stv_port":27036,"stv_name":"Uncletopia | Chicago | 7 | Stopwatch Beta | STV","players":null},{"server_id":39,"name":"Uncletopia | Chicago | 8 | Community","name_short":"chi-8","host":"chi-2.us.uncletopia.com","port":27045,"enabled":true,"region":"us-central","cc":"us","latitude":41.881832,"longitude":-87.62318,"reserved":0,"last_update":"0001-01-01T00:00:00Z","name_a2s":"Uncletopia | Chicago | 8 | Community","protocol":17,"map":"koth_cascade","folder":"tf","game":"Team Fortress","app_id":440,"player_count":0,"max_players":24,"Bots":0,"server_type":"Dedicated","server_os":"Linux","password":true,"vac":true,"version":"7757534","steam_id":85568392924866365,"keywords":["cp","nocrits","nodmgspread","uncletopia"],"game_id":440,"stv_port":27046,"stv_name":"Uncletopia | Chicago | 8 | Community | STV","players":null},{"server_id":8,"name":"Uncletopia | Dallas | 1 | All Maps","name_short":"dal-1","host":"dal-1.us.uncletopia.com","port":27015,"enabled":true,"region":"us-central","cc":"us","latitude":32.779167,"longitude":-96.80889,"reserved":0,"last_update":"0001-01-01T00:00:00Z","name_a2s":"Uncletopia | Dallas | 1 | All Maps","protocol":17,"map":"pl_barnblitz","folder":"tf","game":"Team Fortress","app_id":440,"player_count":0,"max_players":24,"Bots":0,"server_type":"Dedicated","server_os":"Linux","password":true,"vac":true,"version":"7757534","steam_id":85568392924469986,"keywords":["nocrits","nodmgspread","payload","uncletopia"],"game_id":440,"stv_port":27016,"stv_name":"Uncletopia | Dallas | 1 | All Maps | STV","players":null},{"server_id":108,"name":"Uncletopia | Dallas | 2 | All Maps","name_short":"dal-2","host":"dal-1.us.uncletopia.com","port":27025,"enabled":true,"region":"us-central","cc":"us","latitude":32.779167,"longitude":-96.80889,"reserved":0,"last_update":"0001-01-01T00:00:00Z","name_a2s":"Uncletopia | Dallas | 2 | All Maps","protocol":17,"map":"pl_snowycoast","folder":"tf","game":"Team Fortress","app_id":440,"player_count":22,"max_players":24,"Bots":0,"server_type":"Dedicated","server_os":"Linux","password":true,"vac":true,"version":"7757534","steam_id":85568392924469988,"keywords":["nocrits","nodmgspread","payload","uncletopia"],"game_id":440,"stv_port":27026,"stv_name":"Uncletopia | Dallas | 2 | All Maps | STV","players":[{"user_id":104,"name":"Winter the Witchie","steam_id":76561198151971178,"connected_time":679000000000,"state":"active","ping":83},{"user_id":101,"name":"Sup m8","steam_id":76561198081659121,"connected_time":1339000000000,"state":"active","ping":30},{"user_id":105,"name":"Pancho","steam_id":76561198155847264,"connected_time":673000000000,"state":"active","ping":57},{"user_id":85,"name":"Arrluk","steam_id":76561198396679452,"connected_time":2528000000000,"state":"active","ping":62},{"user_id":87,"name":"suicide in fragments","steam_id":76561198071430182,"connected_time":2168000000000,"state":"active","ping":76},{"user_id":58,"name":"AmericanAutobot","steam_id":76561198102398820,"connected_time":4794000000000,"state":"active","ping":36},{"user_id":110,"name":"Matisguy","steam_id":76561199020903681,"connected_time":593000000000,"state":"active","ping":60},{"user_id":18,"name":"Drakon","steam_id":76561198078210822,"connected_time":6172000000000,"state":"active","ping":98},{"user_id":62,"name":"Mellou","steam_id":76561198212048740,"connected_time":4411000000000,"state":"active","ping":44},{"user_id":109,"name":"dabri88","steam_id":76561198103645497,"connected_time":640000000000,"state":"active","ping":87},{"user_id":95,"name":"ShredMaan","steam_id":76561198429982138,"connected_time":1701000000000,"state":"active","ping":83},{"user_id":111,"name":"Average Knight Enjoyer","steam_id":76561199124979983,"connected_time":591000000000,"state":"active","ping":66},{"user_id":94,"name":"Worst Scenario","steam_id":76561199052130229,"connected_time":1859000000000,"state":"active","ping":94},{"user_id":37,"name":"King Col","steam_id":76561198033384990,"connected_time":5608000000000,"state":"active","ping":67},{"user_id":29,"name":"PEPPINO SPAGHETTI","steam_id":76561198084849541,"connected_time":5934000000000,"state":"active","ping":47},{"user_id":100,"name":"Zetta","steam_id":76561198045710113,"connected_time":1414000000000,"state":"active","ping":78},{"user_id":86,"name":"Mazdamundi!","steam_id":76561198044691081,"connected_time":2346000000000,"state":"active","ping":60},{"user_id":102,"name":"Frosty","steam_id":76561198121412489,"connected_time":1074000000000,"state":"active","ping":94},{"user_id":41,"name":"TheKees301","steam_id":76561198827506371,"connected_time":5533000000000,"state":"active","ping":186},{"user_id":112,"name":"tf3aflyingmouse","steam_id":76561198058134934,"connected_time":562000000000,"state":"active","ping":95},{"user_id":103,"name":"potato pat","steam_id":76561198025489194,"connected_time":926000000000,"state":"active","ping":46},{"user_id":83,"name":"MeMyBongusAndTheGreatOutdoors","steam_id":76561198097708978,"connected_time":2596000000000,"state":"active","ping":72}]},{"server_id":5,"name":"Uncletopia | Frankfurt | 1 | All Maps","name_short":"frk-1","host":"frk-1.de.uncletopia.com","port":27015,"enabled":true,"region":"eu","cc":"de","latitude":50.110924,"longitude":8.682127,"reserved":0,"last_update":"0001-01-01T00:00:00Z","name_a2s":"Uncletopia | Frankfurt | 1 | All Maps","protocol":17,"map":"pl_pier","folder":"tf","game":"Team Fortress","app_id":440,"player_count":24,"max_players":24,"Bots":0,"server_type":"Dedicated","server_os":"Linux","password":true,"vac":true,"version":"7757534","steam_id":85568392924469989,"keywords":["nocrits","nodmgspread","payload","uncletopia"],"game_id":440,"stv_port":27016,"stv_name":"Uncletopia | Frankfurt | 1 | All Maps | STV","players":[{"user_id":426,"name":"TV","steam_id":76561198177326926,"connected_time":865000000000,"state":"active","ping":174},{"user_id":419,"name":"BING CHILLING","steam_id":76561198065438030,"connected_time":1187000000000,"state":"active","ping":110},{"user_id":427,"name":"Crackbean","steam_id":76561199115082856,"connected_time":862000000000,"state":"active","ping":71},{"user_id":407,"name":"midlpsyzl47","steam_id":76561199475972637,"connected_time":1968000000000,"state":"active","ping":68},{"user_id":433,"name":"Vitamin Weee","steam_id":76561199183937747,"connected_time":524000000000,"state":"active","ping":83},{"user_id":428,"name":"Pfannkuchenkatze","steam_id":76561199171303050,"connected_time":828000000000,"state":"active","ping":167},{"user_id":431,"name":"Vectillion","steam_id":76561198074292454,"connected_time":614000000000,"state":"active","ping":78},{"user_id":439,"name":"Soerlssoelss√∂en","steam_id":76561197993060585,"connected_time":119000000000,"state":"active","ping":74},{"user_id":421,"name":"Kali","steam_id":76561198796327257,"connected_time":1026000000000,"state":"active","ping":56},{"user_id":408,"name":"Roasted Toast","steam_id":76561198045051290,"connected_time":1927000000000,"state":"active","ping":69},{"user_id":405,"name":"njofra","steam_id":76561199143737200,"connected_time":2022000000000,"state":"active","ping":87},{"user_id":422,"name":"Dzan50","steam_id":76561198059758591,"connected_time":1013000000000,"state":"active","ping":95},{"user_id":440,"name":"Akis—è–Ω","steam_id":76561198078706435,"connected_time":36000000000,"state":"active","ping":77},{"user_id":423,"name":"rock","steam_id":76561198093488870,"connected_time":984000000000,"state":"active","ping":140},{"user_id":395,"name":"Kava","steam_id":76561199001657140,"connected_time":2474000000000,"state":"active","ping":90},{"user_id":394,"name":"tallen","steam_id":76561198061708595,"connected_time":2496000000000,"state":"active","ping":85},{"user_id":424,"name":"etc","steam_id":76561197998394797,"connected_time":931000000000,"state":"active","ping":60},{"user_id":414,"name":"Dippi sniper of the season","steam_id":76561198323411853,"connected_time":1638000000000,"state":"active","ping":81},{"user_id":413,"name":"NatP","steam_id":76561198012083811,"connected_time":1726000000000,"state":"active","ping":77},{"user_id":415,"name":"madman hesus","steam_id":76561198159702599,"connected_time":1612000000000,"state":"active","ping":79},{"user_id":393,"name":"Flash","steam_id":76561198067379855,"connected_time":2799000000000,"state":"active","ping":58},{"user_id":435,"name":"Pingus","steam_id":76561198164880756,"connected_time":422000000000,"state":"active","ping":74},{"user_id":429,"name":"MatesThePlayer","steam_id":76561198066156449,"connected_time":822000000000,"state":"active","ping":59},{"user_id":346,"name":"Woman (Real)","steam_id":76561198131411627,"connected_time":7061000000000,"state":"active","ping":115}]},{"server_id":110,"name":"Uncletopia | Frankfurt | 2 | All Maps","name_short":"frk-2","host":"frk-1.de.uncletopia.com","port":27025,"enabled":true,"region":"eu","cc":"de","latitude":50.110924,"longitude":8.682127,"reserved":0,"last_update":"0001-01-01T00:00:00Z","name_a2s":"Uncletopia | Frankfurt | 2 | All Maps","protocol":17,"map":"pl_swiftwater_final1","folder":"tf","game":"Team Fortress","app_id":440,"player_count":24,"max_players":24,"Bots":0,"server_type":"Dedicated","server_os":"Linux","password":true,"vac":true,"version":"7757534","steam_id":85568392924469990,"keywords":["nocrits","nodmgspread","payload","uncletopia"],"game_id":440,"stv_port":27026,"stv_name":"Uncletopia | Frankfurt | 2 | All Maps | STV","players":[{"user_id":200,"name":"the scringly dingly","steam_id":76561198192179174,"connected_time":1330000000000,"state":"active","ping":121},{"user_id":205,"name":"Dr. Feelgood","steam_id":76561199173885103,"connected_time":1143000000000,"state":"active","ping":143},{"user_id":223,"name":"Deshio","steam_id":76561198211863275,"connected_time":320000000000,"state":"active","ping":58},{"user_id":188,"name":"ishbell","steam_id":76561198211990879,"connected_time":1805000000000,"state":"active","ping":61},{"user_id":226,"name":"Cornelius Shacklebart","steam_id":76561198000735878,"connected_time":199000000000,"state":"active","ping":59},{"user_id":207,"name":"Cafo","steam_id":76561198063795441,"connected_time":1111000000000,"state":"active","ping":70},{"user_id":74,"name":"john fortress","steam_id":76561198013237629,"connected_time":11020000000000,"state":"active","ping":108},{"user_id":217,"name":"johnny dorito","steam_id":76561198148074472,"connected_time":823000000000,"state":"active","ping":37},{"user_id":147,"name":"wasto-/-‚Ñ¢","steam_id":76561198102888038,"connected_time":4677000000000,"state":"active","ping":53},{"user_id":220,"name":"Lucky B.üèÜ","steam_id":76561198077571162,"connected_time":729000000000,"state":"active","ping":55},{"user_id":210,"name":"Calamity","steam_id":76561198094879610,"connected_time":999000000000,"state":"active","ping":93},{"user_id":214,"name":"the least schizo med main","steam_id":76561198048530109,"connected_time":881000000000,"state":"active","ping":75},{"user_id":191,"name":"Killer8880","steam_id":76561199094449560,"connected_time":1649000000000,"state":"active","ping":91},{"user_id":215,"name":"speancer","steam_id":76561198260705251,"connected_time":876000000000,"state":"active","ping":89},{"user_id":216,"name":"Depakine 500","steam_id":76561198214267967,"connected_time":855000000000,"state":"active","ping":70},{"user_id":181,"name":"dominikcz.zero","steam_id":76561198423489957,"connected_time":2765000000000,"state":"active","ping":56},{"user_id":224,"name":"Edla","steam_id":76561198062815315,"connected_time":264000000000,"state":"active","ping":123},{"user_id":218,"name":"the youngest trillionaire","steam_id":76561198078780040,"connected_time":814000000000,"state":"active","ping":57},{"user_id":198,"name":"Mr. Mundy","steam_id":76561198132008918,"connected_time":1368000000000,"state":"active","ping":84},{"user_id":225,"name":"DarthPaul8181","steam_id":76561198373050455,"connected_time":264000000000,"state":"active","ping":66},{"user_id":194,"name":"Vidrox #savetf2","steam_id":76561199217854983,"connected_time":1501000000000,"state":"active","ping":96},{"user_id":202,"name":"babel","steam_id":76561198118412910,"connected_time":1203000000000,"state":"active","ping":73},{"user_id":219,"name":"Dolcelatte","steam_id":76561198038501770,"connected_time":802000000000,"state":"active","ping":53},{"user_id":222,"name":"System","steam_id":76561199442503973,"connected_time":342000000000,"state":"active","ping":47}]},{"server_id":308,"name":"Uncletopia | Frankfurt | 3 | All Maps","name_short":"frk-3","host":"frk-1.de.uncletopia.com","port":27035,"enabled":true,"region":"eu","cc":"de","latitude":50.110924,"longitude":8.682127,"reserved":0,"last_update":"0001-01-01T00:00:00Z","name_a2s":"Uncletopia | Frankfurt | 3 | All Maps","protocol":17,"map":"pl_pier","folder":"tf","game":"Team Fortress","app_id":440,"player_count":0,"max_players":24,"Bots":0,"server_type":"Dedicated","server_os":"Linux","password":true,"vac":true,"version":"7757534","steam_id":85568392924504274,"keywords":["nocrits","nodmgspread","payload","uncletopia"],"game_id":440,"stv_port":27036,"stv_name":"Uncletopia | Frankfurt | 3 | All Maps | STV","players":null},{"server_id":309,"name":"Uncletopia | Frankfurt | 4 | All Maps","name_short":"frk-4","host":"frk-1.de.uncletopia.com","port":27045,"enabled":true,"region":"eu","cc":"de","latitude":50.110924,"longitude":8.682127,"reserved":0,"last_update":"0001-01-01T00:00:00Z","name_a2s":"Uncletopia | Frankfurt | 4 | All Maps","protocol":17,"map":"koth_cascade","folder":"tf","game":"Team Fortress","app_id":440,"player_count":4,"max_players":24,"Bots":0,"server_type":"Dedicated","server_os":"Linux","password":true,"vac":true,"version":"7757534","steam_id":85568392924504275,"keywords":["cp","nocrits","nodmgspread","uncletopia"],"game_id":440,"stv_port":27046,"stv_name":"Uncletopia | Frankfurt | 4 | All Maps | STV","players":[{"user_id":11,"name":"spes-marine42","steam_id":76561199404806029,"connected_time":1600000000000,"state":"active","ping":106},{"user_id":16,"name":"sinny","steam_id":76561198408109066,"connected_time":501000000000,"state":"active","ping":75},{"user_id":17,"name":"Project","steam_id":76561198159409260,"connected_time":473000000000,"state":"active","ping":106},{"user_id":18,"name":"aj","steam_id":76561199171726227,"connected_time":451000000000,"state":"active","ping":46}]},{"server_id":310,"name":"Uncletopia | Frankfurt | 5 | All Maps","name_short":"frk-5","host":"frk-1.de.uncletopia.com","port":27055,"enabled":true,"region":"eu","cc":"de","latitude":50.110924,"longitude":8.682127,"reserved":0,"last_update":"0001-01-01T00:00:00Z","name_a2s":"Uncletopia | Frankfurt | 5 | All Maps","protocol":17,"map":"koth_highpass","folder":"tf","game":"Team Fortress","app_id":440,"player_count":0,"max_players":24,"Bots":0,"server_type":"Dedicated","server_os":"Linux","password":true,"vac":true,"version":"7757534","steam_id":85568392924504277,"keywords":["cp","nocrits","nodmgspread","uncletopia"],"game_id":440,"stv_port":27056,"stv_name":"Uncletopia | Frankfurt | 5 | All Maps | STV","players":null},{"server_id":311,"name":"Uncletopia | Frankfurt | 6 | All Maps","name_short":"frk-6","host":"frk-1.de.uncletopia.com","port":27065,"enabled":true,"region":"eu","cc":"de","latitude":50.110924,"longitude":8.682127,"reserved":0,"last_update":"0001-01-01T00:00:00Z","name_a2s":"Uncletopia | Frankfurt | 6 | All Maps","protocol":17,"map":"koth_viaduct","folder":"tf","game":"Team Fortress","app_id":440,"player_count":23,"max_players":24,"Bots":0,"server_type":"Dedicated","server_os":"Linux","password":true,"vac":true,"version":"7757534","steam_id":85568392924504278,"keywords":["cp","nocrits","nodmgspread","uncletopia"],"game_id":440,"stv_port":27066,"stv_name":"Uncletopia | Frankfurt | 6 | All Maps | STV","players":[{"user_id":113,"name":"Eno","steam_id":76561198387892963,"connected_time":122000000000,"state":"active","ping":69},{"user_id":115,"name":"static","steam_id":76561198836825741,"connected_time":118000000000,"state":"active","ping":56},{"user_id":89,"name":"Egor Pomidor","steam_id":76561199175688390,"connected_time":2095000000000,"state":"active","ping":75},{"user_id":78,"name":"Bob Sacamano","steam_id":76561198085610701,"connected_time":3107000000000,"state":"active","ping":84},{"user_id":104,"name":"Kvicha Kvaratskhelia","steam_id":76561198179339326,"connected_time":1241000000000,"state":"active","ping":75},{"user_id":90,"name":"Biggest Boss [Knockout]","steam_id":76561198044387120,"connected_time":2024000000000,"state":"active","ping":86},{"user_id":112,"name":"oxygen user","steam_id":76561199111975528,"connected_time":141000000000,"state":"active","ping":159},{"user_id":99,"name":"Pilaarius","steam_id":76561198120273212,"connected_time":1568000000000,"state":"active","ping":94},{"user_id":120,"name":"Varsk","steam_id":76561198061398890,"connected_time":35000000000,"state":"active","ping":53},{"user_id":102,"name":"Gorzel","steam_id":76561198828273330,"connected_time":1335000000000,"state":"active","ping":72},{"user_id":114,"name":"jim","steam_id":76561198172003783,"connected_time":122000000000,"state":"active","ping":99},{"user_id":64,"name":"Milosz52","steam_id":76561199060940204,"connected_time":3879000000000,"state":"active","ping":81},{"user_id":100,"name":"Lobster Overlord","steam_id":76561198144692530,"connected_time":1467000000000,"state":"active","ping":45},{"user_id":108,"name":"Gearless","steam_id":76561198362367074,"connected_time":831000000000,"state":"active","ping":90},{"user_id":86,"name":"PizzaPete123","steam_id":76561198089478290,"connected_time":2132000000000,"state":"active","ping":54},{"user_id":60,"name":"Fat Pigeon","steam_id":76561198817940142,"connected_time":4155000000000,"state":"active","ping":60},{"user_id":116,"name":"Kaishakunin","steam_id":76561198028123874,"connected_time":110000000000,"state":"active","ping":99},{"user_id":109,"name":"Cosmonaut","steam_id":76561198239514504,"connected_time":290000000000,"state":"active","ping":63},{"user_id":119,"name":"Hegyi tah√≥ F2P","steam_id":76561199219150356,"connected_time":67000000000,"state":"active","ping":289},{"user_id":111,"name":"Ichbaplaya","steam_id":76561198152701211,"connected_time":245000000000,"state":"active","ping":66},{"user_id":98,"name":"Nox Equites","steam_id":76561198115438449,"connected_time":1657000000000,"state":"active","ping":92},{"user_id":105,"name":"certified","steam_id":76561198181368101,"connected_time":1240000000000,"state":"active","ping":57},{"user_id":107,"name":"X-tis","steam_id":76561198043837480,"connected_time":864000000000,"state":"active","ping":75}]},{"server_id":23,"name":"Uncletopia | Frankfurt | 7 | Stopwatch Beta","name_short":"frk-7","host":"frk-1.de.uncletopia.com","port":27075,"enabled":true,"region":"eu","cc":"de","latitude":50.110924,"longitude":8.682127,"reserved":0,"last_update":"0001-01-01T00:00:00Z","name_a2s":"Uncletopia | Frankfurt | 7 | Stopwatch Beta","protocol":17,"map":"workshop/cp_process_f12.ugc2302948105","folder":"tf","game":"Team Fortress","app_id":440,"player_count":8,"max_players":24,"Bots":0,"server_type":"Dedicated","server_os":"Linux","password":true,"vac":true,"version":"7757534","steam_id":85568392924742827,"keywords":["cp","nocrits","nodmgspread","uncletopia"],"game_id":440,"stv_port":27076,"stv_name":"Uncletopia | Frankfurt | 7 | Stopwatch Beta | STV","players":[{"user_id":284,"name":"Dor_atar","steam_id":76561198973980542,"connected_time":1299000000000,"state":"active","ping":69},{"user_id":285,"name":"Lexapro Delirium","steam_id":76561198211846811,"connected_time":1215000000000,"state":"active","ping":84},{"user_id":293,"name":"fried","steam_id":76561198307522022,"connected_time":587000000000,"state":"active","ping":45},{"user_id":276,"name":"ddchdrn","steam_id":76561198024358566,"connected_time":2764000000000,"state":"active","ping":60},{"user_id":303,"name":"Mandele","steam_id":76561199183213205,"connected_time":131000000000,"state":"active","ping":101},{"user_id":302,"name":"Greencoffee","steam_id":76561198842090589,"connected_time":148000000000,"state":"active","ping":86},{"user_id":304,"name":"(1)meow (they/them)","steam_id":76561198416657815,"connected_time":89000000000,"state":"active","ping":76},{"user_id":292,"name":"vi","steam_id":76561198303147966,"connected_time":784000000000,"state":"active","ping":54}]},{"server_id":24,"name":"Uncletopia | Frankfurt | 8 | Community","name_short":"frk-8","host":"frk-1.de.uncletopia.com","port":27085,"enabled":true,"region":"eu","cc":"de","latitude":50.110924,"longitude":8.682127,"reserved":0,"last_update":"0001-01-01T00:00:00Z","name_a2s":"Uncletopia | Frankfurt | 8 | Community","protocol":17,"map":"koth_lakeside_final","folder":"tf","game":"Team Fortress","app_id":440,"player_count":0,"max_players":24,"Bots":0,"server_type":"Dedicated","server_os":"Linux","password":true,"vac":true,"version":"7757534","steam_id":85568392924742828,"keywords":["cp","nocrits","nodmgspread","uncletopia"],"game_id":440,"stv_port":27086,"stv_name":"Uncletopia | Frankfurt | 8 | Community | STV","players":null},{"server_id":202,"name":"Uncletopia | Hong Kong | 1 | All Maps","name_short":"hgk-1","host":"hgk-1.hk.uncletopia.com","port":27015,"enabled":true,"region":"asia","cc":"hk","latitude":22.302711,"longitude":114.177216,"reserved":0,"last_update":"0001-01-01T00:00:00Z","name_a2s":"Uncletopia | Hong Kong | 1 | All Maps","protocol":17,"map":"cp_dustbowl","folder":"tf","game":"Team Fortress","app_id":440,"player_count":10,"max_players":24,"Bots":0,"server_type":"Dedicated","server_os":"Linux","password":true,"vac":true,"version":"7757534","steam_id":85568392924494504,"keywords":["cp","nocrits","nodmgspread","uncletopia"],"game_id":440,"stv_port":27016,"stv_name":"Uncletopia | Hong Kong | 1 | All Maps | STV","players":[{"user_id":510,"name":"K1TCHENER","steam_id":76561198391519025,"connected_time":455000000000,"state":"active","ping":101},{"user_id":504,"name":"NotFine","steam_id":76561199242217590,"connected_time":1912000000000,"state":"active","ping":90},{"user_id":511,"name":"LongChuck","steam_id":76561199083950485,"connected_time":430000000000,"state":"active","ping":107},{"user_id":502,"name":"Spider Dog","steam_id":76561198403834864,"connected_time":2824000000000,"state":"active","ping":88},{"user_id":507,"name":"Jaysong","steam_id":76561198828599078,"connected_time":1802000000000,"state":"active","ping":121},{"user_id":512,"name":"Maynard","steam_id":76561199149932458,"connected_time":362000000000,"state":"active","ping":96},{"user_id":513,"name":"Plastic_Spoon","steam_id":76561198245995780,"connected_time":297000000000,"state":"active","ping":248},{"user_id":461,"name":"CarlJo","steam_id":76561198384135605,"connected_time":5384000000000,"state":"active","ping":85},{"user_id":468,"name":"GreggieBoi","steam_id":76561199085200364,"connected_time":5335000000000,"state":"active","ping":71},{"user_id":489,"name":"KimvyKinsley","steam_id":76561198859745304,"connected_time":4978000000000,"state":"active","ping":80}]},{"server_id":1,"name":"Uncletopia | Los Angeles | 1 | All Maps","name_short":"lax-1","host":"lax-1.us.uncletopia.com","port":27015,"enabled":true,"region":"us-west","cc":"us","latitude":33.94279,"longitude":-118.41004,"reserved":0,"last_update":"0001-01-01T00:00:00Z","name_a2s":"Uncletopia | Los Angeles | 1 | All Maps","protocol":17,"map":"koth_lakeside_final","folder":"tf","game":"Team Fortress","app_id":440,"player_count":0,"max_players":24,"Bots":0,"server_type":"Dedicated","server_os":"Linux","password":true,"vac":true,"version":"7757534","steam_id":85568392924469991,"keywords":["cp","nocrits","nodmgspread","uncletopia"],"game_id":440,"stv_port":27016,"stv_name":"Uncletopia | Los Angeles | 1 | All Maps | STV","players":null},{"server_id":112,"name":"Uncletopia | Los Angeles | 2 | All Maps","name_short":"lax-2","host":"lax-1.us.uncletopia.com","port":27025,"enabled":true,"region":"us-west","cc":"us","latitude":33.94279,"longitude":-118.41004,"reserved":0,"last_update":"0001-01-01T00:00:00Z","name_a2s":"Uncletopia | Los Angeles | 2 | All Maps","protocol":17,"map":"pl_badwater","folder":"tf","game":"Team Fortress","app_id":440,"player_count":0,"max_players":24,"Bots":0,"server_type":"Dedicated","server_os":"Linux","password":true,"vac":true,"version":"7757534","steam_id":85568392924469992,"keywords":["nocrits","nodmgspread","payload","uncletopia"],"game_id":440,"stv_port":27026,"stv_name":"Uncletopia | Los Angeles | 2 | All Maps | STV","players":null},{"server_id":324,"name":"Uncletopia | Los Angeles | 3 | All Maps","name_short":"lax-3","host":"lax-1.us.uncletopia.com","port":27035,"enabled":true,"region":"us-west","cc":"us","latitude":33.94279,"longitude":-118.41004,"reserved":0,"last_update":"0001-01-01T00:00:00Z","name_a2s":"Uncletopia | Los Angeles | 3 | All Maps","protocol":17,"map":"cp_snakewater_final1","folder":"tf","game":"Team Fortress","app_id":440,"player_count":0,"max_players":24,"Bots":0,"server_type":"Dedicated","server_os":"Linux","password":true,"vac":true,"version":"7757534","steam_id":85568392924510198,"keywords":["cp","nocrits","nodmgspread","uncletopia"],"game_id":440,"stv_port":27036,"stv_name":"Uncletopia | Los Angeles | 3 | All Maps | STV","players":null},{"server_id":25,"name":"Uncletopia | Los Angeles | 4 | Stopwatch Beta","name_short":"lax-4","host":"lax-1.us.uncletopia.com","port":27045,"enabled":true,"region":"us-west","cc":"us","latitude":33.94279,"longitude":-118.41004,"reserved":0,"last_update":"0001-01-01T00:00:00Z","name_a2s":"Uncletopia | Los Angeles | 4 | Stopwatch Beta","protocol":17,"map":"pl_swiftwater_final1","folder":"tf","game":"Team Fortress","app_id":440,"player_count":0,"max_players":24,"Bots":0,"server_type":"Dedicated","server_os":"Linux","password":true,"vac":true,"version":"7757534","steam_id":85568392924510199,"keywords":["nocrits","nodmgspread","payload","uncletopia"],"game_id":440,"stv_port":27046,"stv_name":"Uncletopia | Los Angeles | 4 | Stopwatch Beta | STV","players":null},{"server_id":11,"name":"Uncletopia | London | 1 | All Maps","name_short":"lon-1","host":"lon-1.uk.uncletopia.com","port":27015,"enabled":true,"region":"eu","cc":"gb","latitude":51.509865,"longitude":-0.118092,"reserved":0,"last_update":"0001-01-01T00:00:00Z","name_a2s":"Uncletopia | London | 1 | All Maps","protocol":17,"map":"pl_badwater","folder":"tf","game":"Team Fortress","app_id":440,"player_count":24,"max_players":24,"Bots":0,"server_type":"Dedicated","server_os":"Linux","password":true,"vac":true,"version":"7757534","steam_id":85568392924367362,"keywords":["nocrits","nodmgspread","payload","uncletopia"],"game_id":440,"stv_port":27016,"stv_name":"Uncletopia | London | 1 | All Maps | STV","players":[{"user_id":509,"name":"Vorge","steam_id":76561198411852459,"connected_time":4286000000000,"state":"active","ping":129},{"user_id":554,"name":"Ferlo","steam_id":76561198095561504,"connected_time":1345000000000,"state":"active","ping":46},{"user_id":546,"name":"Salih","steam_id":76561198287934839,"connected_time":1735000000000,"state":"active","ping":59},{"user_id":528,"name":"jimmy bob","steam_id":76561198319583692,"connected_time":2972000000000,"state":"active","ping":57},{"user_id":569,"name":"Daggz","steam_id":76561198821879886,"connected_time":297000000000,"state":"active","ping":143},{"user_id":572,"name":"Purps","steam_id":76561198053886680,"connected_time":269000000000,"state":"active","ping":45},{"user_id":510,"name":"Ritual Sacrilege","steam_id":76561198053961616,"connected_time":4240000000000,"state":"active","ping":49},{"user_id":565,"name":"Titus Tyrwitt","steam_id":76561197990779673,"connected_time":455000000000,"state":"active","ping":147},{"user_id":571,"name":"NitPig","steam_id":76561198212991935,"connected_time":277000000000,"state":"active","ping":93},{"user_id":532,"name":"Unvid","steam_id":76561198031588080,"connected_time":2829000000000,"state":"active","ping":48},{"user_id":560,"name":"Big Spoon","steam_id":76561199247250436,"connected_time":641000000000,"state":"active","ping":60},{"user_id":563,"name":"twitch.tv/vision515","steam_id":76561198065293729,"connected_time":492000000000,"state":"active","ping":166},{"user_id":480,"name":"Neo Kojiro","steam_id":76561198000967076,"connected_time":6853000000000,"state":"active","ping":129},{"user_id":573,"name":"Uncle Terry","steam_id":76561198396415736,"connected_time":263000000000,"state":"active","ping":51},{"user_id":534,"name":"Ë¢´ÈîôËØØÂú∞Á¶ÅÊ≠¢","steam_id":76561198106049954,"connected_time":2499000000000,"state":"active","ping":83},{"user_id":548,"name":"Femboy Gaming","steam_id":76561199230209215,"connected_time":1582000000000,"state":"active","ping":62},{"user_id":550,"name":"Firearms","steam_id":76561197989867612,"connected_time":1469000000000,"state":"active","ping":47},{"user_id":574,"name":"JOHN GAMING (weezer#1fan)","steam_id":76561199085822219,"connected_time":262000000000,"state":"active","ping":93},{"user_id":552,"name":"Hypenite","steam_id":76561198067589713,"connected_time":1382000000000,"state":"active","ping":144},{"user_id":568,"name":"FoxRealGaming","steam_id":76561199363992142,"connected_time":402000000000,"state":"active","ping":87},{"user_id":557,"name":"Rui","steam_id":76561198263735498,"connected_time":1087000000000,"state":"active","ping":92},{"user_id":543,"name":"no1-","steam_id":76561198067524060,"connected_time":1772000000000,"state":"active","ping":75},{"user_id":555,"name":"Nebunuliii","steam_id":76561198953360954,"connected_time":1235000000000,"state":"active","ping":83},{"user_id":454,"name":"Ocelot","steam_id":76561198263386006,"connected_time":8715000000000,"state":"active","ping":109}]},{"server_id":114,"name":"Uncletopia | London | 2 | All Maps","name_short":"lon-2","host":"lon-1.uk.uncletopia.com","port":27025,"enabled":true,"region":"eu","cc":"gb","latitude":51.509865,"longitude":-0.118092,"reserved":0,"last_update":"0001-01-01T00:00:00Z","name_a2s":"Uncletopia | London | 2 | All Maps","protocol":17,"map":"plr_hightower","folder":"tf","game":"Team Fortress","app_id":440,"player_count":23,"max_players":24,"Bots":0,"server_type":"Dedicated","server_os":"Linux","password":true,"vac":true,"version":"7757534","steam_id":85568392924470941,"keywords":["nocrits","nodmgspread","payload","uncletopia"],"game_id":440,"stv_port":27026,"stv_name":"Uncletopia | London | 2 | All Maps | STV","players":[{"user_id":552,"name":"socaramel","steam_id":76561197984480336,"connected_time":104000000000,"state":"active","ping":79},{"user_id":553,"name":"Diarrhea Gaming","steam_id":76561198090589784,"connected_time":66000000000,"state":"active","ping":148},{"user_id":531,"name":"crit-a-cola consumer","steam_id":76561199009968231,"connected_time":1627000000000,"state":"active","ping":59},{"user_id":527,"name":"Wir suchen dich!","steam_id":76561198307613521,"connected_time":1804000000000,"state":"active","ping":60},{"user_id":532,"name":"fifrok","steam_id":76561198799267621,"connected_time":1600000000000,"state":"active","ping":83},{"user_id":495,"name":"GlueTasty {she/her}","steam_id":76561199086480891,"connected_time":3030000000000,"state":"active","ping":83},{"user_id":520,"name":"Xx_EpicGaymer_xX","steam_id":76561198846784757,"connected_time":2079000000000,"state":"active","ping":56},{"user_id":497,"name":"IncrediblyTexan","steam_id":76561199159370663,"connected_time":2957000000000,"state":"active","ping":73},{"user_id":538,"name":"originalakalil","steam_id":76561199481172481,"connected_time":1230000000000,"state":"active","ping":161},{"user_id":469,"name":"Rask","steam_id":76561198052934944,"connected_time":4909000000000,"state":"active","ping":91},{"user_id":529,"name":"FancyThed","steam_id":76561198186639563,"connected_time":1668000000000,"state":"active","ping":69},{"user_id":550,"name":"GazerBazer","steam_id":76561198879107565,"connected_time":374000000000,"state":"active","ping":61},{"user_id":554,"name":"Pencil Billy","steam_id":76561198009407651,"connected_time":1000000000,"state":"spawning","ping":28},{"user_id":542,"name":"bushman","steam_id":76561197996548146,"connected_time":866000000000,"state":"active","ping":150},{"user_id":551,"name":"Egtu","steam_id":76561198013757235,"connected_time":369000000000,"state":"active","ping":69},{"user_id":543,"name":"teamspeakisbeter","steam_id":76561198994349483,"connected_time":833000000000,"state":"active","ping":185},{"user_id":521,"name":"ITS THE FREAKING BAT","steam_id":76561199234889615,"connected_time":2068000000000,"state":"active","ping":65},{"user_id":546,"name":"Penguin Lord","steam_id":76561198398031813,"connected_time":726000000000,"state":"active","ping":73},{"user_id":516,"name":"skitarii enjoyer","steam_id":76561198220245604,"connected_time":2210000000000,"state":"active","ping":74},{"user_id":536,"name":"Spinyapickle","steam_id":76561198086653667,"connected_time":1329000000000,"state":"active","ping":54},{"user_id":501,"name":"Mr.Schnittlauch","steam_id":76561198295868113,"connected_time":2907000000000,"state":"active","ping":76},{"user_id":523,"name":"Cosmetic brain","steam_id":76561198055936410,"connected_time":2017000000000,"state":"active","ping":89},{"user_id":524,"name":"Favi","steam_id":76561198013236935,"connected_time":1985000000000,"state":"active","ping":75}]},{"server_id":320,"name":"Uncletopia | London | 3 | All Maps","name_short":"lon-3","host":"lon-1.uk.uncletopia.com","port":27035,"enabled":true,"region":"eu","cc":"gb","latitude":51.509865,"longitude":-0.118092,"reserved":0,"last_update":"0001-01-01T00:00:00Z","name_a2s":"Uncletopia | London | 3 | All Maps","protocol":17,"map":"cp_sunshine","folder":"tf","game":"Team Fortress","app_id":440,"player_count":24,"max_players":24,"Bots":0,"server_type":"Dedicated","server_os":"Linux","password":true,"vac":true,"version":"7757534","steam_id":85568392924510192,"keywords":["cp","nocrits","nodmgspread","uncletopia"],"game_id":440,"stv_port":27036,"stv_name":"Uncletopia | London | 3 | All Maps | STV","players":[{"user_id":279,"name":"Grim the lemon","steam_id":76561199083433988,"connected_time":735000000000,"state":"active","ping":53},{"user_id":289,"name":"Wyvern786","steam_id":76561199137770636,"connected_time":248000000000,"state":"active","ping":58},{"user_id":248,"name":"Alexandre","steam_id":76561198121784446,"connected_time":2080000000000,"state":"active","ping":38},{"user_id":250,"name":":)","steam_id":76561198039964082,"connected_time":1931000000000,"state":"active","ping":64},{"user_id":268,"name":"ayadam","steam_id":76561198161515769,"connected_time":1067000000000,"state":"active","ping":115},{"user_id":295,"name":"syndenz","steam_id":76561198176063813,"connected_time":89000000000,"state":"active","ping":74},{"user_id":272,"name":"hud_saytext_time 0","steam_id":76561198010327228,"connected_time":852000000000,"state":"active","ping":65},{"user_id":257,"name":"Wolltor Whitte","steam_id":76561198448195154,"connected_time":1231000000000,"state":"active","ping":52},{"user_id":292,"name":"kotamine","steam_id":76561198068907991,"connected_time":200000000000,"state":"active","ping":75},{"user_id":253,"name":"ComradeFloppy","steam_id":76561198295671740,"connected_time":1840000000000,"state":"active","ping":51},{"user_id":293,"name":"RobTheKid","steam_id":76561198346638308,"connected_time":188000000000,"state":"active","ping":50},{"user_id":290,"name":"Dakeyras","steam_id":76561198057069564,"connected_time":226000000000,"state":"active","ping":97},{"user_id":236,"name":"Daenny","steam_id":76561198053088822,"connected_time":2546000000000,"state":"active","ping":57},{"user_id":261,"name":"GEP Gun","steam_id":76561197981821003,"connected_time":1129000000000,"state":"active","ping":58},{"user_id":274,"name":"Mr. Hunts","steam_id":76561197981910397,"connected_time":827000000000,"state":"active","ping":65},{"user_id":249,"name":"wickEd_","steam_id":76561198048068999,"connected_time":2026000000000,"state":"active","ping":164},{"user_id":210,"name":"Dr. Mike Litoris","steam_id":76561197991205793,"connected_time":4561000000000,"state":"active","ping":81},{"user_id":294,"name":"Tr√∏lli","steam_id":76561198069281758,"connected_time":180000000000,"state":"active","ping":83},{"user_id":264,"name":"0xDEADBEEF","steam_id":76561199075416111,"connected_time":1097000000000,"state":"active","ping":79},{"user_id":227,"name":"saalvberg","steam_id":76561199409062000,"connected_time":2844000000000,"state":"active","ping":54},{"user_id":278,"name":"jill valentine","steam_id":76561198075068529,"connected_time":775000000000,"state":"active","ping":70},{"user_id":284,"name":"It's a me Malario","steam_id":76561198176546013,"connected_time":639000000000,"state":"active","ping":45},{"user_id":288,"name":"Mammut","steam_id":76561198056773933,"connected_time":306000000000,"state":"active","ping":53},{"user_id":283,"name":"Bepperman","steam_id":76561198397517828,"connected_time":669000000000,"state":"active","ping":59}]},{"server_id":321,"name":"Uncletopia | London | 4 | All Maps","name_short":"lon-4","host":"lon-1.uk.uncletopia.com","port":27045,"enabled":true,"region":"eu","cc":"gb","latitude":51.509865,"longitude":-0.118092,"reserved":0,"last_update":"0001-01-01T00:00:00Z","name_a2s":"Uncletopia | London | 4 | All Maps","protocol":17,"map":"koth_cascade","folder":"tf","game":"Team Fortress","app_id":440,"player_count":0,"max_players":24,"Bots":0,"server_type":"Dedicated","server_os":"Linux","password":true,"vac":true,"version":"7757534","steam_id":85568392924510193,"keywords":["cp","nocrits","nodmgspread","uncletopia"],"game_id":440,"stv_port":27046,"stv_name":"Uncletopia | London | 4 | All Maps | STV","players":null},{"server_id":21,"name":"Uncletopia | London | 5 | All Maps","name_short":"lon-5","host":"lon-1.uk.uncletopia.com","port":27055,"enabled":true,"region":"eu","cc":"gb","latitude":51.509865,"longitude":-0.118092,"reserved":0,"last_update":"0001-01-01T00:00:00Z","name_a2s":"Uncletopia | London | 5 | All Maps","protocol":17,"map":"koth_viaduct","folder":"tf","game":"Team Fortress","app_id":440,"player_count":24,"max_players":24,"Bots":0,"server_type":"Dedicated","server_os":"Linux","password":true,"vac":true,"version":"7757534","steam_id":85568392924742829,"keywords":["cp","nocrits","nodmgspread","uncletopia"],"game_id":440,"stv_port":27056,"stv_name":"Uncletopia | London | 5 | All Maps | STV","players":[{"user_id":157,"name":"eedefeed","steam_id":76561198045716254,"connected_time":4072000000000,"state":"active","ping":46},{"user_id":216,"name":"avenje","steam_id":76561198155824845,"connected_time":207000000000,"state":"active","ping":83},{"user_id":204,"name":"Twisted Logic ‚àû","steam_id":76561198002245428,"connected_time":914000000000,"state":"active","ping":38},{"user_id":213,"name":"sareena","steam_id":76561198810194062,"connected_time":386000000000,"state":"active","ping":72},{"user_id":178,"name":"Dark","steam_id":76561198086889620,"connected_time":2662000000000,"state":"active","ping":53},{"user_id":219,"name":"Claw","steam_id":76561198060985181,"connected_time":80000000000,"state":"active","ping":60},{"user_id":201,"name":"monke","steam_id":76561199098819786,"connected_time":1419000000000,"state":"active","ping":48},{"user_id":218,"name":"fuckbuddy","steam_id":76561197988733568,"connected_time":93000000000,"state":"active","ping":57},{"user_id":162,"name":"Seail_M","steam_id":76561198002405605,"connected_time":3860000000000,"state":"active","ping":63},{"user_id":126,"name":"MAKENTAKEN","steam_id":76561199127359587,"connected_time":6059000000000,"state":"active","ping":105},{"user_id":205,"name":"Stabbyratbag","steam_id":76561198119531916,"connected_time":903000000000,"state":"active","ping":32},{"user_id":203,"name":"crx3","steam_id":76561198064490510,"connected_time":1244000000000,"state":"active","ping":60},{"user_id":185,"name":"Steen","steam_id":76561198122992510,"connected_time":2260000000000,"state":"active","ping":47},{"user_id":186,"name":"Adrenaline","steam_id":76561197970852048,"connected_time":2245000000000,"state":"active","ping":65},{"user_id":206,"name":"Fisty","steam_id":76561198007831016,"connected_time":891000000000,"state":"active","ping":50},{"user_id":220,"name":"Miss Bari","steam_id":76561198365286092,"connected_time":33000000000,"state":"active","ping":33},{"user_id":200,"name":"wooper","steam_id":76561198953870572,"connected_time":1440000000000,"state":"active","ping":162},{"user_id":202,"name":"wat","steam_id":76561198941203517,"connected_time":1350000000000,"state":"active","ping":73},{"user_id":115,"name":"JeanCorben","steam_id":76561197965133561,"connected_time":7111000000000,"state":"active","ping":41},{"user_id":221,"name":"MT Foxtrot","steam_id":76561198058003989,"connected_time":3000000000,"state":"spawning","ping":59},{"user_id":217,"name":"hora","steam_id":76561198404470526,"connected_time":122000000000,"state":"active","ping":92},{"user_id":215,"name":".::[SerafeTTiN]::.","steam_id":76561198009471724,"connected_time":240000000000,"state":"active","ping":92},{"user_id":179,"name":"Remerv Keberb","steam_id":76561198154280406,"connected_time":2640000000000,"state":"active","ping":84},{"user_id":211,"name":"FizzyPug","steam_id":76561198131449652,"connected_time":592000000000,"state":"active","ping":33}]},{"server_id":22,"name":"Uncletopia | London | 6 | All Maps","name_short":"lon-6","host":"lon-1.uk.uncletopia.com","port":27065,"enabled":true,"region":"eu","cc":"gb","latitude":51.509865,"longitude":-0.118092,"reserved":0,"last_update":"0001-01-01T00:00:00Z","name_a2s":"Uncletopia | London | 6 | All Maps","protocol":17,"map":"pl_pier","folder":"tf","game":"Team Fortress","app_id":440,"player_count":24,"max_players":24,"Bots":0,"server_type":"Dedicated","server_os":"Linux","password":true,"vac":true,"version":"7757534","steam_id":85568392924742830,"keywords":["nocrits","nodmgspread","payload","uncletopia"],"game_id":440,"stv_port":27066,"stv_name":"Uncletopia | London | 6 | All Maps | STV","players":[{"user_id":71,"name":"metamikko","steam_id":76561198324704234,"connected_time":3575000000000,"state":"active","ping":137},{"user_id":106,"name":"laza's boy","steam_id":76561199074095198,"connected_time":1097000000000,"state":"active","ping":110},{"user_id":92,"name":"Seteta","steam_id":76561198140109448,"connected_time":2060000000000,"state":"active","ping":89},{"user_id":94,"name":"AsuX","steam_id":76561197990333289,"connected_time":2021000000000,"state":"active","ping":60},{"user_id":91,"name":"Economic crisis","steam_id":76561198063562843,"connected_time":2139000000000,"state":"active","ping":61},{"user_id":125,"name":"Sneikijs","steam_id":76561198052549308,"connected_time":94000000000,"state":"active","ping":41},{"user_id":68,"name":"slightly drunk","steam_id":76561199184873889,"connected_time":3611000000000,"state":"active","ping":68},{"user_id":122,"name":"domi","steam_id":76561198086044333,"connected_time":235000000000,"state":"active","ping":74},{"user_id":30,"name":"ja","steam_id":76561199228540618,"connected_time":5263000000000,"state":"active","ping":85},{"user_id":119,"name":"Thors","steam_id":76561197968739075,"connected_time":697000000000,"state":"active","ping":45},{"user_id":78,"name":"Pico","steam_id":76561198063552545,"connected_time":2936000000000,"state":"active","ping":111},{"user_id":108,"name":"Farmercy","steam_id":76561198000038039,"connected_time":1043000000000,"state":"active","ping":69},{"user_id":101,"name":"Dan86130","steam_id":76561199187190436,"connected_time":1691000000000,"state":"active","ping":78},{"user_id":83,"name":"blurst of times","steam_id":76561197972325640,"connected_time":2649000000000,"state":"active","ping":45},{"user_id":120,"name":"radek","steam_id":76561197998883721,"connected_time":508000000000,"state":"active","ping":94},{"user_id":95,"name":"Tomfool","steam_id":76561197993256481,"connected_time":2005000000000,"state":"active","ping":84},{"user_id":123,"name":"Distarche","steam_id":76561198122507617,"connected_time":121000000000,"state":"active","ping":170},{"user_id":124,"name":"Squid","steam_id":76561198197045587,"connected_time":103000000000,"state":"active","ping":149},{"user_id":110,"name":"ayecodex","steam_id":76561199477598858,"connected_time":961000000000,"state":"active","ping":123},{"user_id":114,"name":"hl.dsk for MSX2","steam_id":76561198041966915,"connected_time":818000000000,"state":"active","ping":73},{"user_id":111,"name":"womp","steam_id":76561198283192660,"connected_time":921000000000,"state":"active","ping":80},{"user_id":102,"name":"Charles Darwin","steam_id":76561197973496139,"connected_time":1644000000000,"state":"active","ping":62},{"user_id":115,"name":"Joe","steam_id":76561198061717026,"connected_time":815000000000,"state":"active","ping":44},{"user_id":126,"name":"lettuce out of stock","steam_id":76561199401283123,"connected_time":85000000000,"state":"active","ping":49}]},{"server_id":40,"name":"Uncletopia | London | 7 | No Payload","name_short":"lon-7","host":"lon-1.uk.uncletopia.com","port":27075,"enabled":true,"region":"eu","cc":"gb","latitude":51.509865,"longitude":-0.118092,"reserved":0,"last_update":"0001-01-01T00:00:00Z","name_a2s":"Uncletopia | London | 7 | No Payload","protocol":17,"map":"cp_junction_final","folder":"tf","game":"Team Fortress","app_id":440,"player_count":0,"max_players":24,"Bots":0,"server_type":"Dedicated","server_os":"Linux","password":true,"vac":true,"version":"7757534","steam_id":85568392924964314,"keywords":["cp","nocrits","nodmgspread","uncletopia"],"game_id":440,"stv_port":27076,"stv_name":"Uncletopia | London | 7 | No Payload | STV","players":null},{"server_id":41,"name":"Uncletopia | London | 8 | Community","name_short":"lon-8","host":"lon-1.uk.uncletopia.com","port":27085,"enabled":true,"region":"eu","cc":"gb","latitude":51.509865,"longitude":-0.118092,"reserved":0,"last_update":"0001-01-01T00:00:00Z","name_a2s":"Uncletopia | London | 8 | Community","protocol":17,"map":"workshop/koth_ramjam_rc1.ugc459778887","folder":"tf","game":"Team Fortress","app_id":440,"player_count":0,"max_players":24,"Bots":0,"server_type":"Dedicated","server_os":"Linux","password":true,"vac":true,"version":"7757534","steam_id":85568392924964315,"keywords":["cp","nocrits","nodmgspread","uncletopia"],"game_id":440,"stv_port":27086,"stv_name":"Uncletopia | London | 8 | Community | STV","players":null},{"server_id":300,"name":"Uncletopia | Montr√©al | 1 | All Maps","name_short":"mtl-1","host":"mtl-1.ca.uncletopia.com","port":27015,"enabled":true,"region":"us-east","cc":"ca","latitude":45.50889,"longitude":-73.56167,"reserved":0,"last_update":"0001-01-01T00:00:00Z","name_a2s":"Uncletopia | Montr√©al | 1 | All Maps","protocol":17,"map":"pl_upward","folder":"tf","game":"Team Fortress","app_id":440,"player_count":0,"max_players":24,"Bots":0,"server_type":"Dedicated","server_os":"Linux","password":true,"vac":true,"version":"7757534","steam_id":85568392924500087,"keywords":["nocrits","nodmgspread","payload","uncletopia"],"game_id":440,"stv_port":27016,"stv_name":"Uncletopia | Montr√©al | 1 | All Maps | STV","players":null},{"server_id":301,"name":"Uncletopia | Montr√©al | 2 | All Maps","name_short":"mtl-2","host":"mtl-1.ca.uncletopia.com","port":27025,"enabled":true,"region":"us-east","cc":"ca","latitude":45.50889,"longitude":-73.56167,"reserved":0,"last_update":"0001-01-01T00:00:00Z","name_a2s":"Uncletopia | Montr√©al | 2 | All Maps","protocol":17,"map":"pl_snowycoast","folder":"tf","game":"Team Fortress","app_id":440,"player_count":0,"max_players":24,"Bots":0,"server_type":"Dedicated","server_os":"Linux","password":true,"vac":true,"version":"7757534","steam_id":85568392924500088,"keywords":["nocrits","nodmgspread","payload","uncletopia"],"game_id":440,"stv_port":27026,"stv_name":"Uncletopia | Montr√©al | 2 | All Maps | STV","players":null},{"server_id":302,"name":"Uncletopia | Montr√©al | 3 | All Maps","name_short":"mtl-3","host":"mtl-1.ca.uncletopia.com","port":27035,"enabled":true,"region":"us-east","cc":"ca","latitude":45.50889,"longitude":-73.56167,"reserved":0,"last_update":"0001-01-01T00:00:00Z","name_a2s":"Uncletopia | Montr√©al | 3 | All Maps","protocol":17,"map":"pl_swiftwater_final1","folder":"tf","game":"Team Fortress","app_id":440,"player_count":0,"max_players":24,"Bots":0,"server_type":"Dedicated","server_os":"Linux","password":true,"vac":true,"version":"7757534","steam_id":85568392924500089,"keywords":["nocrits","nodmgspread","payload","uncletopia"],"game_id":440,"stv_port":27036,"stv_name":"Uncletopia | Montr√©al | 3 | All Maps | STV","players":null},{"server_id":303,"name":"Uncletopia | Montr√©al | 4 | No Payload","name_short":"mtl-4","host":"mtl-1.ca.uncletopia.com","port":27045,"enabled":true,"region":"us-east","cc":"ca","latitude":45.50889,"longitude":-73.56167,"reserved":0,"last_update":"0001-01-01T00:00:00Z","name_a2s":"Uncletopia | Montr√©al | 4 | No Payload","protocol":17,"map":"pl_pier","folder":"tf","game":"Team Fortress","app_id":440,"player_count":0,"max_players":24,"Bots":0,"server_type":"Dedicated","server_os":"Linux","password":true,"vac":true,"version":"7757534","steam_id":85568392924500090,"keywords":["nocrits","nodmgspread","payload","uncletopia"],"game_id":440,"stv_port":27046,"stv_name":"Uncletopia | Montr√©al | 4 | No Payload | STV","players":null},{"server_id":13,"name":"Uncletopia | New York City | 1 | All Maps","name_short":"nyc-1","host":"nyc-1.us.uncletopia.com","port":27015,"enabled":true,"region":"us-east","cc":"us","latitude":40.73061,"longitude":-73.93524,"reserved":0,"last_update":"0001-01-01T00:00:00Z","name_a2s":"Uncletopia | New York City | 1 | All Maps","protocol":17,"map":"koth_viaduct","folder":"tf","game":"Team Fortress","app_id":440,"player_count":0,"max_players":24,"Bots":0,"server_type":"Dedicated","server_os":"Linux","password":true,"vac":true,"version":"7757534","steam_id":85568392924469993,"keywords":["cp","nocrits","nodmgspread","uncletopia"],"game_id":440,"stv_port":27016,"stv_name":"Uncletopia | New York City | 1 | All Maps | STV","players":null},{"server_id":14,"name":"Uncletopia | New York City | 2 | All Maps","name_short":"nyc-2","host":"nyc-1.us.uncletopia.com","port":27025,"enabled":true,"region":"us-east","cc":"us","latitude":40.73061,"longitude":-73.93524,"reserved":0,"last_update":"0001-01-01T00:00:00Z","name_a2s":"Uncletopia | New York City | 2 | All Maps","protocol":17,"map":"pl_badwater","folder":"tf","game":"Team Fortress","app_id":440,"player_count":0,"max_players":24,"Bots":0,"server_type":"Dedicated","server_os":"Linux","password":true,"vac":true,"version":"7757534","steam_id":85568392924469994,"keywords":["nocrits","nodmgspread","payload","uncletopia"],"game_id":440,"stv_port":27026,"stv_name":"Uncletopia | New York City | 2 | All Maps | STV","players":null},{"server_id":15,"name":"Uncletopia | New York City | 3 | Stopwatch Beta","name_short":"nyc-3","host":"nyc-1.us.uncletopia.com","port":27035,"enabled":true,"region":"us-east","cc":"us","latitude":40.73061,"longitude":-73.93524,"reserved":0,"last_update":"0001-01-01T00:00:00Z","name_a2s":"Uncletopia | New York City | 3 | Stopwatch Beta","protocol":17,"map":"pl_upward","folder":"tf","game":"Team Fortress","app_id":440,"player_count":0,"max_players":24,"Bots":0,"server_type":"Dedicated","server_os":"Linux","password":true,"vac":true,"version":"7757534","steam_id":85568392924742820,"keywords":["nocrits","nodmgspread","payload","uncletopia"],"game_id":440,"stv_port":27036,"stv_name":"Uncletopia | New York City | 3 | Stopwatch Beta | STV","players":null},{"server_id":16,"name":"Uncletopia | New York City | 4 | Community","name_short":"nyc-4","host":"nyc-1.us.uncletopia.com","port":27045,"enabled":true,"region":"us-east","cc":"us","latitude":40.73061,"longitude":-73.93524,"reserved":0,"last_update":"0001-01-01T00:00:00Z","name_a2s":"Uncletopia | New York City | 4 | Community","protocol":17,"map":"workshop/rd_asteroid_redux_b1.ugc2154902912","folder":"tf","game":"Team Fortress","app_id":440,"player_count":0,"max_players":24,"Bots":0,"server_type":"Dedicated","server_os":"Linux","password":true,"vac":true,"version":"7757534","steam_id":85568392924742821,"keywords":["beta","nocrits","nodmgspread","rd","uncletopia"],"game_id":440,"stv_port":27046,"stv_name":"Uncletopia | New York City | 4 | Community | STV","players":null},{"server_id":142,"name":"Uncletopia | S√£o Paulo | 1 | All Maps","name_short":"sao-1","host":"sao-1.br.uncletopia.com","port":27015,"enabled":true,"region":"sa","cc":"br","latitude":-23.533773,"longitude":-46.62529,"reserved":0,"last_update":"0001-01-01T00:00:00Z","name_a2s":"Uncletopia | S√£o Paulo | 1 | All Maps","protocol":17,"map":"koth_lakeside_final","folder":"tf","game":"Team Fortress","app_id":440,"player_count":0,"max_players":24,"Bots":0,"server_type":"Dedicated","server_os":"Linux","password":true,"vac":true,"version":"7757534","steam_id":85568392924469996,"keywords":["cp","nocrits","nodmgspread","uncletopia"],"game_id":440,"stv_port":27016,"stv_name":"Uncletopia | S√£o Paulo | 1 | All Maps | STV","players":null},{"server_id":143,"name":"Uncletopia | S√£o Paulo | 2 | All Maps","name_short":"sao-2","host":"sao-2.br.uncletopia.com","port":27015,"enabled":true,"region":"sa","cc":"br","latitude":-23.533773,"longitude":-46.62529,"reserved":0,"last_update":"0001-01-01T00:00:00Z","name_a2s":"Uncletopia | S√£o Paulo | 2 | All Maps","protocol":17,"map":"koth_viaduct","folder":"tf","game":"Team Fortress","app_id":440,"player_count":0,"max_players":24,"Bots":0,"server_type":"Dedicated","server_os":"Linux","password":true,"vac":true,"version":"7757534","steam_id":85568392924485349,"keywords":["cp","nocrits","nodmgspread","uncletopia"],"game_id":440,"stv_port":27016,"stv_name":"Uncletopia | S√£o Paulo | 2 | All Maps | STV","players":null},{"server_id":7,"name":"Uncletopia | Seattle | 1 | All Maps","name_short":"sea-1","host":"sea-1.us.uncletopia.com","port":27015,"enabled":true,"region":"us-west","cc":"us","latitude":47.608013,"longitude":-122.33517,"reserved":0,"last_update":"0001-01-01T00:00:00Z","name_a2s":"Uncletopia | Seattle | 1 | All Maps","protocol":17,"map":"pl_frontier_final","folder":"tf","game":"Team Fortress","app_id":440,"player_count":24,"max_players":24,"Bots":0,"server_type":"Dedicated","server_os":"Linux","password":true,"vac":true,"version":"7757534","steam_id":85568392924469997,"keywords":["nocrits","nodmgspread","payload","uncletopia"],"game_id":440,"stv_port":27016,"stv_name":"Uncletopia | Seattle | 1 | All Maps | STV","players":[{"user_id":152,"name":"costa","steam_id":76561198881144114,"connected_time":1654000000000,"state":"active","ping":46},{"user_id":124,"name":"Meerkat","steam_id":76561199245435539,"connected_time":2530000000000,"state":"active","ping":83},{"user_id":70,"name":"HiFivr","steam_id":76561198285190162,"connected_time":6385000000000,"state":"active","ping":68},{"user_id":129,"name":"scarecrow (evil)","steam_id":76561198082979347,"connected_time":2328000000000,"state":"active","ping":109},{"user_id":159,"name":"wet animal","steam_id":76561198041983633,"connected_time":965000000000,"state":"active","ping":46},{"user_id":160,"name":"greens beans","steam_id":76561198153611491,"connected_time":949000000000,"state":"active","ping":40},{"user_id":161,"name":"BelligerentHawk","steam_id":76561198805588654,"connected_time":928000000000,"state":"active","ping":77},{"user_id":164,"name":"ÂñÇ‚Ä¢·¥ã è ü·¥á„ÉÑ","steam_id":76561198853965433,"connected_time":781000000000,"state":"active","ping":42},{"user_id":171,"name":"Speedy","steam_id":76561198873086850,"connected_time":13000000000,"state":"spawning","ping":115},{"user_id":142,"name":"Scrux","steam_id":76561198129763115,"connected_time":1942000000000,"state":"active","ping":79},{"user_id":127,"name":"Deathrose","steam_id":76561198851501503,"connected_time":2392000000000,"state":"active","ping":119},{"user_id":165,"name":"Mikeonut","steam_id":76561198305752102,"connected_time":731000000000,"state":"active","ping":76},{"user_id":167,"name":"toes","steam_id":76561198221151676,"connected_time":104000000000,"state":"active","ping":59},{"user_id":101,"name":"Norriss","steam_id":76561198920296293,"connected_time":3537000000000,"state":"active","ping":50},{"user_id":169,"name":"Huntpk","steam_id":76561198340591674,"connected_time":43000000000,"state":"active","ping":79},{"user_id":147,"name":"Potatofamine Carbomb","steam_id":76561198424248616,"connected_time":1828000000000,"state":"active","ping":76},{"user_id":170,"name":"Garfield","steam_id":76561198037803087,"connected_time":40000000000,"state":"active","ping":80},{"user_id":144,"name":"KeZ","steam_id":76561198275364564,"connected_time":1919000000000,"state":"active","ping":52},{"user_id":113,"name":"Snorgdarf","steam_id":76561198047962582,"connected_time":3019000000000,"state":"active","ping":48},{"user_id":135,"name":"StarGuyVI","steam_id":76561199366304746,"connected_time":2122000000000,"state":"active","ping":139},{"user_id":74,"name":"DMAFGreatoverlordSchikonmaster","steam_id":76561198123510618,"connected_time":6055000000000,"state":"active","ping":65},{"user_id":115,"name":"kris the deer (really angry)","steam_id":76561198170928310,"connected_time":3010000000000,"state":"active","ping":121},{"user_id":136,"name":"dragonstorm","steam_id":76561199481295178,"connected_time":2103000000000,"state":"active","ping":111},{"user_id":158,"name":"mumbles","steam_id":76561197994528974,"connected_time":979000000000,"state":"active","ping":87}]},{"server_id":119,"name":"Uncletopia | Seattle | 2 | All Maps","name_short":"sea-2","host":"sea-1.us.uncletopia.com","port":27025,"enabled":true,"region":"us-west","cc":"us","latitude":47.608013,"longitude":-122.33517,"reserved":0,"last_update":"0001-01-01T00:00:00Z","name_a2s":"Uncletopia | Seattle | 2 | All Maps","protocol":17,"map":"pl_pier","folder":"tf","game":"Team Fortress","app_id":440,"player_count":0,"max_players":24,"Bots":0,"server_type":"Dedicated","server_os":"Linux","password":true,"vac":true,"version":"7757534","steam_id":85568392924469998,"keywords":["nocrits","nodmgspread","payload","uncletopia"],"game_id":440,"stv_port":27026,"stv_name":"Uncletopia | Seattle | 2 | All Maps | STV","players":null},{"server_id":406,"name":"Uncletopia | Seattle | 3 | Stopwatch Beta","name_short":"sea-3","host":"sea-1.us.uncletopia.com","port":27035,"enabled":true,"region":"us-west","cc":"us","latitude":47.608013,"longitude":-122.33517,"reserved":0,"last_update":"0001-01-01T00:00:00Z","name_a2s":"Uncletopia | Seattle | 3 | Stopwatch Beta","protocol":17,"map":"cp_dustbowl","folder":"tf","game":"Team Fortress","app_id":440,"player_count":0,"max_players":24,"Bots":0,"server_type":"Dedicated","server_os":"Linux","password":true,"vac":true,"version":"7757534","steam_id":85568392924515217,"keywords":["cp","nocrits","nodmgspread","uncletopia"],"game_id":440,"stv_port":27036,"stv_name":"Uncletopia | Seattle | 3 | Stopwatch Beta | STV","players":null},{"server_id":17,"name":"Uncletopia | San Francisco | 1 | All Maps","name_short":"sfo-1","host":"sfo-1.us.uncletopia.com","port":27015,"enabled":true,"region":"us-west","cc":"us","latitude":37.77397,"longitude":-122.4313,"reserved":0,"last_update":"0001-01-01T00:00:00Z","name_a2s":"Uncletopia | San Francisco | 1 | All Maps","protocol":17,"map":"pl_frontier_final","folder":"tf","game":"Team Fortress","app_id":440,"player_count":0,"max_players":24,"Bots":0,"server_type":"Dedicated","server_os":"Linux","password":true,"vac":true,"version":"7757534","steam_id":85568392924469999,"keywords":["nocrits","nodmgspread","payload","uncletopia"],"game_id":440,"stv_port":27016,"stv_name":"Uncletopia | San Francisco | 1 | All Maps | STV","players":null},{"server_id":18,"name":"Uncletopia | San Francisco | 2 | All Maps","name_short":"sfo-2","host":"sfo-1.us.uncletopia.com","port":27025,"enabled":true,"region":"us-west","cc":"us","latitude":37.77397,"longitude":-122.4313,"reserved":0,"last_update":"0001-01-01T00:00:00Z","name_a2s":"Uncletopia | San Francisco | 2 | All Maps","protocol":17,"map":"koth_highpass","folder":"tf","game":"Team Fortress","app_id":440,"player_count":0,"max_players":24,"Bots":0,"server_type":"Dedicated","server_os":"Linux","password":true,"vac":true,"version":"7757534","steam_id":85568392924470000,"keywords":["cp","nocrits","nodmgspread","uncletopia"],"game_id":440,"stv_port":27026,"stv_name":"Uncletopia | San Francisco | 2 | All Maps | STV","players":null},{"server_id":19,"name":"Uncletopia | San Francisco | 3 | Stopwatch Beta","name_short":"sfo-3","host":"sfo-1.us.uncletopia.com","port":27035,"enabled":true,"region":"us-west","cc":"us","latitude":37.77397,"longitude":-122.4313,"reserved":0,"last_update":"0001-01-01T00:00:00Z","name_a2s":"Uncletopia | San Francisco | 3 | Stopwatch Beta","protocol":17,"map":"koth_lakeside_final","folder":"tf","game":"Team Fortress","app_id":440,"player_count":0,"max_players":24,"Bots":0,"server_type":"Dedicated","server_os":"Linux","password":true,"vac":true,"version":"7757534","steam_id":85568392924742824,"keywords":["cp","nocrits","nodmgspread","uncletopia"],"game_id":440,"stv_port":27036,"stv_name":"Uncletopia | San Francisco | 3 | Stopwatch Beta | STV","players":null},{"server_id":20,"name":"Uncletopia | San Francisco | 4 | Community","name_short":"sfo-4","host":"sfo-1.us.uncletopia.com","port":27045,"enabled":true,"region":"us-west","cc":"us","latitude":37.77397,"longitude":-122.4313,"reserved":0,"last_update":"0001-01-01T00:00:00Z","name_a2s":"Uncletopia | San Francisco | 4 | Community","protocol":17,"map":"cp_altitude","folder":"tf","game":"Team Fortress","app_id":440,"player_count":0,"max_players":24,"Bots":0,"server_type":"Dedicated","server_os":"Linux","password":true,"vac":true,"version":"7757534","steam_id":85568392924742826,"keywords":["cp","nocrits","nodmgspread","uncletopia"],"game_id":440,"stv_port":27046,"stv_name":"Uncletopia | San Francisco | 4 | Community | STV","players":null},{"server_id":141,"name":"Uncletopia | Sydney | 1 | All Maps","name_short":"syd-1","host":"syd-1.au.uncletopia.com","port":27015,"enabled":true,"region":"au","cc":"au","latitude":-33.865143,"longitude":151.2099,"reserved":0,"last_update":"0001-01-01T00:00:00Z","name_a2s":"Uncletopia | Sydney | 1 | All Maps","protocol":17,"map":"pl_badwater","folder":"tf","game":"Team Fortress","app_id":440,"player_count":0,"max_players":24,"Bots":0,"server_type":"Dedicated","server_os":"Linux","password":true,"vac":true,"version":"7757534","steam_id":85568392924470001,"keywords":["nocrits","nodmgspread","payload","uncletopia"],"game_id":440,"stv_port":27016,"stv_name":"Uncletopia | Sydney | 1 | All Maps | STV","players":null},{"server_id":123,"name":"Uncletopia | Sydney | 2 | All Maps","name_short":"syd-2","host":"syd-1.au.uncletopia.com","port":27025,"enabled":true,"region":"au","cc":"au","latitude":-33.865143,"longitude":151.2099,"reserved":0,"last_update":"0001-01-01T00:00:00Z","name_a2s":"Uncletopia | Sydney | 2 | All Maps","protocol":17,"map":"cp_snakewater_final1","folder":"tf","game":"Team Fortress","app_id":440,"player_count":0,"max_players":24,"Bots":0,"server_type":"Dedicated","server_os":"Linux","password":true,"vac":true,"version":"7757534","steam_id":85568392924470002,"keywords":["cp","nocrits","nodmgspread","uncletopia"],"game_id":440,"stv_port":27026,"stv_name":"Uncletopia | Sydney | 2 | All Maps | STV","players":null},{"server_id":395,"name":"Uncletopia | Sydney | 3 | All Maps","name_short":"syd-3","host":"syd-1.au.uncletopia.com","port":27035,"enabled":true,"region":"au","cc":"au","latitude":-33.865143,"longitude":151.2099,"reserved":0,"last_update":"0001-01-01T00:00:00Z","name_a2s":"Uncletopia | Sydney | 3 | All Maps","protocol":17,"map":"koth_cascade","folder":"tf","game":"Team Fortress","app_id":440,"player_count":0,"max_players":24,"Bots":0,"server_type":"Dedicated","server_os":"Linux","password":true,"vac":true,"version":"7757534","steam_id":85568392925194467,"keywords":["cp","nocrits","nodmgspread","uncletopia"],"game_id":440,"stv_port":27036,"stv_name":"Uncletopia | Sydney | 3 | All Maps | STV","players":null},{"server_id":396,"name":"Uncletopia | Sydney | 4 | All Maps","name_short":"syd-4","host":"syd-1.au.uncletopia.com","port":27045,"enabled":true,"region":"au","cc":"au","latitude":-33.865143,"longitude":151.2099,"reserved":0,"last_update":"0001-01-01T00:00:00Z","name_a2s":"Uncletopia | Sydney | 4 | All Maps","protocol":17,"map":"koth_highpass","folder":"tf","game":"Team Fortress","app_id":440,"player_count":0,"max_players":24,"Bots":0,"server_type":"Dedicated","server_os":"Linux","password":true,"vac":true,"version":"7757534","steam_id":85568392925397958,"keywords":["cp","nocrits","nodmgspread","uncletopia"],"game_id":440,"stv_port":27046,"stv_name":"Uncletopia | Sydney | 4 | All Maps | STV","players":null},{"server_id":58,"name":"Uncletopia | Sydney | 5 | Stopwatch Beta","name_short":"syd-5","host":"syd-1.au.uncletopia.com","port":27055,"enabled":true,"region":"au","cc":"au","latitude":-33.865143,"longitude":151.2099,"reserved":0,"last_update":"0001-01-01T00:00:00Z","name_a2s":"Uncletopia | Sydney | 5 | Stopwatch Beta","protocol":17,"map":"workshop/pl_badwater_pro_v12.ugc2142942074","folder":"tf","game":"Team Fortress","app_id":440,"player_count":0,"max_players":24,"Bots":0,"server_type":"Dedicated","server_os":"Linux","password":true,"vac":true,"version":"7757534","steam_id":85568392925397959,"keywords":["nocrits","nodmgspread","payload","uncletopia"],"game_id":440,"stv_port":27056,"stv_name":"Uncletopia | Sydney | 5 | Stopwatch Beta | STV","players":null},{"server_id":59,"name":"Uncletopia | Sydney | 6 | Community","name_short":"syd-6","host":"syd-1.au.uncletopia.com","port":27065,"enabled":true,"region":"au","cc":"au","latitude":-33.865143,"longitude":151.2099,"reserved":0,"last_update":"0001-01-01T00:00:00Z","name_a2s":"Uncletopia | Sydney | 6 | Community","protocol":17,"map":"workshop/koth_trenchfoot_b1a.ugc731436616","folder":"tf","game":"Team Fortress","app_id":440,"player_count":0,"max_players":24,"Bots":0,"server_type":"Dedicated","server_os":"Linux","password":true,"vac":true,"version":"7757534","steam_id":85568392925397960,"keywords":["cp","nocrits","nodmgspread","uncletopia"],"game_id":440,"stv_port":27066,"stv_name":"Uncletopia | Sydney | 6 | Community | STV","players":null},{"server_id":49,"name":"Uncletopia | Warsaw | 1 | All Maps","name_short":"waw-1","host":"waw-1.pl.uncletopia.com","port":27015,"enabled":true,"region":"eu","cc":"pl","latitude":52.2297,"longitude":21.017532,"reserved":0,"last_update":"0001-01-01T00:00:00Z","name_a2s":"","protocol":0,"map":"","folder":"","game":"","app_id":0,"player_count":0,"max_players":0,"Bots":0,"server_type":"","server_os":"","password":false,"vac":false,"version":"","steam_id":0,"keywords":null,"game_id":0,"stv_port":0,"stv_name":"","players":null},{"server_id":50,"name":"Uncletopia | Warsaw | 2 | All Maps","name_short":"waw-2","host":"waw-1.pl.uncletopia.com","port":27025,"enabled":true,"region":"eu","cc":"pl","latitude":52.2297,"longitude":21.017532,"reserved":0,"last_update":"0001-01-01T00:00:00Z","name_a2s":"Uncletopia | Warsaw | 2 | All Maps","protocol":17,"map":"koth_viaduct","folder":"tf","game":"Team Fortress","app_id":440,"player_count":2,"max_players":24,"Bots":0,"server_type":"Dedicated","server_os":"Linux","password":true,"vac":true,"version":"7757534","steam_id":85568392925397851,"keywords":["cp","nocrits","nodmgspread","uncletopia"],"game_id":440,"stv_port":27026,"stv_name":"Uncletopia | Warsaw | 2 | All Maps | STV","players":[{"user_id":12,"name":"A Bl√•haj Fan","steam_id":76561199029212388,"connected_time":274000000000,"state":"active","ping":40},{"user_id":13,"name":"Azazel","steam_id":76561198147412852,"connected_time":86000000000,"state":"active","ping":52}]},{"server_id":51,"name":"Uncletopia | Warsaw | 3 | All Maps","name_short":"waw-3","host":"waw-1.pl.uncletopia.com","port":27035,"enabled":true,"region":"eu","cc":"pl","latitude":52.2297,"longitude":21.017532,"reserved":0,"last_update":"0001-01-01T00:00:00Z","name_a2s":"Uncletopia | Warsaw | 3 | All Maps","protocol":17,"map":"koth_viaduct","folder":"tf","game":"Team Fortress","app_id":440,"player_count":0,"max_players":24,"Bots":0,"server_type":"Dedicated","server_os":"Linux","password":true,"vac":true,"version":"7757534","steam_id":85568392925397852,"keywords":["cp","nocrits","nodmgspread","uncletopia"],"game_id":440,"stv_port":27036,"stv_name":"Uncletopia | Warsaw | 3 | All Maps | STV","players":null},{"server_id":52,"name":"Uncletopia | Warsaw | 4 | All Maps","name_short":"waw-4","host":"waw-1.pl.uncletopia.com","port":27045,"enabled":true,"region":"eu","cc":"pl","latitude":52.2297,"longitude":21.017532,"reserved":0,"last_update":"0001-01-01T00:00:00Z","name_a2s":"Uncletopia | Warsaw | 4 | All Maps","protocol":17,"map":"koth_lakeside_final","folder":"tf","game":"Team Fortress","app_id":440,"player_count":0,"max_players":24,"Bots":0,"server_type":"Dedicated","server_os":"Linux","password":true,"vac":true,"version":"7757534","steam_id":85568392925397853,"keywords":["cp","nocrits","nodmgspread","uncletopia"],"game_id":440,"stv_port":27046,"stv_name":"Uncletopia | Warsaw | 4 | All Maps | STV","players":null},{"server_id":53,"name":"Uncletopia | Warsaw | 5 | Stopwatch Beta","name_short":"waw-5","host":"waw-1.pl.uncletopia.com","port":27055,"enabled":true,"region":"eu","cc":"pl","latitude":52.2297,"longitude":21.017532,"reserved":0,"last_update":"0001-01-01T00:00:00Z","name_a2s":"Uncletopia | Warsaw | 5 | Stopwatch Beta","protocol":17,"map":"cp_metalworks","folder":"tf","game":"Team Fortress","app_id":440,"player_count":0,"max_players":24,"Bots":0,"server_type":"Dedicated","server_os":"Linux","password":true,"vac":true,"version":"7757534","steam_id":85568392925397854,"keywords":["cp","nocrits","nodmgspread","uncletopia"],"game_id":440,"stv_port":27056,"stv_name":"Uncletopia | Warsaw | 5 | Stopwatch Beta | STV","players":null},{"server_id":54,"name":"Uncletopia | Warsaw | 6 | Community","name_short":"waw-6","host":"waw-1.pl.uncletopia.com","port":27065,"enabled":true,"region":"eu","cc":"pl","latitude":52.2297,"longitude":21.017532,"reserved":0,"last_update":"0001-01-01T00:00:00Z","name_a2s":"Uncletopia | Warsaw | 6 | Community","protocol":17,"map":"koth_lakeside_final","folder":"tf","game":"Team Fortress","app_id":440,"player_count":0,"max_players":24,"Bots":0,"server_type":"Dedicated","server_os":"Linux","password":true,"vac":true,"version":"7757534","steam_id":85568392925397856,"keywords":["cp","nocrits","nodmgspread","uncletopia"],"game_id":440,"stv_port":27066,"stv_name":"Uncletopia | Warsaw | 6 | Community | STV","players":null}]}