{"status":true,"message":"","result":[{"server_id":9,"name":"Uncletopia | Atlanta | 1 | All Maps","name_short":"atl-1","host":"atl-1.us.uncletopia.com","port":27015,"enabled":true,"region":"us-east","cc":"us","latitude":33.753746,"longitude":-84.38633,"reserved":0,"last_update":"0001-01-01T00:00:00Z","name_a2s":"Uncletopia | Atlanta | 1 | All Maps","protocol":17,"map":"koth_viaduct","folder":"tf","game":"Team Fortress","app_id":440,"player_count":24,"max_players":24,"Bots":0,"server_type":"Dedicated","server_os":"Linux","password":true,"vac":true,"version":"7961495","steam_id":85568392924469982,"keywords":["cp","nocrits","nodmgspread","uncletopia"],"game_id":440,"stv_port":27016,"stv_name":"Uncletopia | Atlanta | 1 | All Maps | STV","players":[{"user_id":275,"name":"sumerian death metal warrior","steam_id":76561198997380708,"connected_time":3433000000000,"state":"active","ping":112},{"user_id":281,"name":"royal hooters","steam_id":76561198068022595,"connected_time":3075000000000,"state":"active","ping":66},{"user_id":241,"name":"TF2C | fac","steam_id":76561198009818412,"connected_time":6517000000000,"state":"active","ping":62},{"user_id":280,"name":"chen","steam_id":76561198064872330,"connected_time":3098000000000,"state":"active","ping":75},{"user_id":304,"name":"Joshy","steam_id":76561198061405421,"connected_time":1244000000000,"state":"active","ping":75},{"user_id":291,"name":"trianamarco780","steam_id":76561199084319677,"connected_time":2226000000000,"state":"active","ping":105},{"user_id":309,"name":"kashroomski","steam_id":76561198057076267,"connected_time":1018000000000,"state":"active","ping":63},{"user_id":292,"name":"gallowsCalibrator","steam_id":76561198404707578,"connected_time":2172000000000,"state":"active","ping":47},{"user_id":312,"name":"Jin Gulilo","steam_id":76561198065151242,"connected_time":713000000000,"state":"active","ping":73},{"user_id":300,"name":"Echo","steam_id":76561198072092594,"connected_time":1610000000000,"state":"active","ping":48},{"user_id":277,"name":"Xavibite","steam_id":76561198209380493,"connected_time":3327000000000,"state":"active","ping":63},{"user_id":303,"name":"Dr. Game and Watch","steam_id":76561197999615565,"connected_time":1340000000000,"state":"active","ping":81},{"user_id":282,"name":"MillerWhite","steam_id":76561198076060357,"connected_time":3071000000000,"state":"active","ping":78},{"user_id":276,"name":"ark","steam_id":76561198041066271,"connected_time":3358000000000,"state":"active","ping":90},{"user_id":296,"name":"Chernov","steam_id":76561198014463424,"connected_time":2036000000000,"state":"active","ping":59},{"user_id":274,"name":"Decolour","steam_id":76561199045608372,"connected_time":3907000000000,"state":"active","ping":73},{"user_id":258,"name":"Kuri","steam_id":76561199037050183,"connected_time":5142000000000,"state":"active","ping":89},{"user_id":244,"name":"The Kansas Crack Addict","steam_id":76561199022178492,"connected_time":6293000000000,"state":"active","ping":47},{"user_id":305,"name":"kelvindavid121","steam_id":76561199010489413,"connected_time":1209000000000,"state":"active","ping":871},{"user_id":311,"name":"Satan-2","steam_id":76561199231742764,"connected_time":857000000000,"state":"active","ping":88},{"user_id":308,"name":"sansa musa","steam_id":76561198163723555,"connected_time":1107000000000,"state":"active","ping":69},{"user_id":272,"name":"Just PYE","steam_id":76561199439622967,"connected_time":3937000000000,"state":"active","ping":77},{"user_id":307,"name":"4pi3","steam_id":76561199093363610,"connected_time":1150000000000,"state":"active","ping":73},{"user_id":290,"name":"PinkLemonade","steam_id":76561198799286228,"connected_time":2272000000000,"state":"active","ping":66}]},{"server_id":104,"name":"Uncletopia | Atlanta | 2 | All Maps","name_short":"atl-2","host":"atl-1.us.uncletopia.com","port":27025,"enabled":true,"region":"us-east","cc":"us","latitude":33.753746,"longitude":-84.38633,"reserved":0,"last_update":"0001-01-01T00:00:00Z","name_a2s":"Uncletopia | Atlanta | 2 | All Maps","protocol":17,"map":"pl_borneo","folder":"tf","game":"Team Fortress","app_id":440,"player_count":22,"max_players":24,"Bots":0,"server_type":"Dedicated","server_os":"Linux","password":true,"vac":true,"version":"7961495","steam_id":85568392924469983,"keywords":["nocrits","nodmgspread","payload","uncletopia"],"game_id":440,"stv_port":27026,"stv_name":"Uncletopia | Atlanta | 2 | All Maps | STV","players":[{"user_id":299,"name":"Nekoma","steam_id":76561198115044116,"connected_time":181000000000,"state":"active","ping":152},{"user_id":300,"name":"ATL69 | weewa","steam_id":76561198064876090,"connected_time":176000000000,"state":"active","ping":61},{"user_id":186,"name":"ZombieSlayer77","steam_id":76561199023974356,"connected_time":6401000000000,"state":"active","ping":67},{"user_id":234,"name":"hatchetax","steam_id":76561199013337543,"connected_time":2970000000000,"state":"active","ping":45},{"user_id":266,"name":"sanxi's cave","steam_id":76561199034371191,"connected_time":1034000000000,"state":"active","ping":169},{"user_id":276,"name":"elder scrolls 6","steam_id":76561198113364714,"connected_time":604000000000,"state":"active","ping":47},{"user_id":267,"name":"vareh","steam_id":76561197993190926,"connected_time":988000000000,"state":"active","ping":124},{"user_id":251,"name":"get scrongled, idiot","steam_id":76561198115874625,"connected_time":1557000000000,"state":"active","ping":88},{"user_id":248,"name":"TheDwarfKing","steam_id":76561198128269919,"connected_time":1797000000000,"state":"active","ping":55},{"user_id":302,"name":"Captain Bug","steam_id":76561198137763878,"connected_time":162000000000,"state":"active","ping":70},{"user_id":303,"name":"Poo","steam_id":76561198265144507,"connected_time":145000000000,"state":"active","ping":73},{"user_id":304,"name":"Singular Rooster","steam_id":76561197983872657,"connected_time":139000000000,"state":"active","ping":43},{"user_id":226,"name":"Highground","steam_id":76561199197544789,"connected_time":3469000000000,"state":"active","ping":126},{"user_id":262,"name":"bug","steam_id":76561198852743258,"connected_time":1127000000000,"state":"active","ping":71},{"user_id":141,"name":"Indigo","steam_id":76561198430362969,"connected_time":7869000000000,"state":"active","ping":63},{"user_id":259,"name":"Hamlindigo Blue™","steam_id":76561198116337540,"connected_time":1362000000000,"state":"active","ping":92},{"user_id":246,"name":"k0ka","steam_id":76561198247969962,"connected_time":2022000000000,"state":"active","ping":61},{"user_id":306,"name":"Fox","steam_id":76561198076635466,"connected_time":106000000000,"state":"active","ping":53},{"user_id":263,"name":"Orceus","steam_id":76561198254906285,"connected_time":1123000000000,"state":"active","ping":142},{"user_id":268,"name":"dirty30","steam_id":76561198021226566,"connected_time":983000000000,"state":"active","ping":105},{"user_id":249,"name":"T_is_for_Toenail","steam_id":76561198297066505,"connected_time":1794000000000,"state":"active","ping":72},{"user_id":293,"name":"CapnKris22","steam_id":76561198049010994,"connected_time":280000000000,"state":"active","ping":85}]},{"server_id":400,"name":"Uncletopia | Atlanta | 3 | Stopwatch","name_short":"atl-3","host":"atl-1.us.uncletopia.com","port":27035,"enabled":true,"region":"us-east","cc":"us","latitude":33.753746,"longitude":-84.38633,"reserved":0,"last_update":"0001-01-01T00:00:00Z","name_a2s":"Uncletopia | Atlanta | 3 | Stopwatch","protocol":17,"map":"workshop/koth_bagel_rc6.ugc2514036946","folder":"tf","game":"Team Fortress","app_id":440,"player_count":0,"max_players":24,"Bots":0,"server_type":"Dedicated","server_os":"Linux","password":true,"vac":true,"version":"7961495","steam_id":85568392924515187,"keywords":["cp","nocrits","nodmgspread","uncletopia"],"game_id":440,"stv_port":27036,"stv_name":"Uncletopia | Atlanta | 3 | Stopwatch | STV","players":null},{"server_id":401,"name":"Uncletopia | Atlanta | 4 | Community","name_short":"atl-4","host":"atl-1.us.uncletopia.com","port":27045,"enabled":true,"region":"us-east","cc":"us","latitude":33.753746,"longitude":-84.38633,"reserved":0,"last_update":"0001-01-01T00:00:00Z","name_a2s":"Uncletopia | Atlanta | 4 | Community","protocol":17,"map":"workshop/koth_kemptown_rc1.ugc767410655","folder":"tf","game":"Team Fortress","app_id":440,"player_count":0,"max_players":24,"Bots":0,"server_type":"Dedicated","server_os":"Linux","password":true,"vac":true,"version":"7961495","steam_id":85568392924515188,"keywords":["cp","nocrits","nodmgspread","uncletopia"],"game_id":440,"stv_port":27046,"stv_name":"Uncletopia | Atlanta | 4 | Community | STV","players":null},{"server_id":2,"name":"Uncletopia | Chicago | 1 | All Maps","name_short":"chi-1","host":"chi-1.us.uncletopia.com","port":27015,"enabled":true,"region":"us-central","cc":"us","latitude":41.881832,"longitude":-87.62318,"reserved":0,"last_update":"0001-01-01T00:00:00Z","name_a2s":"Uncletopia | Chicago | 1 | All Maps","protocol":17,"map":"cp_5gorge","folder":"tf","game":"Team Fortress","app_id":440,"player_count":24,"max_players":24,"Bots":0,"server_type":"Dedicated","server_os":"Linux","password":true,"vac":true,"version":"7961495","steam_id":85568392924469984,"keywords":["cp","nocrits","nodmgspread","uncletopia"],"game_id":440,"stv_port":27016,"stv_name":"Uncletopia | Chicago | 1 | All Maps | STV","players":[{"user_id":458,"name":"❄︎SHIT PISSER JULIANNE❄","steam_id":76561198061955351,"connected_time":852000000000,"state":"active","ping":54},{"user_id":459,"name":"Puck Norris","steam_id":76561198151256410,"connected_time":816000000000,"state":"active","ping":139},{"user_id":393,"name":"Femboy Friday (they/them)\u0026","steam_id":76561198027321950,"connected_time":5290000000000,"state":"active","ping":84},{"user_id":450,"name":"DragonKnight343","steam_id":76561199235854406,"connected_time":1219000000000,"state":"active","ping":102},{"user_id":467,"name":"BitPieStudios","steam_id":76561198059216393,"connected_time":501000000000,"state":"active","ping":93},{"user_id":457,"name":"-_-","steam_id":76561198005773253,"connected_time":968000000000,"state":"active","ping":72},{"user_id":418,"name":"OKLWONT","steam_id":76561198060328407,"connected_time":3176000000000,"state":"active","ping":70},{"user_id":431,"name":"IcyScrumpy","steam_id":76561198084605065,"connected_time":2161000000000,"state":"active","ping":64},{"user_id":451,"name":"Esteban Delsin","steam_id":76561198433519639,"connected_time":1181000000000,"state":"active","ping":100},{"user_id":460,"name":"giant_dork","steam_id":76561199105606956,"connected_time":809000000000,"state":"active","ping":71},{"user_id":436,"name":"milk then cereal","steam_id":76561198047168548,"connected_time":2037000000000,"state":"active","ping":101},{"user_id":438,"name":"Blackwing","steam_id":76561198225732032,"connected_time":1968000000000,"state":"active","ping":59},{"user_id":413,"name":"Fishpelt","steam_id":76561198085821138,"connected_time":3664000000000,"state":"active","ping":47},{"user_id":452,"name":"MrPopcornMan","steam_id":76561198227950712,"connected_time":1172000000000,"state":"active","ping":62},{"user_id":439,"name":"johnny","steam_id":76561198050225055,"connected_time":1951000000000,"state":"active","ping":90},{"user_id":446,"name":"Tuska","steam_id":76561198185598330,"connected_time":1440000000000,"state":"active","ping":82},{"user_id":447,"name":"Cristanc99","steam_id":76561198114715810,"connected_time":1411000000000,"state":"active","ping":60},{"user_id":456,"name":"Dead Face","steam_id":76561198857643139,"connected_time":1014000000000,"state":"active","ping":57},{"user_id":461,"name":"yan Ka","steam_id":76561198305840153,"connected_time":730000000000,"state":"active","ping":83},{"user_id":462,"name":"Boxcars","steam_id":76561198120978767,"connected_time":724000000000,"state":"active","ping":101},{"user_id":463,"name":"Tank Chili","steam_id":76561198161183031,"connected_time":713000000000,"state":"active","ping":88},{"user_id":465,"name":"msay","steam_id":76561198170888029,"connected_time":677000000000,"state":"active","ping":97},{"user_id":466,"name":"Yam Jazzy Jim","steam_id":76561198000788950,"connected_time":667000000000,"state":"active","ping":71},{"user_id":416,"name":"Window Licker #pride","steam_id":76561198386717007,"connected_time":3609000000000,"state":"active","ping":50}]},{"server_id":106,"name":"Uncletopia | Chicago | 2 | All Maps","name_short":"chi-2","host":"chi-1.us.uncletopia.com","port":27025,"enabled":true,"region":"us-central","cc":"us","latitude":41.881832,"longitude":-87.62318,"reserved":0,"last_update":"0001-01-01T00:00:00Z","name_a2s":"Uncletopia | Chicago | 2 | All Maps","protocol":17,"map":"pl_frontier_final","folder":"tf","game":"Team Fortress","app_id":440,"player_count":24,"max_players":24,"Bots":0,"server_type":"Dedicated","server_os":"Linux","password":true,"vac":true,"version":"7961495","steam_id":85568392924469985,"keywords":["nocrits","nodmgspread","payload","uncletopia"],"game_id":440,"stv_port":27026,"stv_name":"Uncletopia | Chicago | 2 | All Maps | STV","players":[{"user_id":587,"name":"purple diesel","steam_id":76561197976548449,"connected_time":892000000000,"state":"active","ping":92},{"user_id":432,"name":"MedRed™ #IATAH","steam_id":76561198002962970,"connected_time":7754000000000,"state":"active","ping":93},{"user_id":601,"name":"Silverio","steam_id":76561197999425381,"connected_time":385000000000,"state":"active","ping":75},{"user_id":575,"name":"bakkhertz","steam_id":76561198046745579,"connected_time":1443000000000,"state":"active","ping":89},{"user_id":581,"name":"Ditzy","steam_id":76561199372132901,"connected_time":1112000000000,"state":"active","ping":93},{"user_id":599,"name":"crippledfrog133.ඞ","steam_id":76561198115458307,"connected_time":453000000000,"state":"active","ping":108},{"user_id":565,"name":"tf2 AI chat bot","steam_id":76561198801207748,"connected_time":2410000000000,"state":"active","ping":57},{"user_id":497,"name":"Swash","steam_id":76561197969421355,"connected_time":5863000000000,"state":"active","ping":57},{"user_id":441,"name":"hej","steam_id":76561197996366940,"connected_time":7469000000000,"state":"active","ping":59},{"user_id":595,"name":"Windup Monkey in a Human Suit","steam_id":76561198119501444,"connected_time":583000000000,"state":"active","ping":101},{"user_id":576,"name":"Vogel","steam_id":76561198872159697,"connected_time":1334000000000,"state":"active","ping":63},{"user_id":577,"name":"SentryGunMk1timtamtombotominehi","steam_id":76561198143439367,"connected_time":1248000000000,"state":"active","ping":85},{"user_id":578,"name":"Spinks","steam_id":76561198108762955,"connected_time":1241000000000,"state":"active","ping":81},{"user_id":605,"name":"Devoid","steam_id":76561198254039012,"connected_time":130000000000,"state":"active","ping":50},{"user_id":591,"name":"Joe Biden","steam_id":76561198056170906,"connected_time":715000000000,"state":"active","ping":76},{"user_id":603,"name":"Anyar","steam_id":76561198160174097,"connected_time":271000000000,"state":"active","ping":75},{"user_id":584,"name":"Django","steam_id":76561197971158403,"connected_time":1034000000000,"state":"active","ping":75},{"user_id":563,"name":"Prsm","steam_id":76561198053344995,"connected_time":2519000000000,"state":"active","ping":57},{"user_id":535,"name":"Kiss Master","steam_id":76561198289572271,"connected_time":4290000000000,"state":"active","ping":87},{"user_id":585,"name":"upside down cat","steam_id":76561198028288349,"connected_time":1008000000000,"state":"active","ping":88},{"user_id":573,"name":"Nobody","steam_id":76561198286486517,"connected_time":1617000000000,"state":"active","ping":67},{"user_id":590,"name":"Stoopnagle","steam_id":76561198011942560,"connected_time":745000000000,"state":"active","ping":130},{"user_id":569,"name":"Lia_Rein","steam_id":76561198151569597,"connected_time":1986000000000,"state":"active","ping":142},{"user_id":606,"name":"stuff","steam_id":76561198190770226,"connected_time":126000000000,"state":"active","ping":94}]},{"server_id":402,"name":"Uncletopia | Chicago | 3 | All Maps","name_short":"chi-3","host":"chi-1.us.uncletopia.com","port":27035,"enabled":true,"region":"us-central","cc":"us","latitude":41.881832,"longitude":-87.62318,"reserved":0,"last_update":"0001-01-01T00:00:00Z","name_a2s":"Uncletopia | Chicago | 3 | All Maps","protocol":17,"map":"cp_process_final","folder":"tf","game":"Team Fortress","app_id":440,"player_count":24,"max_players":24,"Bots":0,"server_type":"Dedicated","server_os":"Linux","password":true,"vac":true,"version":"7961495","steam_id":85568392924515191,"keywords":["cp","nocrits","nodmgspread","uncletopia"],"game_id":440,"stv_port":27036,"stv_name":"Uncletopia | Chicago | 3 | All Maps | STV","players":[{"user_id":187,"name":"Joyous Jenny","steam_id":76561198127998866,"connected_time":2516000000000,"state":"active","ping":78},{"user_id":231,"name":"Square Kid","steam_id":76561198349858321,"connected_time":196000000000,"state":"active","ping":84},{"user_id":215,"name":"Whimsical Bruh","steam_id":76561199069973423,"connected_time":848000000000,"state":"active","ping":59},{"user_id":182,"name":"EnergyBolt30","steam_id":76561198925178957,"connected_time":3084000000000,"state":"active","ping":84},{"user_id":232,"name":"Pizza","steam_id":76561198118748364,"connected_time":138000000000,"state":"active","ping":75},{"user_id":169,"name":"LavenderSys","steam_id":76561198289106015,"connected_time":4519000000000,"state":"active","ping":79},{"user_id":224,"name":"BetoelAff","steam_id":76561198377842585,"connected_time":552000000000,"state":"active","ping":118},{"user_id":211,"name":"d5","steam_id":76561199339997328,"connected_time":1312000000000,"state":"active","ping":75},{"user_id":233,"name":"Scum Knight | T.I.D.K.","steam_id":76561198282444763,"connected_time":123000000000,"state":"active","ping":61},{"user_id":234,"name":"DaisyTheCat","steam_id":76561198241732704,"connected_time":94000000000,"state":"active","ping":135},{"user_id":177,"name":"FireQuiz","steam_id":76561198107357249,"connected_time":3517000000000,"state":"active","ping":100},{"user_id":201,"name":"joyeuxnoelle","steam_id":76561198062423120,"connected_time":2102000000000,"state":"active","ping":72},{"user_id":235,"name":"Mixed Up","steam_id":76561198042570322,"connected_time":89000000000,"state":"active","ping":59},{"user_id":225,"name":"lil' Wayne","steam_id":76561198050136796,"connected_time":445000000000,"state":"active","ping":82},{"user_id":228,"name":"Mega_Man23","steam_id":76561198138341391,"connected_time":319000000000,"state":"active","ping":60},{"user_id":236,"name":"aurro","steam_id":76561198315692300,"connected_time":62000000000,"state":"active","ping":45},{"user_id":124,"name":"robe","steam_id":76561198238166694,"connected_time":6678000000000,"state":"active","ping":73},{"user_id":220,"name":"Dokkibai","steam_id":76561198355935693,"connected_time":725000000000,"state":"active","ping":49},{"user_id":221,"name":"dodecadron","steam_id":76561198027397222,"connected_time":710000000000,"state":"active","ping":105},{"user_id":237,"name":"Dongus","steam_id":76561197979056451,"connected_time":61000000000,"state":"active","ping":90},{"user_id":229,"name":"Oniari","steam_id":76561198013847094,"connected_time":255000000000,"state":"active","ping":85},{"user_id":230,"name":"Strange Diplomat","steam_id":76561198428191920,"connected_time":200000000000,"state":"active","ping":65},{"user_id":223,"name":"Hashmere","steam_id":76561198002797253,"connected_time":627000000000,"state":"active","ping":76},{"user_id":207,"name":"Tired°","steam_id":76561198072620682,"connected_time":1669000000000,"state":"active","ping":104}]},{"server_id":403,"name":"Uncletopia | Chicago | 4 | All Maps","name_short":"chi-4","host":"chi-1.us.uncletopia.com","port":27045,"enabled":true,"region":"us-central","cc":"us","latitude":41.881832,"longitude":-87.62318,"reserved":0,"last_update":"0001-01-01T00:00:00Z","name_a2s":"Uncletopia | Chicago | 4 | All Maps","protocol":17,"map":"pl_pier","folder":"tf","game":"Team Fortress","app_id":440,"player_count":24,"max_players":24,"Bots":0,"server_type":"Dedicated","server_os":"Linux","password":true,"vac":true,"version":"7961495","steam_id":85568392924515193,"keywords":["nocrits","nodmgspread","payload","uncletopia"],"game_id":440,"stv_port":27046,"stv_name":"Uncletopia | Chicago | 4 | All Maps | STV","players":[{"user_id":153,"name":"hill of the king","steam_id":76561198099491925,"connected_time":1260000000000,"state":"active","ping":75},{"user_id":157,"name":"clavin","steam_id":76561198069380992,"connected_time":1183000000000,"state":"active","ping":79},{"user_id":86,"name":"Pacts Gornax","steam_id":76561198066256419,"connected_time":5937000000000,"state":"active","ping":72},{"user_id":144,"name":"The Jar","steam_id":76561198146013385,"connected_time":2365000000000,"state":"active","ping":74},{"user_id":135,"name":"Crombun","steam_id":76561198031559642,"connected_time":2771000000000,"state":"active","ping":76},{"user_id":150,"name":"Nova Academy of Salmon Action","steam_id":76561198021842526,"connected_time":1344000000000,"state":"active","ping":111},{"user_id":128,"name":"Laventhey","steam_id":76561198977523626,"connected_time":4157000000000,"state":"active","ping":62},{"user_id":167,"name":"fractaldunes","steam_id":76561198118102935,"connected_time":40000000000,"state":"spawning","ping":82},{"user_id":156,"name":"TheSnipersHat","steam_id":76561198057684066,"connected_time":1198000000000,"state":"active","ping":51},{"user_id":49,"name":"Sunflower","steam_id":76561198081223793,"connected_time":8158000000000,"state":"active","ping":54},{"user_id":149,"name":"Deluxe_Taco34","steam_id":76561199037653437,"connected_time":2135000000000,"state":"active","ping":116},{"user_id":158,"name":"Asanez3","steam_id":76561198037381436,"connected_time":1146000000000,"state":"active","ping":77},{"user_id":165,"name":"MONKE","steam_id":76561199211345801,"connected_time":70000000000,"state":"active","ping":72},{"user_id":159,"name":"The Power","steam_id":76561198060566884,"connected_time":1079000000000,"state":"active","ping":129},{"user_id":145,"name":"battle clown","steam_id":76561198045788371,"connected_time":2355000000000,"state":"active","ping":68},{"user_id":143,"name":"Psychosis","steam_id":76561198078659070,"connected_time":2379000000000,"state":"active","ping":72},{"user_id":160,"name":"for the king","steam_id":76561197973488858,"connected_time":1036000000000,"state":"active","ping":60},{"user_id":63,"name":"Amtyk","steam_id":76561197979130554,"connected_time":7466000000000,"state":"active","ping":64},{"user_id":161,"name":"JPSS","steam_id":76561199239530493,"connected_time":1029000000000,"state":"active","ping":95},{"user_id":103,"name":"ThatGamingKiwi","steam_id":76561199170522237,"connected_time":5372000000000,"state":"active","ping":80},{"user_id":162,"name":"Ursus Ludius","steam_id":76561198025470722,"connected_time":972000000000,"state":"active","ping":75},{"user_id":130,"name":"Real","steam_id":76561198119315680,"connected_time":3742000000000,"state":"active","ping":67},{"user_id":163,"name":"Flax Plus Pumpkin Raisin Crunch","steam_id":76561198206517160,"connected_time":927000000000,"state":"active","ping":57},{"user_id":114,"name":"momlovie","steam_id":76561198843933742,"connected_time":4899000000000,"state":"active","ping":71}]},{"server_id":36,"name":"Uncletopia | Chicago | 5 | All Maps","name_short":"chi-5","host":"chi-2.us.uncletopia.com","port":27015,"enabled":true,"region":"us-central","cc":"us","latitude":41.881832,"longitude":-87.62318,"reserved":0,"last_update":"0001-01-01T00:00:00Z","name_a2s":"Uncletopia | Chicago | 5 | All Maps","protocol":17,"map":"koth_highpass","folder":"tf","game":"Team Fortress","app_id":440,"player_count":24,"max_players":24,"Bots":0,"server_type":"Dedicated","server_os":"Linux","password":true,"vac":true,"version":"7961495","steam_id":85568392924866362,"keywords":["cp","nocrits","nodmgspread","uncletopia"],"game_id":440,"stv_port":27016,"stv_name":"Uncletopia | Chicago | 5 | All Maps | STV","players":[{"user_id":204,"name":"Cyberpunk McDonald's Play Place","steam_id":76561198063512035,"connected_time":549000000000,"state":"active","ping":72},{"user_id":198,"name":"Post nut clarity","steam_id":76561198060246831,"connected_time":941000000000,"state":"active","ping":75},{"user_id":208,"name":"Sara_Ultimis","steam_id":76561198217182993,"connected_time":450000000000,"state":"active","ping":153},{"user_id":105,"name":"Beebo, Son of Beebo","steam_id":76561198055948497,"connected_time":6394000000000,"state":"active","ping":49},{"user_id":207,"name":"Ballistic Bees","steam_id":76561198116870575,"connected_time":456000000000,"state":"active","ping":72},{"user_id":193,"name":"Prayut gaming","steam_id":76561198210919945,"connected_time":1538000000000,"state":"active","ping":144},{"user_id":186,"name":"Derpkinglol456","steam_id":76561199124719679,"connected_time":1849000000000,"state":"active","ping":70},{"user_id":190,"name":"toastman","steam_id":76561198207073088,"connected_time":1720000000000,"state":"active","ping":62},{"user_id":156,"name":"ctf_well","steam_id":76561198016826181,"connected_time":3424000000000,"state":"active","ping":69},{"user_id":205,"name":"carbuzz","steam_id":76561198129361580,"connected_time":538000000000,"state":"active","ping":188},{"user_id":19,"name":"schnedwob","steam_id":76561197999146588,"connected_time":10568000000000,"state":"active","ping":77},{"user_id":176,"name":"Lordofthekevins","steam_id":76561198169066956,"connected_time":2399000000000,"state":"active","ping":61},{"user_id":206,"name":"twizted","steam_id":76561197960407274,"connected_time":537000000000,"state":"active","ping":66},{"user_id":183,"name":"Chris P. Bacon","steam_id":76561198994704160,"connected_time":1999000000000,"state":"active","ping":68},{"user_id":212,"name":"Torensz64(But weezer)","steam_id":76561198239036482,"connected_time":20000000000,"state":"active","ping":47},{"user_id":211,"name":"Toast","steam_id":76561198401995265,"connected_time":277000000000,"state":"active","ping":61},{"user_id":111,"name":"gorf?","steam_id":76561198142286417,"connected_time":6351000000000,"state":"active","ping":59},{"user_id":163,"name":"Pika","steam_id":76561198068063436,"connected_time":3077000000000,"state":"active","ping":55},{"user_id":188,"name":"Aster","steam_id":76561198037920420,"connected_time":1812000000000,"state":"active","ping":80},{"user_id":189,"name":"CheekiBreeki","steam_id":76561198008596138,"connected_time":1756000000000,"state":"active","ping":88},{"user_id":191,"name":"Long Chicken From Burger King","steam_id":76561198011603359,"connected_time":1694000000000,"state":"active","ping":85},{"user_id":210,"name":"idosu","steam_id":76561198132225073,"connected_time":336000000000,"state":"active","ping":97},{"user_id":201,"name":"rugbyralph288","steam_id":76561198161475964,"connected_time":868000000000,"state":"active","ping":99},{"user_id":202,"name":"Xyverle","steam_id":76561198799726415,"connected_time":855000000000,"state":"active","ping":62}]},{"server_id":37,"name":"Uncletopia | Chicago | 6 | All Maps","name_short":"chi-6","host":"chi-2.us.uncletopia.com","port":27025,"enabled":true,"region":"us-central","cc":"us","latitude":41.881832,"longitude":-87.62318,"reserved":0,"last_update":"0001-01-01T00:00:00Z","name_a2s":"Uncletopia | Chicago | 6 | All Maps","protocol":17,"map":"koth_viaduct","folder":"tf","game":"Team Fortress","app_id":440,"player_count":1,"max_players":24,"Bots":0,"server_type":"Dedicated","server_os":"Linux","password":true,"vac":true,"version":"7961495","steam_id":85568392924866363,"keywords":["cp","nocrits","nodmgspread","uncletopia"],"game_id":440,"stv_port":27026,"stv_name":"Uncletopia | Chicago | 6 | All Maps | STV","players":[{"user_id":31,"name":"menonamed","steam_id":76561198199564382,"connected_time":74000000000,"state":"active","ping":68}]},{"server_id":38,"name":"Uncletopia | Chicago | 7 | Stopwatch","name_short":"chi-7","host":"chi-2.us.uncletopia.com","port":27035,"enabled":true,"region":"us-central","cc":"us","latitude":41.881832,"longitude":-87.62318,"reserved":0,"last_update":"0001-01-01T00:00:00Z","name_a2s":"Uncletopia | Chicago | 7 | Stopwatch","protocol":17,"map":"cp_snakewater_final1","folder":"tf","game":"Team Fortress","app_id":440,"player_count":0,"max_players":24,"Bots":0,"server_type":"Dedicated","server_os":"Linux","password":true,"vac":true,"version":"7961495","steam_id":85568392924866364,"keywords":["cp","nocrits","nodmgspread","uncletopia"],"game_id":440,"stv_port":27036,"stv_name":"Uncletopia | Chicago | 7 | Stopwatch | STV","players":null},{"server_id":39,"name":"Uncletopia | Chicago | 8 | Community","name_short":"chi-8","host":"chi-2.us.uncletopia.com","port":27045,"enabled":true,"region":"us-central","cc":"us","latitude":41.881832,"longitude":-87.62318,"reserved":0,"last_update":"0001-01-01T00:00:00Z","name_a2s":"Uncletopia | Chicago | 8 | Community","protocol":17,"map":"workshop/cp_indulge.ugc528106646","folder":"tf","game":"Team Fortress","app_id":440,"player_count":0,"max_players":24,"Bots":0,"server_type":"Dedicated","server_os":"Linux","password":true,"vac":true,"version":"7961495","steam_id":85568392924866365,"keywords":["cp","nocrits","nodmgspread","uncletopia"],"game_id":440,"stv_port":27046,"stv_name":"Uncletopia | Chicago | 8 | Community | STV","players":null},{"server_id":8,"name":"Uncletopia | Dallas | 1 | All Maps","name_short":"dal-1","host":"dal-1.us.uncletopia.com","port":27015,"enabled":true,"region":"us-central","cc":"us","latitude":32.779167,"longitude":-96.80889,"reserved":0,"last_update":"0001-01-01T00:00:00Z","name_a2s":"Uncletopia | Dallas | 1 | All Maps","protocol":17,"map":"pl_borneo","folder":"tf","game":"Team Fortress","app_id":440,"player_count":24,"max_players":24,"Bots":0,"server_type":"Dedicated","server_os":"Linux","password":true,"vac":true,"version":"7961495","steam_id":85568392924469986,"keywords":["nocrits","nodmgspread","payload","uncletopia"],"game_id":440,"stv_port":27016,"stv_name":"Uncletopia | Dallas | 1 | All Maps | STV","players":[{"user_id":361,"name":"theManMan","steam_id":76561199488457138,"connected_time":4650000000000,"state":"active","ping":101},{"user_id":428,"name":"『Hazon』","steam_id":76561198119852107,"connected_time":757000000000,"state":"active","ping":83},{"user_id":441,"name":"Soft copper wings","steam_id":76561198092317849,"connected_time":16000000000,"state":"active","ping":191},{"user_id":434,"name":"Artic_Ryuu","steam_id":76561198182194918,"connected_time":165000000000,"state":"active","ping":75},{"user_id":401,"name":"[BLU] XxcodgodxX","steam_id":76561199474871203,"connected_time":2870000000000,"state":"active","ping":85},{"user_id":435,"name":"dumbeeon","steam_id":76561198059351874,"connected_time":141000000000,"state":"active","ping":82},{"user_id":442,"name":"Mikael_01","steam_id":76561199080253129,"connected_time":7000000000,"state":"spawning","ping":173},{"user_id":429,"name":"catfish from toontown","steam_id":76561198060070002,"connected_time":666000000000,"state":"active","ping":57},{"user_id":423,"name":"NPC-42","steam_id":76561198071237884,"connected_time":1005000000000,"state":"active","ping":48},{"user_id":421,"name":"radicalPolio","steam_id":76561197961561855,"connected_time":1066000000000,"state":"active","ping":46},{"user_id":437,"name":"di0sm3lls","steam_id":76561199086139737,"connected_time":124000000000,"state":"active","ping":83},{"user_id":424,"name":"¥ung Radi$h","steam_id":76561198138968232,"connected_time":979000000000,"state":"active","ping":71},{"user_id":438,"name":"Macro","steam_id":76561199442846226,"connected_time":79000000000,"state":"active","ping":78},{"user_id":341,"name":"Two-Ton Heavy Thing","steam_id":76561198201724274,"connected_time":6242000000000,"state":"active","ping":88},{"user_id":358,"name":"mutant demonic imp x-woman","steam_id":76561198132803810,"connected_time":5222000000000,"state":"active","ping":62},{"user_id":418,"name":"Poodwaddle","steam_id":76561198060384838,"connected_time":1225000000000,"state":"active","ping":84},{"user_id":439,"name":"Doop","steam_id":76561198849175421,"connected_time":74000000000,"state":"active","ping":88},{"user_id":425,"name":"River Rat","steam_id":76561198116383976,"connected_time":955000000000,"state":"active","ping":114},{"user_id":408,"name":"schmuck","steam_id":76561198143789773,"connected_time":2732000000000,"state":"active","ping":51},{"user_id":387,"name":"Melonfrog","steam_id":76561198389885427,"connected_time":3539000000000,"state":"active","ping":79},{"user_id":427,"name":"Grand Piano Tuna","steam_id":76561198135137213,"connected_time":897000000000,"state":"active","ping":46},{"user_id":440,"name":"4 happy big hot men","steam_id":76561199002087591,"connected_time":70000000000,"state":"active","ping":71},{"user_id":416,"name":"DlTTO","steam_id":76561199427026752,"connected_time":1277000000000,"state":"active","ping":99},{"user_id":431,"name":"no vc no c","steam_id":76561197989503095,"connected_time":581000000000,"state":"active","ping":171}]},{"server_id":108,"name":"Uncletopia | Dallas | 2 | All Maps","name_short":"dal-2","host":"dal-1.us.uncletopia.com","port":27025,"enabled":true,"region":"us-central","cc":"us","latitude":32.779167,"longitude":-96.80889,"reserved":0,"last_update":"0001-01-01T00:00:00Z","name_a2s":"Uncletopia | Dallas | 2 | All Maps","protocol":17,"map":"cp_altitude","folder":"tf","game":"Team Fortress","app_id":440,"player_count":22,"max_players":24,"Bots":0,"server_type":"Dedicated","server_os":"Linux","password":true,"vac":true,"version":"7961495","steam_id":85568392924469988,"keywords":["cp","nocrits","nodmgspread","uncletopia"],"game_id":440,"stv_port":27026,"stv_name":"Uncletopia | Dallas | 2 | All Maps | STV","players":[{"user_id":249,"name":"UwU","steam_id":76561198971629959,"connected_time":3085000000000,"state":"active","ping":132},{"user_id":263,"name":"TommyBoi","steam_id":76561198025528637,"connected_time":1558000000000,"state":"active","ping":105},{"user_id":278,"name":"dmdr1969","steam_id":76561198080469611,"connected_time":36000000000,"state":"active","ping":73},{"user_id":275,"name":"Cofi","steam_id":76561199026721822,"connected_time":137000000000,"state":"active","ping":90},{"user_id":209,"name":"pafijohn","steam_id":76561198002535190,"connected_time":6338000000000,"state":"active","ping":75},{"user_id":266,"name":"sett ulting that kitty cat","steam_id":76561198298645133,"connected_time":1439000000000,"state":"active","ping":93},{"user_id":276,"name":"TeriyakiDynamite","steam_id":76561198050049346,"connected_time":125000000000,"state":"active","ping":96},{"user_id":223,"name":"Mellou","steam_id":76561198212048740,"connected_time":4187000000000,"state":"active","ping":48},{"user_id":271,"name":"gun","steam_id":76561199504843301,"connected_time":236000000000,"state":"active","ping":72},{"user_id":229,"name":"OWEENIE","steam_id":76561198083135927,"connected_time":3778000000000,"state":"active","ping":50},{"user_id":272,"name":"Slokestope","steam_id":76561197992717012,"connected_time":220000000000,"state":"active","ping":68},{"user_id":274,"name":"PhantomGamerModz","steam_id":76561198425172210,"connected_time":206000000000,"state":"active","ping":63},{"user_id":273,"name":"Paulie Walnuts","steam_id":76561198148078451,"connected_time":218000000000,"state":"active","ping":76},{"user_id":277,"name":"Killerfish360","steam_id":76561198115029584,"connected_time":45000000000,"state":"active","ping":73},{"user_id":235,"name":"Drakon","steam_id":76561198078210822,"connected_time":3596000000000,"state":"active","ping":99},{"user_id":240,"name":"finmin","steam_id":76561198127639913,"connected_time":3403000000000,"state":"active","ping":90},{"user_id":241,"name":"BIG NOSE","steam_id":76561199374905157,"connected_time":3400000000000,"state":"active","ping":94},{"user_id":279,"name":"WEED SOLDIER","steam_id":76561198079973828,"connected_time":35000000000,"state":"active","ping":54},{"user_id":262,"name":"Venat","steam_id":76561197997052326,"connected_time":1576000000000,"state":"active","ping":106},{"user_id":267,"name":"FEESH EGG","steam_id":76561198164699517,"connected_time":968000000000,"state":"active","ping":81},{"user_id":268,"name":"Wrath","steam_id":76561198103920554,"connected_time":407000000000,"state":"active","ping":58},{"user_id":255,"name":"Lord Mendigo","steam_id":76561198207957111,"connected_time":2715000000000,"state":"active","ping":188}]},{"server_id":404,"name":"Uncletopia | Dallas | 3 | All Maps","name_short":"dal-3","host":"dal-1.us.uncletopia.com","port":27035,"enabled":true,"region":"us-central","cc":"us","latitude":32.779167,"longitude":-96.80889,"reserved":0,"last_update":"0001-01-01T00:00:00Z","name_a2s":"Uncletopia | Dallas | 3 | All Maps","protocol":17,"map":"pl_borneo","folder":"tf","game":"Team Fortress","app_id":440,"player_count":0,"max_players":24,"Bots":0,"server_type":"Dedicated","server_os":"Linux","password":true,"vac":true,"version":"7961495","steam_id":85568392924515219,"keywords":["nocrits","nodmgspread","payload","uncletopia"],"game_id":440,"stv_port":27036,"stv_name":"Uncletopia | Dallas | 3 | All Maps | STV","players":null},{"server_id":405,"name":"Uncletopia | Dallas | 4 | Community","name_short":"dal-4","host":"dal-1.us.uncletopia.com","port":27045,"enabled":true,"region":"us-central","cc":"us","latitude":32.779167,"longitude":-96.80889,"reserved":0,"last_update":"0001-01-01T00:00:00Z","name_a2s":"Uncletopia | Dallas | 4 | Community","protocol":17,"map":"pl_pier","folder":"tf","game":"Team Fortress","app_id":440,"player_count":0,"max_players":24,"Bots":0,"server_type":"Dedicated","server_os":"Linux","password":true,"vac":true,"version":"7961495","steam_id":85568392924515220,"keywords":["nocrits","nodmgspread","payload","uncletopia"],"game_id":440,"stv_port":27046,"stv_name":"Uncletopia | Dallas | 4 | Community | STV","players":null},{"server_id":5,"name":"Uncletopia | Frankfurt | 1 | All Maps","name_short":"frk-1","host":"frk-1.de.uncletopia.com","port":27015,"enabled":true,"region":"eu","cc":"de","latitude":50.110924,"longitude":8.682127,"reserved":0,"last_update":"0001-01-01T00:00:00Z","name_a2s":"Uncletopia | Frankfurt | 1 | All Maps","protocol":17,"map":"koth_harvest_final","folder":"tf","game":"Team Fortress","app_id":440,"player_count":24,"max_players":24,"Bots":0,"server_type":"Dedicated","server_os":"Linux","password":true,"vac":true,"version":"7961495","steam_id":85568392924469989,"keywords":["cp","nocrits","nodmgspread","uncletopia"],"game_id":440,"stv_port":27016,"stv_name":"Uncletopia | Frankfurt | 1 | All Maps | STV","players":[{"user_id":942,"name":"tully","steam_id":76561198058012525,"connected_time":3247000000000,"state":"active","ping":46},{"user_id":971,"name":"Bajas","steam_id":76561198179339326,"connected_time":1451000000000,"state":"active","ping":76},{"user_id":869,"name":"HoneyBe_","steam_id":76561198288930154,"connected_time":4455000000000,"state":"active","ping":84},{"user_id":988,"name":"envy","steam_id":76561198247411118,"connected_time":297000000000,"state":"active","ping":79},{"user_id":962,"name":"ay","steam_id":76561198033695429,"connected_time":2340000000000,"state":"active","ping":56},{"user_id":943,"name":"doug walker joins antifa","steam_id":76561198190073005,"connected_time":3245000000000,"state":"active","ping":58},{"user_id":990,"name":"Fat Pigeon","steam_id":76561198817940142,"connected_time":206000000000,"state":"active","ping":51},{"user_id":959,"name":"Egor Pomidor","steam_id":76561199175688390,"connected_time":2524000000000,"state":"active","ping":75},{"user_id":961,"name":"Xiqui","steam_id":76561198818386611,"connected_time":2513000000000,"state":"active","ping":84},{"user_id":987,"name":"Gen","steam_id":76561198021775885,"connected_time":311000000000,"state":"active","ping":48},{"user_id":985,"name":"Lanz","steam_id":76561198126356394,"connected_time":493000000000,"state":"active","ping":46},{"user_id":989,"name":"A literal heavy","steam_id":76561199219233587,"connected_time":283000000000,"state":"active","ping":80},{"user_id":976,"name":"Cjeff","steam_id":76561198078099059,"connected_time":1259000000000,"state":"active","ping":60},{"user_id":982,"name":"Ozzie","steam_id":76561197992915315,"connected_time":780000000000,"state":"active","ping":76},{"user_id":977,"name":"Grim the lemon","steam_id":76561199083433988,"connected_time":1211000000000,"state":"active","ping":56},{"user_id":978,"name":"HorizonR2","steam_id":76561198034824778,"connected_time":1191000000000,"state":"active","ping":68},{"user_id":983,"name":"clovis20051","steam_id":76561198255886864,"connected_time":726000000000,"state":"active","ping":70},{"user_id":950,"name":"hotdog.enjoyer09@yahoo.com","steam_id":76561198884908952,"connected_time":3161000000000,"state":"active","ping":64},{"user_id":910,"name":"Vershal Smershal","steam_id":76561198116223995,"connected_time":3792000000000,"state":"active","ping":60},{"user_id":921,"name":"agent youppii","steam_id":76561198055264447,"connected_time":3638000000000,"state":"active","ping":70},{"user_id":967,"name":"Edla","steam_id":76561198062815315,"connected_time":1877000000000,"state":"active","ping":130},{"user_id":981,"name":"Ecton","steam_id":76561198025103720,"connected_time":868000000000,"state":"active","ping":61},{"user_id":920,"name":"Rarky","steam_id":76561198054398642,"connected_time":3663000000000,"state":"active","ping":59},{"user_id":979,"name":"Raven","steam_id":76561198036076305,"connected_time":1150000000000,"state":"active","ping":46}]},{"server_id":110,"name":"Uncletopia | Frankfurt | 2 | All Maps","name_short":"frk-2","host":"frk-1.de.uncletopia.com","port":27025,"enabled":true,"region":"eu","cc":"de","latitude":50.110924,"longitude":8.682127,"reserved":0,"last_update":"0001-01-01T00:00:00Z","name_a2s":"Uncletopia | Frankfurt | 2 | All Maps","protocol":17,"map":"cp_process_final","folder":"tf","game":"Team Fortress","app_id":440,"player_count":0,"max_players":24,"Bots":0,"server_type":"Dedicated","server_os":"Linux","password":true,"vac":true,"version":"7961495","steam_id":85568392924469990,"keywords":["cp","nocrits","nodmgspread","uncletopia"],"game_id":440,"stv_port":27026,"stv_name":"Uncletopia | Frankfurt | 2 | All Maps | STV","players":null},{"server_id":308,"name":"Uncletopia | Frankfurt | 3 | All Maps","name_short":"frk-3","host":"frk-1.de.uncletopia.com","port":27035,"enabled":true,"region":"eu","cc":"de","latitude":50.110924,"longitude":8.682127,"reserved":0,"last_update":"0001-01-01T00:00:00Z","name_a2s":"Uncletopia | Frankfurt | 3 | All Maps","protocol":17,"map":"pl_badwater","folder":"tf","game":"Team Fortress","app_id":440,"player_count":23,"max_players":24,"Bots":0,"server_type":"Dedicated","server_os":"Linux","password":true,"vac":true,"version":"7961495","steam_id":85568392924504274,"keywords":["nocrits","nodmgspread","payload","uncletopia"],"game_id":440,"stv_port":27036,"stv_name":"Uncletopia | Frankfurt | 3 | All Maps | STV","players":[{"user_id":713,"name":"bombo112","steam_id":76561198059743551,"connected_time":161000000000,"state":"active","ping":72},{"user_id":712,"name":"Metin_erd","steam_id":76561199134448234,"connected_time":199000000000,"state":"active","ping":94},{"user_id":701,"name":"Chambersite the Wizard","steam_id":76561198197022399,"connected_time":1150000000000,"state":"active","ping":66},{"user_id":661,"name":"s a i","steam_id":76561197970379754,"connected_time":5981000000000,"state":"active","ping":55},{"user_id":706,"name":"wiserclub6","steam_id":76561198312144351,"connected_time":857000000000,"state":"active","ping":99},{"user_id":685,"name":"Vinn0","steam_id":76561198987241284,"connected_time":2582000000000,"state":"active","ping":56},{"user_id":692,"name":"карасик","steam_id":76561197971140507,"connected_time":1797000000000,"state":"active","ping":75},{"user_id":676,"name":"Burrito","steam_id":76561198023919089,"connected_time":3704000000000,"state":"active","ping":85},{"user_id":714,"name":"Rusty Pickaxe Head","steam_id":76561198039254636,"connected_time":151000000000,"state":"active","ping":70},{"user_id":707,"name":"elwen","steam_id":76561198025282054,"connected_time":739000000000,"state":"active","ping":83},{"user_id":709,"name":"Helix","steam_id":76561198084062882,"connected_time":492000000000,"state":"active","ping":45},{"user_id":703,"name":"runcar222","steam_id":76561198077085528,"connected_time":960000000000,"state":"active","ping":64},{"user_id":662,"name":"Relic","steam_id":76561199499093258,"connected_time":5952000000000,"state":"active","ping":57},{"user_id":715,"name":"Ječmen","steam_id":76561198051617968,"connected_time":135000000000,"state":"active","ping":70},{"user_id":696,"name":"George W Bush","steam_id":76561198846784757,"connected_time":1767000000000,"state":"active","ping":71},{"user_id":678,"name":"meriones","steam_id":76561198034234373,"connected_time":3680000000000,"state":"active","ping":59},{"user_id":710,"name":"MG","steam_id":76561197992591715,"connected_time":266000000000,"state":"active","ping":65},{"user_id":679,"name":"Lennox","steam_id":76561198069063554,"connected_time":3379000000000,"state":"active","ping":40},{"user_id":680,"name":"Swagmaster","steam_id":76561198045828392,"connected_time":3377000000000,"state":"active","ping":69},{"user_id":597,"name":"MR BUBBLES","steam_id":76561198019005259,"connected_time":10173000000000,"state":"active","ping":100},{"user_id":699,"name":"mai","steam_id":76561198008959448,"connected_time":1674000000000,"state":"active","ping":61},{"user_id":698,"name":"AftiksPL","steam_id":76561198875182686,"connected_time":1744000000000,"state":"active","ping":93},{"user_id":705,"name":"gaming gamer","steam_id":76561198212488780,"connected_time":900000000000,"state":"active","ping":59}]},{"server_id":309,"name":"Uncletopia | Frankfurt | 4 | All Maps","name_short":"frk-4","host":"frk-1.de.uncletopia.com","port":27045,"enabled":true,"region":"eu","cc":"de","latitude":50.110924,"longitude":8.682127,"reserved":0,"last_update":"0001-01-01T00:00:00Z","name_a2s":"Uncletopia | Frankfurt | 4 | All Maps","protocol":17,"map":"cp_metalworks","folder":"tf","game":"Team Fortress","app_id":440,"player_count":24,"max_players":24,"Bots":0,"server_type":"Dedicated","server_os":"Linux","password":true,"vac":true,"version":"7961495","steam_id":85568392924504275,"keywords":["cp","nocrits","nodmgspread","uncletopia"],"game_id":440,"stv_port":27046,"stv_name":"Uncletopia | Frankfurt | 4 | All Maps | STV","players":[{"user_id":389,"name":"finbar","steam_id":76561198056812396,"connected_time":3734000000000,"state":"active","ping":74},{"user_id":416,"name":"g","steam_id":76561198195627067,"connected_time":2242000000000,"state":"active","ping":69},{"user_id":426,"name":"rob","steam_id":76561198122211848,"connected_time":1200000000000,"state":"active","ping":92},{"user_id":434,"name":"Kamikrazy","steam_id":76561198044254918,"connected_time":528000000000,"state":"active","ping":66},{"user_id":427,"name":"Rodak","steam_id":76561199135986344,"connected_time":1158000000000,"state":"active","ping":63},{"user_id":367,"name":"dractyloplume","steam_id":76561198315747969,"connected_time":5168000000000,"state":"active","ping":52},{"user_id":428,"name":"Ash","steam_id":76561198272001890,"connected_time":763000000000,"state":"active","ping":56},{"user_id":409,"name":"Flying Squirrel","steam_id":76561198005202791,"connected_time":2712000000000,"state":"active","ping":64},{"user_id":429,"name":"Silver","steam_id":76561198175238807,"connected_time":757000000000,"state":"active","ping":63},{"user_id":393,"name":"CumbustiblePunda","steam_id":76561197974274677,"connected_time":3675000000000,"state":"active","ping":53},{"user_id":431,"name":"Sirzen","steam_id":76561198170155434,"connected_time":645000000000,"state":"active","ping":55},{"user_id":343,"name":":)","steam_id":76561198181072689,"connected_time":7180000000000,"state":"active","ping":81},{"user_id":415,"name":"Cillian","steam_id":76561199471571148,"connected_time":2368000000000,"state":"active","ping":81},{"user_id":432,"name":"Nothing wrong with Lolicon","steam_id":76561198073005560,"connected_time":562000000000,"state":"active","ping":70},{"user_id":420,"name":"engineer gaming","steam_id":76561198976416610,"connected_time":1993000000000,"state":"active","ping":66},{"user_id":441,"name":"Vivid","steam_id":76561198346546144,"connected_time":363000000000,"state":"active","ping":65},{"user_id":406,"name":"Tony","steam_id":76561198128993838,"connected_time":2858000000000,"state":"active","ping":75},{"user_id":435,"name":"etc","steam_id":76561197998394797,"connected_time":528000000000,"state":"active","ping":54},{"user_id":439,"name":"tensh1","steam_id":76561198282471866,"connected_time":525000000000,"state":"active","ping":112},{"user_id":402,"name":"Isak","steam_id":76561198085959762,"connected_time":3104000000000,"state":"active","ping":77},{"user_id":442,"name":"Ando","steam_id":76561197994056083,"connected_time":204000000000,"state":"active","ping":57},{"user_id":440,"name":"Alienketchup","steam_id":76561197970585162,"connected_time":507000000000,"state":"active","ping":81},{"user_id":422,"name":"Seducktive","steam_id":76561198003267177,"connected_time":1738000000000,"state":"active","ping":156},{"user_id":425,"name":"immie^^","steam_id":76561197961231625,"connected_time":1613000000000,"state":"active","ping":63}]},{"server_id":310,"name":"Uncletopia | Frankfurt | 5 | All Maps","name_short":"frk-5","host":"frk-1.de.uncletopia.com","port":27055,"enabled":true,"region":"eu","cc":"de","latitude":50.110924,"longitude":8.682127,"reserved":0,"last_update":"0001-01-01T00:00:00Z","name_a2s":"Uncletopia | Frankfurt | 5 | All Maps","protocol":17,"map":"koth_cascade","folder":"tf","game":"Team Fortress","app_id":440,"player_count":24,"max_players":24,"Bots":0,"server_type":"Dedicated","server_os":"Linux","password":true,"vac":true,"version":"7961495","steam_id":85568392924504277,"keywords":["cp","nocrits","nodmgspread","uncletopia"],"game_id":440,"stv_port":27056,"stv_name":"Uncletopia | Frankfurt | 5 | All Maps | STV","players":[{"user_id":646,"name":"Davidox Vu","steam_id":76561198373047051,"connected_time":3661000000000,"state":"active","ping":61},{"user_id":676,"name":"starbonk","steam_id":76561198201991454,"connected_time":1293000000000,"state":"active","ping":58},{"user_id":672,"name":"ムngel☯","steam_id":76561198009888169,"connected_time":1332000000000,"state":"active","ping":62},{"user_id":677,"name":"Flying skyhigh","steam_id":76561198372971096,"connected_time":1232000000000,"state":"active","ping":61},{"user_id":696,"name":"MajorLettuce","steam_id":76561198027320758,"connected_time":424000000000,"state":"active","ping":90},{"user_id":692,"name":"proph","steam_id":76561197998803950,"connected_time":758000000000,"state":"active","ping":53},{"user_id":693,"name":"Dizzy","steam_id":76561198010192462,"connected_time":657000000000,"state":"active","ping":53},{"user_id":678,"name":"Mother","steam_id":76561198038282957,"connected_time":1219000000000,"state":"active","ping":65},{"user_id":616,"name":"pc \u003c shoe","steam_id":76561198071440081,"connected_time":7003000000000,"state":"active","ping":87},{"user_id":699,"name":"committed to the bit","steam_id":76561198181368101,"connected_time":270000000000,"state":"active","ping":45},{"user_id":680,"name":"Pyep","steam_id":76561199273799263,"connected_time":1195000000000,"state":"active","ping":52},{"user_id":682,"name":"Equipment of war","steam_id":76561198030563843,"connected_time":1093000000000,"state":"active","ping":81},{"user_id":683,"name":"Defender hunter","steam_id":76561198041458028,"connected_time":1084000000000,"state":"active","ping":118},{"user_id":700,"name":"Pan Pan","steam_id":76561199074670515,"connected_time":214000000000,"state":"active","ping":84},{"user_id":685,"name":"3D kangaroo bimbo","steam_id":76561198014345789,"connected_time":1080000000000,"state":"active","ping":63},{"user_id":704,"name":"Lerio","steam_id":76561199114134104,"connected_time":32000000000,"state":"active","ping":112},{"user_id":687,"name":"Qatuk","steam_id":76561198857696199,"connected_time":1010000000000,"state":"active","ping":56},{"user_id":701,"name":"Oreo Principle","steam_id":76561198063929217,"connected_time":179000000000,"state":"active","ping":68},{"user_id":652,"name":"BoPoe","steam_id":76561198093333882,"connected_time":3423000000000,"state":"active","ping":92},{"user_id":689,"name":"LionKing","steam_id":76561198023399545,"connected_time":917000000000,"state":"active","ping":53},{"user_id":702,"name":"kori","steam_id":76561198328824242,"connected_time":164000000000,"state":"active","ping":62},{"user_id":614,"name":"Monkey","steam_id":76561199008411791,"connected_time":7115000000000,"state":"active","ping":71},{"user_id":691,"name":"Miedzan","steam_id":76561198405250516,"connected_time":890000000000,"state":"active","ping":70},{"user_id":703,"name":"cat gaming","steam_id":76561198866194704,"connected_time":132000000000,"state":"active","ping":86}]},{"server_id":311,"name":"Uncletopia | Frankfurt | 6 | All Maps","name_short":"frk-6","host":"frk-1.de.uncletopia.com","port":27065,"enabled":true,"region":"eu","cc":"de","latitude":50.110924,"longitude":8.682127,"reserved":0,"last_update":"0001-01-01T00:00:00Z","name_a2s":"Uncletopia | Frankfurt | 6 | All Maps","protocol":17,"map":"pl_barnblitz","folder":"tf","game":"Team Fortress","app_id":440,"player_count":24,"max_players":24,"Bots":0,"server_type":"Dedicated","server_os":"Linux","password":true,"vac":true,"version":"7961495","steam_id":85568392924504278,"keywords":["nocrits","nodmgspread","payload","uncletopia"],"game_id":440,"stv_port":27066,"stv_name":"Uncletopia | Frankfurt | 6 | All Maps | STV","players":[{"user_id":774,"name":"Gordo Milanesa","steam_id":76561197995001070,"connected_time":1826000000000,"state":"active","ping":84},{"user_id":775,"name":"Hoff","steam_id":76561198138540938,"connected_time":1710000000000,"state":"active","ping":83},{"user_id":786,"name":"spik","steam_id":76561198343328308,"connected_time":1451000000000,"state":"active","ping":46},{"user_id":789,"name":"Superior Cheerios","steam_id":76561198099831573,"connected_time":969000000000,"state":"active","ping":162},{"user_id":768,"name":"tominus3","steam_id":76561199218867090,"connected_time":2473000000000,"state":"active","ping":55},{"user_id":776,"name":"despikee","steam_id":76561198029805750,"connected_time":1694000000000,"state":"active","ping":81},{"user_id":790,"name":"QualityRubbish","steam_id":76561198069645046,"connected_time":839000000000,"state":"active","ping":55},{"user_id":762,"name":"Alegz","steam_id":76561198287810139,"connected_time":3460000000000,"state":"active","ping":51},{"user_id":780,"name":"JustG","steam_id":76561198372638945,"connected_time":1657000000000,"state":"active","ping":66},{"user_id":798,"name":"[     ]RandomNub0815","steam_id":76561198055033863,"connected_time":674000000000,"state":"active","ping":55},{"user_id":788,"name":"m0⁧⁧ ⁧⁧⁧⁧m","steam_id":76561198151388694,"connected_time":1114000000000,"state":"active","ping":56},{"user_id":794,"name":"Someone","steam_id":76561199030195879,"connected_time":816000000000,"state":"active","ping":58},{"user_id":758,"name":"King Chuck's Suck and Fuck","steam_id":76561198030956814,"connected_time":3650000000000,"state":"active","ping":87},{"user_id":800,"name":"Adushka","steam_id":76561198053095808,"connected_time":298000000000,"state":"active","ping":72},{"user_id":759,"name":"Ross from F.R.I.E.N.D.S.","steam_id":76561198008511665,"connected_time":3607000000000,"state":"active","ping":59},{"user_id":799,"name":"☩ Knightz ☩","steam_id":76561198040936414,"connected_time":592000000000,"state":"active","ping":111},{"user_id":795,"name":"I I | #SaveTF2","steam_id":76561199101935057,"connected_time":810000000000,"state":"active","ping":94},{"user_id":749,"name":"Butters McKnife","steam_id":76561198007653168,"connected_time":3968000000000,"state":"active","ping":67},{"user_id":781,"name":"Pillow Full Of Spiders","steam_id":76561198249698432,"connected_time":1649000000000,"state":"active","ping":73},{"user_id":773,"name":"Carlo","steam_id":76561198276491098,"connected_time":1831000000000,"state":"active","ping":60},{"user_id":796,"name":"Nonok","steam_id":76561199480685498,"connected_time":793000000000,"state":"active","ping":64},{"user_id":783,"name":"thussu","steam_id":76561198890409949,"connected_time":1614000000000,"state":"active","ping":93},{"user_id":729,"name":"Unreliable, funny and dangerous","steam_id":76561198050709790,"connected_time":4884000000000,"state":"active","ping":102},{"user_id":797,"name":"robbie","steam_id":76561198798195287,"connected_time":776000000000,"state":"active","ping":61}]},{"server_id":23,"name":"Uncletopia | Frankfurt | 7 | Stopwatch","name_short":"frk-7","host":"frk-1.de.uncletopia.com","port":27075,"enabled":true,"region":"eu","cc":"de","latitude":50.110924,"longitude":8.682127,"reserved":0,"last_update":"0001-01-01T00:00:00Z","name_a2s":"Uncletopia | Frankfurt | 7 | Stopwatch","protocol":17,"map":"workshop/pl_vigil_rc10.ugc1266210012","folder":"tf","game":"Team Fortress","app_id":440,"player_count":0,"max_players":24,"Bots":0,"server_type":"Dedicated","server_os":"Linux","password":true,"vac":true,"version":"7961495","steam_id":85568392924742827,"keywords":["nocrits","nodmgspread","payload","uncletopia"],"game_id":440,"stv_port":27076,"stv_name":"Uncletopia | Frankfurt | 7 | Stopwatch | STV","players":null},{"server_id":24,"name":"Uncletopia | Frankfurt | 8 | Community","name_short":"frk-8","host":"frk-1.de.uncletopia.com","port":27085,"enabled":true,"region":"eu","cc":"de","latitude":50.110924,"longitude":8.682127,"reserved":0,"last_update":"0001-01-01T00:00:00Z","name_a2s":"Uncletopia | Frankfurt | 8 | Community","protocol":17,"map":"workshop/cp_villa_b19.ugc2113052569","folder":"tf","game":"Team Fortress","app_id":440,"player_count":0,"max_players":24,"Bots":0,"server_type":"Dedicated","server_os":"Linux","password":true,"vac":true,"version":"7961495","steam_id":85568392924742828,"keywords":["cp","nocrits","nodmgspread","uncletopia"],"game_id":440,"stv_port":27086,"stv_name":"Uncletopia | Frankfurt | 8 | Community | STV","players":null},{"server_id":202,"name":"Uncletopia | Hong Kong | 1 | All Maps","name_short":"hgk-1","host":"hgk-1.hk.uncletopia.com","port":27015,"enabled":true,"region":"asia","cc":"hk","latitude":22.302711,"longitude":114.177216,"reserved":0,"last_update":"0001-01-01T00:00:00Z","name_a2s":"Uncletopia | Hong Kong | 1 | All Maps","protocol":17,"map":"koth_viaduct","folder":"tf","game":"Team Fortress","app_id":440,"player_count":2,"max_players":24,"Bots":0,"server_type":"Dedicated","server_os":"Linux","password":true,"vac":true,"version":"7961495","steam_id":85568392924494504,"keywords":["cp","nocrits","nodmgspread","uncletopia"],"game_id":440,"stv_port":27016,"stv_name":"Uncletopia | Hong Kong | 1 | All Maps | STV","players":[{"user_id":626,"name":"doctor sex","steam_id":76561199473455049,"connected_time":752000000000,"state":"active","ping":237},{"user_id":624,"name":"Крысс","steam_id":76561199224142797,"connected_time":1904000000000,"state":"active","ping":337}]},{"server_id":1,"name":"Uncletopia | Los Angeles | 1 | All Maps","name_short":"lax-1","host":"lax-1.us.uncletopia.com","port":27015,"enabled":true,"region":"us-west","cc":"us","latitude":33.94279,"longitude":-118.41004,"reserved":0,"last_update":"0001-01-01T00:00:00Z","name_a2s":"Uncletopia | Los Angeles | 1 | All Maps","protocol":17,"map":"pl_rumford_event","folder":"tf","game":"Team Fortress","app_id":440,"player_count":24,"max_players":24,"Bots":0,"server_type":"Dedicated","server_os":"Linux","password":true,"vac":true,"version":"7961495","steam_id":85568392924469991,"keywords":["nocrits","nodmgspread","payload","uncletopia"],"game_id":440,"stv_port":27016,"stv_name":"Uncletopia | Los Angeles | 1 | All Maps | STV","players":[{"user_id":181,"name":"Inferbruh","steam_id":76561198381636477,"connected_time":224000000000,"state":"active","ping":130},{"user_id":166,"name":"willow","steam_id":76561198068266114,"connected_time":1688000000000,"state":"active","ping":75},{"user_id":130,"name":"elder lich joe biden","steam_id":76561198257134732,"connected_time":3214000000000,"state":"active","ping":91},{"user_id":156,"name":"based, lit, bussin' burrito","steam_id":76561198131567365,"connected_time":1867000000000,"state":"active","ping":73},{"user_id":157,"name":"green bean","steam_id":76561198113099204,"connected_time":1861000000000,"state":"active","ping":45},{"user_id":142,"name":"Wackydavo","steam_id":76561197990094209,"connected_time":2615000000000,"state":"active","ping":86},{"user_id":173,"name":"Velgrauder","steam_id":76561198848526938,"connected_time":1017000000000,"state":"active","ping":104},{"user_id":174,"name":"flo rida","steam_id":76561198226169704,"connected_time":1005000000000,"state":"active","ping":54},{"user_id":162,"name":"Micah","steam_id":76561198006837982,"connected_time":1760000000000,"state":"active","ping":131},{"user_id":153,"name":"Maid 'n' China","steam_id":76561198423392976,"connected_time":2263000000000,"state":"active","ping":57},{"user_id":180,"name":"Limp Pumpo Discography Fan Club","steam_id":76561198145748479,"connected_time":411000000000,"state":"active","ping":97},{"user_id":164,"name":"SCRΔTTΔ","steam_id":76561199062024437,"connected_time":1737000000000,"state":"active","ping":106},{"user_id":152,"name":"tsun.","steam_id":76561198079488962,"connected_time":2287000000000,"state":"active","ping":87},{"user_id":183,"name":"Timmy The Tyrant","steam_id":76561199156409732,"connected_time":165000000000,"state":"active","ping":63},{"user_id":175,"name":"d4ngerd4n","steam_id":76561198043758735,"connected_time":741000000000,"state":"active","ping":66},{"user_id":111,"name":"Quigi","steam_id":76561198144645874,"connected_time":4610000000000,"state":"active","ping":83},{"user_id":184,"name":"doodoo bing","steam_id":76561198099980149,"connected_time":159000000000,"state":"active","ping":56},{"user_id":101,"name":"One Frame","steam_id":76561198143287731,"connected_time":5437000000000,"state":"active","ping":63},{"user_id":178,"name":"Yoyos","steam_id":76561198061035695,"connected_time":504000000000,"state":"active","ping":46},{"user_id":107,"name":"heck","steam_id":76561198315694520,"connected_time":4988000000000,"state":"active","ping":45},{"user_id":171,"name":"♥Chara喜生子♥","steam_id":76561198080500920,"connected_time":1481000000000,"state":"active","ping":105},{"user_id":149,"name":"Madam Zo-Zo","steam_id":76561198136789464,"connected_time":2479000000000,"state":"active","ping":63},{"user_id":179,"name":"freeuzi$","steam_id":76561199261157737,"connected_time":430000000000,"state":"active","ping":46},{"user_id":150,"name":"K2f","steam_id":76561198049600563,"connected_time":2412000000000,"state":"active","ping":43}]},{"server_id":112,"name":"Uncletopia | Los Angeles | 2 | All Maps","name_short":"lax-2","host":"lax-1.us.uncletopia.com","port":27025,"enabled":true,"region":"us-west","cc":"us","latitude":33.94279,"longitude":-118.41004,"reserved":0,"last_update":"0001-01-01T00:00:00Z","name_a2s":"Uncletopia | Los Angeles | 2 | All Maps","protocol":17,"map":"pl_frontier_final","folder":"tf","game":"Team Fortress","app_id":440,"player_count":0,"max_players":24,"Bots":0,"server_type":"Dedicated","server_os":"Linux","password":true,"vac":true,"version":"7961495","steam_id":85568392924469992,"keywords":["nocrits","nodmgspread","payload","uncletopia"],"game_id":440,"stv_port":27026,"stv_name":"Uncletopia | Los Angeles | 2 | All Maps | STV","players":null},{"server_id":324,"name":"Uncletopia | Los Angeles | 3 | All Maps","name_short":"lax-3","host":"lax-1.us.uncletopia.com","port":27035,"enabled":true,"region":"us-west","cc":"us","latitude":33.94279,"longitude":-118.41004,"reserved":0,"last_update":"0001-01-01T00:00:00Z","name_a2s":"Uncletopia | Los Angeles | 3 | All Maps","protocol":17,"map":"koth_viaduct","folder":"tf","game":"Team Fortress","app_id":440,"player_count":0,"max_players":24,"Bots":0,"server_type":"Dedicated","server_os":"Linux","password":true,"vac":true,"version":"7961495","steam_id":85568392924510198,"keywords":["cp","nocrits","nodmgspread","uncletopia"],"game_id":440,"stv_port":27036,"stv_name":"Uncletopia | Los Angeles | 3 | All Maps | STV","players":null},{"server_id":25,"name":"Uncletopia | Los Angeles | 4 | Stopwatch","name_short":"lax-4","host":"lax-1.us.uncletopia.com","port":27045,"enabled":true,"region":"us-west","cc":"us","latitude":33.94279,"longitude":-118.41004,"reserved":0,"last_update":"0001-01-01T00:00:00Z","name_a2s":"Uncletopia | Los Angeles | 4 | Stopwatch","protocol":17,"map":"cp_snakewater_final1","folder":"tf","game":"Team Fortress","app_id":440,"player_count":0,"max_players":24,"Bots":0,"server_type":"Dedicated","server_os":"Linux","password":true,"vac":true,"version":"7961495","steam_id":85568392924510199,"keywords":["cp","nocrits","nodmgspread","uncletopia"],"game_id":440,"stv_port":27046,"stv_name":"Uncletopia | Los Angeles | 4 | Stopwatch | STV","players":null},{"server_id":11,"name":"Uncletopia | London | 1 | All Maps","name_short":"lon-1","host":"lon-1.uk.uncletopia.com","port":27015,"enabled":true,"region":"eu","cc":"gb","latitude":51.509865,"longitude":-0.118092,"reserved":0,"last_update":"0001-01-01T00:00:00Z","name_a2s":"Uncletopia | London | 1 | All Maps","protocol":17,"map":"pl_badwater","folder":"tf","game":"Team Fortress","app_id":440,"player_count":24,"max_players":24,"Bots":0,"server_type":"Dedicated","server_os":"Linux","password":true,"vac":true,"version":"7961495","steam_id":85568392924367362,"keywords":["nocrits","nodmgspread","payload","uncletopia"],"game_id":440,"stv_port":27016,"stv_name":"Uncletopia | London | 1 | All Maps | STV","players":[{"user_id":681,"name":"bowchika wowa #SlavaUkraine","steam_id":76561198159564550,"connected_time":124000000000,"state":"active","ping":79},{"user_id":646,"name":"Ville","steam_id":76561198137424821,"connected_time":3232000000000,"state":"active","ping":61},{"user_id":616,"name":"albert","steam_id":76561198353496134,"connected_time":6928000000000,"state":"active","ping":53},{"user_id":653,"name":"Zamorocian","steam_id":76561198076604017,"connected_time":2408000000000,"state":"active","ping":35},{"user_id":668,"name":"jimmy rob","steam_id":76561198204521956,"connected_time":885000000000,"state":"active","ping":82},{"user_id":677,"name":"hbivnm dont@me","steam_id":76561197996468677,"connected_time":445000000000,"state":"active","ping":60},{"user_id":674,"name":"lulebalule","steam_id":76561199211194890,"connected_time":460000000000,"state":"active","ping":84},{"user_id":649,"name":"The","steam_id":76561199378865926,"connected_time":2836000000000,"state":"active","ping":79},{"user_id":675,"name":"Honorificabilitudinitatibus","steam_id":76561198008301397,"connected_time":457000000000,"state":"active","ping":170},{"user_id":631,"name":"shooer!","steam_id":76561198110531281,"connected_time":5661000000000,"state":"active","ping":73},{"user_id":676,"name":"Minimi","steam_id":76561198873850443,"connected_time":449000000000,"state":"active","ping":51},{"user_id":584,"name":"Kahvi","steam_id":76561198723244199,"connected_time":9881000000000,"state":"active","ping":75},{"user_id":659,"name":"Marley","steam_id":76561198067663021,"connected_time":2330000000000,"state":"active","ping":31},{"user_id":655,"name":"Zekken","steam_id":76561198165941760,"connected_time":2387000000000,"state":"active","ping":45},{"user_id":673,"name":"Kphi(i)","steam_id":76561198970587061,"connected_time":479000000000,"state":"active","ping":61},{"user_id":657,"name":"Potato","steam_id":76561198115604238,"connected_time":2343000000000,"state":"active","ping":41},{"user_id":671,"name":"jimmy bob","steam_id":76561198319583692,"connected_time":484000000000,"state":"active","ping":62},{"user_id":669,"name":"Skinny101","steam_id":76561197985599360,"connected_time":623000000000,"state":"active","ping":54},{"user_id":665,"name":"ExotiiC ☯","steam_id":76561198046149866,"connected_time":1450000000000,"state":"active","ping":73},{"user_id":672,"name":"KnugenIV","steam_id":76561198127091993,"connected_time":482000000000,"state":"active","ping":57},{"user_id":680,"name":"Superiumentarius","steam_id":76561198081642249,"connected_time":352000000000,"state":"active","ping":60},{"user_id":661,"name":"owo","steam_id":76561198158209651,"connected_time":2274000000000,"state":"active","ping":61},{"user_id":679,"name":"Burpman","steam_id":76561198022897937,"connected_time":444000000000,"state":"active","ping":47},{"user_id":634,"name":"GoblinGaming","steam_id":76561198360395476,"connected_time":5323000000000,"state":"active","ping":37}]},{"server_id":114,"name":"Uncletopia | London | 2 | All Maps","name_short":"lon-2","host":"lon-1.uk.uncletopia.com","port":27025,"enabled":true,"region":"eu","cc":"gb","latitude":51.509865,"longitude":-0.118092,"reserved":0,"last_update":"0001-01-01T00:00:00Z","name_a2s":"Uncletopia | London | 2 | All Maps","protocol":17,"map":"pl_barnblitz","folder":"tf","game":"Team Fortress","app_id":440,"player_count":1,"max_players":24,"Bots":0,"server_type":"Dedicated","server_os":"Linux","password":true,"vac":true,"version":"7961495","steam_id":85568392924470941,"keywords":["nocrits","nodmgspread","payload","uncletopia"],"game_id":440,"stv_port":27026,"stv_name":"Uncletopia | London | 2 | All Maps | STV","players":[{"user_id":359,"name":"Denialman (Muted)","steam_id":76561198309182092,"connected_time":255000000000,"state":"spawning","ping":186}]},{"server_id":320,"name":"Uncletopia | London | 3 | All Maps","name_short":"lon-3","host":"lon-1.uk.uncletopia.com","port":27035,"enabled":true,"region":"eu","cc":"gb","latitude":51.509865,"longitude":-0.118092,"reserved":0,"last_update":"0001-01-01T00:00:00Z","name_a2s":"Uncletopia | London | 3 | All Maps","protocol":17,"map":"koth_cascade","folder":"tf","game":"Team Fortress","app_id":440,"player_count":0,"max_players":24,"Bots":0,"server_type":"Dedicated","server_os":"Linux","password":true,"vac":true,"version":"7961495","steam_id":85568392924510192,"keywords":["cp","nocrits","nodmgspread","uncletopia"],"game_id":440,"stv_port":27036,"stv_name":"Uncletopia | London | 3 | All Maps | STV","players":null},{"server_id":321,"name":"Uncletopia | London | 4 | All Maps","name_short":"lon-4","host":"lon-1.uk.uncletopia.com","port":27045,"enabled":true,"region":"eu","cc":"gb","latitude":51.509865,"longitude":-0.118092,"reserved":0,"last_update":"0001-01-01T00:00:00Z","name_a2s":"Uncletopia | London | 4 | All Maps","protocol":17,"map":"pl_pier","folder":"tf","game":"Team Fortress","app_id":440,"player_count":20,"max_players":24,"Bots":0,"server_type":"Dedicated","server_os":"Linux","password":true,"vac":true,"version":"7961495","steam_id":85568392924510193,"keywords":["nocrits","nodmgspread","payload","uncletopia"],"game_id":440,"stv_port":27046,"stv_name":"Uncletopia | London | 4 | All Maps | STV","players":[{"user_id":806,"name":"man of piss and shit","steam_id":76561199129509545,"connected_time":549000000000,"state":"active","ping":125},{"user_id":823,"name":"puck","steam_id":76561198121260981,"connected_time":28000000000,"state":"active","ping":45},{"user_id":815,"name":"Toere","steam_id":76561198134801880,"connected_time":234000000000,"state":"active","ping":61},{"user_id":687,"name":"Vorgor","steam_id":76561198157692022,"connected_time":8760000000000,"state":"active","ping":50},{"user_id":816,"name":"LadyMissfit","steam_id":76561198042236349,"connected_time":218000000000,"state":"active","ping":88},{"user_id":807,"name":"TomNoSocks","steam_id":76561198114071046,"connected_time":470000000000,"state":"active","ping":68},{"user_id":793,"name":"crit hit!","steam_id":76561198112693639,"connected_time":1790000000000,"state":"active","ping":57},{"user_id":809,"name":"Xeno","steam_id":76561198975556646,"connected_time":398000000000,"state":"active","ping":56},{"user_id":810,"name":"robindarozzer","steam_id":76561198118198074,"connected_time":391000000000,"state":"active","ping":55},{"user_id":817,"name":"Beeg","steam_id":76561198152269182,"connected_time":214000000000,"state":"active","ping":57},{"user_id":811,"name":"Unemployed Gaming","steam_id":76561198982674420,"connected_time":381000000000,"state":"active","ping":49},{"user_id":812,"name":"JarvoH","steam_id":76561198322804182,"connected_time":350000000000,"state":"active","ping":55},{"user_id":759,"name":"↯","steam_id":76561198055389492,"connected_time":4539000000000,"state":"active","ping":39},{"user_id":813,"name":"dingledong","steam_id":76561198287096215,"connected_time":348000000000,"state":"active","ping":105},{"user_id":818,"name":"Hans The Orange","steam_id":76561198082167183,"connected_time":167000000000,"state":"active","ping":74},{"user_id":803,"name":"Skatnaset","steam_id":76561198298457353,"connected_time":810000000000,"state":"active","ping":74},{"user_id":820,"name":"Mr. Hunts","steam_id":76561197981910397,"connected_time":60000000000,"state":"active","ping":66},{"user_id":821,"name":"Atomix","steam_id":76561198127352880,"connected_time":50000000000,"state":"active","ping":50},{"user_id":822,"name":"Lewylow","steam_id":76561198005425686,"connected_time":48000000000,"state":"active","ping":56},{"user_id":824,"name":"wG toemas_","steam_id":76561198156188209,"connected_time":23000000000,"state":"active","ping":46}]},{"server_id":21,"name":"Uncletopia | London | 5 | All Maps","name_short":"lon-5","host":"lon-1.uk.uncletopia.com","port":27055,"enabled":true,"region":"eu","cc":"gb","latitude":51.509865,"longitude":-0.118092,"reserved":0,"last_update":"0001-01-01T00:00:00Z","name_a2s":"Uncletopia | London | 5 | All Maps","protocol":17,"map":"pl_upward","folder":"tf","game":"Team Fortress","app_id":440,"player_count":24,"max_players":24,"Bots":0,"server_type":"Dedicated","server_os":"Linux","password":true,"vac":true,"version":"7961495","steam_id":85568392924742829,"keywords":["nocrits","nodmgspread","payload","uncletopia"],"game_id":440,"stv_port":27056,"stv_name":"Uncletopia | London | 5 | All Maps | STV","players":[{"user_id":550,"name":"gapeboi farti","steam_id":76561199121999431,"connected_time":738000000000,"state":"active","ping":71},{"user_id":558,"name":"BELADIT","steam_id":76561198011911501,"connected_time":519000000000,"state":"active","ping":76},{"user_id":484,"name":"Demicore","steam_id":76561197976922136,"connected_time":6441000000000,"state":"active","ping":70},{"user_id":562,"name":"Odin","steam_id":76561198087800030,"connected_time":334000000000,"state":"active","ping":30},{"user_id":535,"name":"angry russian man","steam_id":76561198386712795,"connected_time":2380000000000,"state":"active","ping":52},{"user_id":555,"name":"Bread","steam_id":76561198065231771,"connected_time":560000000000,"state":"active","ping":79},{"user_id":536,"name":"Brage","steam_id":76561198111623044,"connected_time":2318000000000,"state":"active","ping":89},{"user_id":552,"name":"ThiccSkin Detective","steam_id":76561198989449047,"connected_time":605000000000,"state":"active","ping":127},{"user_id":461,"name":"Arturias","steam_id":76561198188720263,"connected_time":7196000000000,"state":"active","ping":52},{"user_id":538,"name":"The Twice-Gorped Morp","steam_id":76561198052636352,"connected_time":2239000000000,"state":"active","ping":46},{"user_id":475,"name":"Web Surfer","steam_id":76561198060307235,"connected_time":6723000000000,"state":"active","ping":64},{"user_id":464,"name":"Nickbro101","steam_id":76561198044271692,"connected_time":7121000000000,"state":"active","ping":47},{"user_id":528,"name":"After8","steam_id":76561198090750865,"connected_time":3017000000000,"state":"active","ping":76},{"user_id":483,"name":"(MAC) [BN] Crazyking","steam_id":76561198001668616,"connected_time":6481000000000,"state":"active","ping":61},{"user_id":551,"name":"Paulo Doutor","steam_id":76561198168674032,"connected_time":735000000000,"state":"active","ping":82},{"user_id":542,"name":"Jimmy Poppadopolos","steam_id":76561198044825612,"connected_time":1970000000000,"state":"active","ping":58},{"user_id":540,"name":"randompixel","steam_id":76561198003941207,"connected_time":2157000000000,"state":"active","ping":58},{"user_id":556,"name":"tjuvjakt","steam_id":76561198214848887,"connected_time":559000000000,"state":"active","ping":63},{"user_id":559,"name":"RyInc","steam_id":76561198874261643,"connected_time":508000000000,"state":"active","ping":114},{"user_id":561,"name":"The Dumbass","steam_id":76561198833392443,"connected_time":347000000000,"state":"active","ping":74},{"user_id":531,"name":"JayTheNoob247_","steam_id":76561199348803437,"connected_time":2835000000000,"state":"active","ping":127},{"user_id":560,"name":"JohnTraveltime","steam_id":76561199244281754,"connected_time":495000000000,"state":"active","ping":78},{"user_id":518,"name":"Niyaah","steam_id":76561198110209191,"connected_time":3449000000000,"state":"active","ping":59},{"user_id":564,"name":"slushie","steam_id":76561199031270716,"connected_time":292000000000,"state":"active","ping":178}]},{"server_id":22,"name":"Uncletopia | London | 6 | All Maps","name_short":"lon-6","host":"lon-1.uk.uncletopia.com","port":27065,"enabled":true,"region":"eu","cc":"gb","latitude":51.509865,"longitude":-0.118092,"reserved":0,"last_update":"0001-01-01T00:00:00Z","name_a2s":"Uncletopia | London | 6 | All Maps","protocol":17,"map":"pl_badwater","folder":"tf","game":"Team Fortress","app_id":440,"player_count":24,"max_players":24,"Bots":0,"server_type":"Dedicated","server_os":"Linux","password":true,"vac":true,"version":"7961495","steam_id":85568392924742830,"keywords":["nocrits","nodmgspread","payload","uncletopia"],"game_id":440,"stv_port":27066,"stv_name":"Uncletopia | London | 6 | All Maps | STV","players":[{"user_id":239,"name":"Quartzshard","steam_id":76561198041527954,"connected_time":11087000000000,"state":"active","ping":36},{"user_id":391,"name":"wardex","steam_id":76561198058776834,"connected_time":534000000000,"state":"active","ping":54},{"user_id":376,"name":"Pew","steam_id":76561198425388109,"connected_time":1104000000000,"state":"active","ping":64},{"user_id":375,"name":"JosepXXL","steam_id":76561198407124695,"connected_time":1158000000000,"state":"active","ping":82},{"user_id":396,"name":"Omyskull","steam_id":76561198131711758,"connected_time":327000000000,"state":"active","ping":68},{"user_id":395,"name":"PSQS","steam_id":76561198185321557,"connected_time":334000000000,"state":"active","ping":53},{"user_id":369,"name":"Ninjeg","steam_id":76561197995307947,"connected_time":1925000000000,"state":"active","ping":68},{"user_id":385,"name":"FJADL","steam_id":76561198237008214,"connected_time":690000000000,"state":"active","ping":74},{"user_id":393,"name":"xiiski","steam_id":76561198152387747,"connected_time":493000000000,"state":"active","ping":104},{"user_id":381,"name":"frenchie","steam_id":76561198178298931,"connected_time":963000000000,"state":"active","ping":36},{"user_id":387,"name":"Ika","steam_id":76561198039208044,"connected_time":674000000000,"state":"active","ping":73},{"user_id":374,"name":"[T]aKer","steam_id":76561198001778013,"connected_time":1177000000000,"state":"active","ping":47},{"user_id":401,"name":"Fishgun","steam_id":76561198449460767,"connected_time":93000000000,"state":"active","ping":99},{"user_id":360,"name":"Medium flash","steam_id":76561198173218318,"connected_time":2184000000000,"state":"active","ping":49},{"user_id":403,"name":"Chicken pot pie","steam_id":76561198084997090,"connected_time":69000000000,"state":"active","ping":31},{"user_id":405,"name":"[HΞЯR] Hullehulleopa","steam_id":76561197989605879,"connected_time":59000000000,"state":"active","ping":71},{"user_id":398,"name":"LOBZIK","steam_id":76561198114830120,"connected_time":268000000000,"state":"active","ping":87},{"user_id":372,"name":"limbicsystem","steam_id":76561198025612680,"connected_time":1357000000000,"state":"active","ping":61},{"user_id":400,"name":"AhYesItsLarry","steam_id":76561198113895325,"connected_time":226000000000,"state":"active","ping":87},{"user_id":366,"name":"MustangCricket","steam_id":76561197963408317,"connected_time":2092000000000,"state":"active","ping":64},{"user_id":320,"name":"powej","steam_id":76561198056381418,"connected_time":5386000000000,"state":"active","ping":43},{"user_id":383,"name":"Slav_monke","steam_id":76561199243657026,"connected_time":916000000000,"state":"active","ping":131},{"user_id":406,"name":"Kocour Provazový","steam_id":76561198148038398,"connected_time":42000000000,"state":"active","ping":57},{"user_id":407,"name":"Muzza Berton","steam_id":76561198162162816,"connected_time":39000000000,"state":"active","ping":54}]},{"server_id":40,"name":"Uncletopia | London | 7 | Stopwatch","name_short":"lon-7","host":"lon-1.uk.uncletopia.com","port":27075,"enabled":true,"region":"eu","cc":"gb","latitude":51.509865,"longitude":-0.118092,"reserved":0,"last_update":"0001-01-01T00:00:00Z","name_a2s":"Uncletopia | London | 7 | Stopwatch","protocol":17,"map":"koth_highpass","folder":"tf","game":"Team Fortress","app_id":440,"player_count":0,"max_players":24,"Bots":0,"server_type":"Dedicated","server_os":"Linux","password":true,"vac":true,"version":"7961495","steam_id":85568392924964314,"keywords":["cp","nocrits","nodmgspread","uncletopia"],"game_id":440,"stv_port":27076,"stv_name":"Uncletopia | London | 7 | Stopwatch | STV","players":null},{"server_id":41,"name":"Uncletopia | London | 8 | Community","name_short":"lon-8","host":"lon-1.uk.uncletopia.com","port":27085,"enabled":true,"region":"eu","cc":"gb","latitude":51.509865,"longitude":-0.118092,"reserved":0,"last_update":"0001-01-01T00:00:00Z","name_a2s":"Uncletopia | London | 8 | Community","protocol":17,"map":"workshop/pl_cactuscanyon_redux_final2.ugc2579644293","folder":"tf","game":"Team Fortress","app_id":440,"player_count":0,"max_players":24,"Bots":0,"server_type":"Dedicated","server_os":"Linux","password":true,"vac":true,"version":"7961495","steam_id":85568392924964315,"keywords":["nocrits","nodmgspread","payload","uncletopia"],"game_id":440,"stv_port":27086,"stv_name":"Uncletopia | London | 8 | Community | STV","players":null},{"server_id":300,"name":"Uncletopia | Montréal | 1 | One Thousand Uncles","name_short":"mtl-1","host":"mtl-1.ca.uncletopia.com","port":27015,"enabled":true,"region":"us-east","cc":"ca","latitude":45.50889,"longitude":-73.56167,"reserved":0,"last_update":"0001-01-01T00:00:00Z","name_a2s":"","protocol":0,"map":"","folder":"","game":"","app_id":0,"player_count":12,"max_players":0,"Bots":0,"server_type":"","server_os":"","password":false,"vac":false,"version":"","steam_id":0,"keywords":null,"game_id":0,"stv_port":0,"stv_name":"","players":[{"user_id":222,"name":"Sinta","steam_id":76561198098398841,"connected_time":50000000000,"state":"active","ping":55},{"user_id":214,"name":"Yourmomsocks","steam_id":76561199470900551,"connected_time":1060000000000,"state":"active","ping":40},{"user_id":190,"name":"duck 🦆","steam_id":76561197998344127,"connected_time":3338000000000,"state":"active","ping":96},{"user_id":191,"name":"Rhutebeer","steam_id":76561198018302761,"connected_time":2574000000000,"state":"active","ping":103},{"user_id":215,"name":"matrix","steam_id":76561199123064014,"connected_time":992000000000,"state":"active","ping":29},{"user_id":223,"name":"Astrocards","steam_id":76561199184079830,"connected_time":40000000000,"state":"active","ping":58},{"user_id":212,"name":"sohail1905","steam_id":76561198796592666,"connected_time":1372000000000,"state":"active","ping":118},{"user_id":216,"name":"Watong","steam_id":76561199074388745,"connected_time":634000000000,"state":"active","ping":153},{"user_id":220,"name":"Weednose418","steam_id":76561198174818086,"connected_time":295000000000,"state":"active","ping":56},{"user_id":194,"name":"razzy","steam_id":76561198149124090,"connected_time":1972000000000,"state":"active","ping":60},{"user_id":221,"name":"EggMan","steam_id":76561199086714946,"connected_time":282000000000,"state":"active","ping":73},{"user_id":219,"name":"DrMisteryous2","steam_id":76561198336307012,"connected_time":436000000000,"state":"active","ping":174}]},{"server_id":301,"name":"Uncletopia | Montréal | 2 | One Thousand Uncles","name_short":"mtl-2","host":"mtl-1.ca.uncletopia.com","port":27025,"enabled":true,"region":"us-east","cc":"ca","latitude":45.50889,"longitude":-73.56167,"reserved":0,"last_update":"0001-01-01T00:00:00Z","name_a2s":"","protocol":0,"map":"","folder":"","game":"","app_id":0,"player_count":0,"max_players":0,"Bots":0,"server_type":"","server_os":"","password":false,"vac":false,"version":"","steam_id":0,"keywords":null,"game_id":0,"stv_port":0,"stv_name":"","players":null},{"server_id":302,"name":"Uncletopia | Montréal | 3 | One Thousand Uncles","name_short":"mtl-3","host":"mtl-1.ca.uncletopia.com","port":27035,"enabled":true,"region":"us-east","cc":"ca","latitude":45.50889,"longitude":-73.56167,"reserved":0,"last_update":"0001-01-01T00:00:00Z","name_a2s":"","protocol":0,"map":"","folder":"","game":"","app_id":0,"player_count":0,"max_players":0,"Bots":0,"server_type":"","server_os":"","password":false,"vac":false,"version":"","steam_id":0,"keywords":null,"game_id":0,"stv_port":0,"stv_name":"","players":null},{"server_id":13,"name":"Uncletopia | New York City | 1 | All Maps","name_short":"nyc-1","host":"nyc-1.us.uncletopia.com","port":27015,"enabled":true,"region":"us-east","cc":"us","latitude":40.73061,"longitude":-73.93524,"reserved":0,"last_update":"0001-01-01T00:00:00Z","name_a2s":"Uncletopia | New York City | 1 | All Maps","protocol":17,"map":"cp_dustbowl","folder":"tf","game":"Team Fortress","app_id":440,"player_count":24,"max_players":24,"Bots":0,"server_type":"Dedicated","server_os":"Linux","password":true,"vac":true,"version":"7961495","steam_id":85568392924469993,"keywords":["cp","nocrits","nodmgspread","uncletopia"],"game_id":440,"stv_port":27016,"stv_name":"Uncletopia | New York City | 1 | All Maps | STV","players":[{"user_id":470,"name":"mtmounts","steam_id":76561198338890132,"connected_time":2685000000000,"state":"active","ping":59},{"user_id":466,"name":"Drake the Pixel","steam_id":76561198131824401,"connected_time":2755000000000,"state":"active","ping":33},{"user_id":501,"name":"crabapples","steam_id":76561198075818655,"connected_time":533000000000,"state":"active","ping":64},{"user_id":485,"name":"Bacchus","steam_id":76561198113244990,"connected_time":1600000000000,"state":"active","ping":73},{"user_id":451,"name":"Fish Fisherman","steam_id":76561198018656022,"connected_time":3820000000000,"state":"active","ping":56},{"user_id":490,"name":"Strike Man","steam_id":76561199115521349,"connected_time":1154000000000,"state":"active","ping":61},{"user_id":488,"name":"Queso2469","steam_id":76561197993024580,"connected_time":1464000000000,"state":"active","ping":43},{"user_id":491,"name":"hot mama pickle","steam_id":76561199063296834,"connected_time":1139000000000,"state":"active","ping":79},{"user_id":492,"name":"BeefClapper420","steam_id":76561198080892634,"connected_time":1125000000000,"state":"active","ping":64},{"user_id":493,"name":"Oh wow.","steam_id":76561199039754846,"connected_time":1112000000000,"state":"active","ping":137},{"user_id":503,"name":"Boot Mcstink","steam_id":76561199226873917,"connected_time":288000000000,"state":"active","ping":85},{"user_id":471,"name":"top 10 water","steam_id":76561198072087574,"connected_time":2684000000000,"state":"active","ping":38},{"user_id":472,"name":"marcus tillius","steam_id":76561197982832274,"connected_time":2673000000000,"state":"active","ping":72},{"user_id":505,"name":"plutonium isotope","steam_id":76561198319442494,"connected_time":42000000000,"state":"active","ping":115},{"user_id":494,"name":"Spectacular Salad","steam_id":76561198073104957,"connected_time":1076000000000,"state":"active","ping":114},{"user_id":477,"name":"peniblor","steam_id":76561198307923786,"connected_time":2062000000000,"state":"active","ping":116},{"user_id":418,"name":"Neacrock","steam_id":76561199178338856,"connected_time":5568000000000,"state":"active","ping":57},{"user_id":484,"name":"WhyToAll","steam_id":76561199443373554,"connected_time":1810000000000,"state":"active","ping":91},{"user_id":456,"name":"BeerPowder","steam_id":76561198058129400,"connected_time":3580000000000,"state":"active","ping":53},{"user_id":504,"name":"Mr. Hankey","steam_id":76561198872852200,"connected_time":194000000000,"state":"active","ping":140},{"user_id":497,"name":"level 5 sentry","steam_id":76561199167176376,"connected_time":1021000000000,"state":"active","ping":88},{"user_id":500,"name":"Equinox","steam_id":76561198274279754,"connected_time":799000000000,"state":"active","ping":75},{"user_id":507,"name":"nethersome","steam_id":76561198892225148,"connected_time":9000000000,"state":"active","ping":130},{"user_id":499,"name":"Wahooka","steam_id":76561197962240925,"connected_time":862000000000,"state":"active","ping":47}]},{"server_id":14,"name":"Uncletopia | New York City | 2 | All Maps","name_short":"nyc-2","host":"nyc-1.us.uncletopia.com","port":27025,"enabled":true,"region":"us-east","cc":"us","latitude":40.73061,"longitude":-73.93524,"reserved":0,"last_update":"0001-01-01T00:00:00Z","name_a2s":"Uncletopia | New York City | 2 | All Maps","protocol":17,"map":"cp_process_final","folder":"tf","game":"Team Fortress","app_id":440,"player_count":24,"max_players":24,"Bots":0,"server_type":"Dedicated","server_os":"Linux","password":true,"vac":true,"version":"7961495","steam_id":85568392924469994,"keywords":["cp","nocrits","nodmgspread","uncletopia"],"game_id":440,"stv_port":27026,"stv_name":"Uncletopia | New York City | 2 | All Maps | STV","players":[{"user_id":338,"name":"Alejandro","steam_id":76561197970051493,"connected_time":3293000000000,"state":"active","ping":127},{"user_id":387,"name":"Poopies","steam_id":76561198003345470,"connected_time":415000000000,"state":"active","ping":67},{"user_id":333,"name":"nav","steam_id":76561198872608266,"connected_time":3444000000000,"state":"active","ping":59},{"user_id":375,"name":"a7om1k","steam_id":76561198048174130,"connected_time":1446000000000,"state":"active","ping":90},{"user_id":342,"name":"Fog_Ballistic","steam_id":76561199074395345,"connected_time":2562000000000,"state":"active","ping":77},{"user_id":386,"name":"patience","steam_id":76561198003299413,"connected_time":437000000000,"state":"active","ping":64},{"user_id":364,"name":"Piss God","steam_id":76561198090504334,"connected_time":1859000000000,"state":"active","ping":60},{"user_id":389,"name":"Knart","steam_id":76561198053299594,"connected_time":303000000000,"state":"active","ping":74},{"user_id":351,"name":"friendly salamander","steam_id":76561198888219116,"connected_time":2443000000000,"state":"active","ping":54},{"user_id":345,"name":"Put A Fork In The Microwave","steam_id":76561199449924929,"connected_time":2532000000000,"state":"active","ping":119},{"user_id":347,"name":"Alex","steam_id":76561198829752579,"connected_time":2525000000000,"state":"active","ping":71},{"user_id":379,"name":"ndvr (femboy (REAL))","steam_id":76561199379200102,"connected_time":791000000000,"state":"active","ping":45},{"user_id":390,"name":"Taskrabbits","steam_id":76561198366682546,"connected_time":21000000000,"state":"active","ping":117},{"user_id":384,"name":"Aaron","steam_id":76561198035433264,"connected_time":480000000000,"state":"active","ping":62},{"user_id":370,"name":"Mr_MagicMan","steam_id":76561198372713689,"connected_time":1531000000000,"state":"active","ping":110},{"user_id":388,"name":"Salam Ibn'dur","steam_id":76561198155872356,"connected_time":378000000000,"state":"active","ping":32},{"user_id":371,"name":"AprilB0rnSt0rm","steam_id":76561199135214335,"connected_time":1525000000000,"state":"active","ping":74},{"user_id":336,"name":"ninety9dragonfly","steam_id":76561198363406983,"connected_time":3317000000000,"state":"active","ping":127},{"user_id":383,"name":"Goat","steam_id":76561198068447650,"connected_time":489000000000,"state":"active","ping":96},{"user_id":374,"name":"milk","steam_id":76561198813251405,"connected_time":1477000000000,"state":"active","ping":53},{"user_id":377,"name":"Presto Squesto","steam_id":76561198181269558,"connected_time":1335000000000,"state":"active","ping":76},{"user_id":385,"name":"Legit_Jaxer","steam_id":76561198172234053,"connected_time":471000000000,"state":"active","ping":138},{"user_id":356,"name":"Pablo Cornfield","steam_id":76561198154279297,"connected_time":2288000000000,"state":"active","ping":70},{"user_id":359,"name":"Robert","steam_id":76561198154286864,"connected_time":2164000000000,"state":"active","ping":71}]},{"server_id":15,"name":"Uncletopia | New York City | 3 | Stopwatch","name_short":"nyc-3","host":"nyc-1.us.uncletopia.com","port":27035,"enabled":true,"region":"us-east","cc":"us","latitude":40.73061,"longitude":-73.93524,"reserved":0,"last_update":"0001-01-01T00:00:00Z","name_a2s":"Uncletopia | New York City | 3 | Stopwatch","protocol":17,"map":"pl_snowycoast","folder":"tf","game":"Team Fortress","app_id":440,"player_count":0,"max_players":24,"Bots":0,"server_type":"Dedicated","server_os":"Linux","password":true,"vac":true,"version":"7961495","steam_id":85568392924742820,"keywords":["nocrits","nodmgspread","payload","uncletopia"],"game_id":440,"stv_port":27036,"stv_name":"Uncletopia | New York City | 3 | Stopwatch | STV","players":null},{"server_id":16,"name":"Uncletopia | New York City | 4 | Community","name_short":"nyc-4","host":"nyc-1.us.uncletopia.com","port":27045,"enabled":true,"region":"us-east","cc":"us","latitude":40.73061,"longitude":-73.93524,"reserved":0,"last_update":"0001-01-01T00:00:00Z","name_a2s":"Uncletopia | New York City | 4 | Community","protocol":17,"map":"workshop/koth_product_final.ugc454272353","folder":"tf","game":"Team Fortress","app_id":440,"player_count":0,"max_players":24,"Bots":0,"server_type":"Dedicated","server_os":"Linux","password":true,"vac":true,"version":"7961495","steam_id":85568392924742821,"keywords":["cp","nocrits","nodmgspread","uncletopia"],"game_id":440,"stv_port":27046,"stv_name":"Uncletopia | New York City | 4 | Community | STV","players":null},{"server_id":142,"name":"Uncletopia | São Paulo | 1 | All Maps","name_short":"sao-1","host":"sao-1.br.uncletopia.com","port":27015,"enabled":true,"region":"sa","cc":"br","latitude":-23.533773,"longitude":-46.62529,"reserved":0,"last_update":"0001-01-01T00:00:00Z","name_a2s":"Uncletopia | São Paulo | 1 | All Maps","protocol":17,"map":"koth_viaduct","folder":"tf","game":"Team Fortress","app_id":440,"player_count":0,"max_players":24,"Bots":0,"server_type":"Dedicated","server_os":"Linux","password":true,"vac":true,"version":"7961495","steam_id":85568392924469996,"keywords":["cp","nocrits","nodmgspread","uncletopia"],"game_id":440,"stv_port":27016,"stv_name":"Uncletopia | São Paulo | 1 | All Maps | STV","players":null},{"server_id":143,"name":"Uncletopia | São Paulo | 2 | Community","name_short":"sao-2","host":"sao-2.br.uncletopia.com","port":27015,"enabled":true,"region":"sa","cc":"br","latitude":-23.533773,"longitude":-46.62529,"reserved":0,"last_update":"0001-01-01T00:00:00Z","name_a2s":"Uncletopia | São Paulo | 2 | Community","protocol":17,"map":"workshop/pl_highwood_b13.ugc1769496557","folder":"tf","game":"Team Fortress","app_id":440,"player_count":0,"max_players":24,"Bots":0,"server_type":"Dedicated","server_os":"Linux","password":true,"vac":true,"version":"7961495","steam_id":85568392924485349,"keywords":["nocrits","nodmgspread","payload","uncletopia"],"game_id":440,"stv_port":27016,"stv_name":"Uncletopia | São Paulo | 2 | Community | STV","players":null},{"server_id":7,"name":"Uncletopia | Seattle | 1 | All Maps","name_short":"sea-1","host":"sea-1.us.uncletopia.com","port":27015,"enabled":true,"region":"us-west","cc":"us","latitude":47.608013,"longitude":-122.33517,"reserved":0,"last_update":"0001-01-01T00:00:00Z","name_a2s":"Uncletopia | Seattle | 1 | All Maps","protocol":17,"map":"plr_hightower","folder":"tf","game":"Team Fortress","app_id":440,"player_count":25,"max_players":24,"Bots":0,"server_type":"Dedicated","server_os":"Linux","password":true,"vac":true,"version":"7961495","steam_id":85568392924469997,"keywords":["nocrits","nodmgspread","payload","uncletopia"],"game_id":440,"stv_port":27016,"stv_name":"Uncletopia | Seattle | 1 | All Maps | STV","players":[{"user_id":67,"name":"Master Of Whales","steam_id":76561198349104889,"connected_time":3365000000000,"state":"active","ping":67},{"user_id":82,"name":"zeplinnn","steam_id":76561198301300987,"connected_time":1983000000000,"state":"active","ping":89},{"user_id":100,"name":"Kohuh","steam_id":76561198861737544,"connected_time":353000000000,"state":"active","ping":109},{"user_id":97,"name":"Arzee","steam_id":76561198857237473,"connected_time":394000000000,"state":"active","ping":47},{"user_id":68,"name":"rat who can kickflip","steam_id":76561198073620027,"connected_time":3349000000000,"state":"active","ping":43},{"user_id":101,"name":"Doppelgänger","steam_id":76561198036730436,"connected_time":349000000000,"state":"active","ping":70},{"user_id":96,"name":"trackpad gaming | f2p","steam_id":76561198840414371,"connected_time":441000000000,"state":"active","ping":52},{"user_id":90,"name":"lynks disease no sound","steam_id":76561198043465434,"connected_time":1554000000000,"state":"active","ping":74},{"user_id":54,"name":"havarti gaming","steam_id":76561198069895678,"connected_time":5084000000000,"state":"active","ping":62},{"user_id":104,"name":"Unlimited_Trees","steam_id":76561198299141443,"connected_time":129000000000,"state":"active","ping":69},{"user_id":79,"name":"Skoad","steam_id":76561198104650528,"connected_time":2412000000000,"state":"active","ping":76},{"user_id":102,"name":"Dob16","steam_id":76561198176738623,"connected_time":265000000000,"state":"active","ping":71},{"user_id":35,"name":"«Dᵃʳᵏ.,,.Tᵉᵐᵖ»","steam_id":76561198018185884,"connected_time":5528000000000,"state":"active","ping":39},{"user_id":103,"name":"bro pyro chill with the taunts","steam_id":76561199169445769,"connected_time":240000000000,"state":"connecting","ping":0},{"user_id":80,"name":"Noah1k","steam_id":76561199428633514,"connected_time":2239000000000,"state":"active","ping":58},{"user_id":94,"name":"Perfume Department","steam_id":76561198128299594,"connected_time":1249000000000,"state":"active","ping":87},{"user_id":87,"name":"SGT. HurricanneGrims","steam_id":76561198991364252,"connected_time":1746000000000,"state":"active","ping":105},{"user_id":105,"name":"Plums","steam_id":76561198319179133,"connected_time":119000000000,"state":"active","ping":101},{"user_id":78,"name":"Hog Rider","steam_id":76561198275999294,"connected_time":2433000000000,"state":"active","ping":57},{"user_id":74,"name":"Nom Skirrett","steam_id":76561198014600788,"connected_time":2822000000000,"state":"active","ping":60},{"user_id":81,"name":"Lemur","steam_id":76561198056693287,"connected_time":2190000000000,"state":"active","ping":40},{"user_id":92,"name":"Streamline","steam_id":76561198031098638,"connected_time":1360000000000,"state":"active","ping":103},{"user_id":49,"name":"Chimp Peen's Revunge","steam_id":76561198165778514,"connected_time":5267000000000,"state":"active","ping":75},{"user_id":91,"name":"vfa","steam_id":76561198055729118,"connected_time":1517000000000,"state":"active","ping":62},{"user_id":98,"name":"Cosmo","steam_id":76561199085643398,"connected_time":394000000000,"state":"active","ping":81}]},{"server_id":119,"name":"Uncletopia | Seattle | 2 | All Maps","name_short":"sea-2","host":"sea-1.us.uncletopia.com","port":27025,"enabled":true,"region":"us-west","cc":"us","latitude":47.608013,"longitude":-122.33517,"reserved":0,"last_update":"0001-01-01T00:00:00Z","name_a2s":"Uncletopia | Seattle | 2 | All Maps","protocol":17,"map":"cp_mountainlab","folder":"tf","game":"Team Fortress","app_id":440,"player_count":23,"max_players":24,"Bots":0,"server_type":"Dedicated","server_os":"Linux","password":true,"vac":true,"version":"7961495","steam_id":85568392924469998,"keywords":["cp","nocrits","nodmgspread","uncletopia"],"game_id":440,"stv_port":27026,"stv_name":"Uncletopia | Seattle | 2 | All Maps | STV","players":[{"user_id":513,"name":"goofy goober","steam_id":76561199024079388,"connected_time":716000000000,"state":"active","ping":45},{"user_id":495,"name":"nat","steam_id":76561198179923093,"connected_time":1328000000000,"state":"active","ping":89},{"user_id":519,"name":"Greskrendtregk","steam_id":76561197969553142,"connected_time":305000000000,"state":"active","ping":54},{"user_id":499,"name":"enrique","steam_id":76561198381885211,"connected_time":1139000000000,"state":"active","ping":58},{"user_id":493,"name":"doughboy","steam_id":76561198219012928,"connected_time":1417000000000,"state":"active","ping":65},{"user_id":520,"name":"the rat gets the cheese","steam_id":76561199077027954,"connected_time":298000000000,"state":"active","ping":74},{"user_id":505,"name":"Shibuya 808","steam_id":76561198040462757,"connected_time":895000000000,"state":"active","ping":123},{"user_id":498,"name":"SlitherDoodle","steam_id":76561198000275473,"connected_time":1248000000000,"state":"active","ping":80},{"user_id":514,"name":"Wheaty","steam_id":76561198003553412,"connected_time":517000000000,"state":"active","ping":55},{"user_id":497,"name":"Crafty","steam_id":76561199217624073,"connected_time":1285000000000,"state":"active","ping":66},{"user_id":500,"name":"Micc","steam_id":76561199447744486,"connected_time":1099000000000,"state":"active","ping":69},{"user_id":506,"name":"Kelladrin","steam_id":76561198040727880,"connected_time":886000000000,"state":"active","ping":59},{"user_id":477,"name":"Petrivus","steam_id":76561198202152453,"connected_time":2930000000000,"state":"active","ping":37},{"user_id":502,"name":"FlexTape","steam_id":76561198871834867,"connected_time":1075000000000,"state":"active","ping":85},{"user_id":517,"name":"MoonDragon","steam_id":76561198113976591,"connected_time":331000000000,"state":"active","ping":72},{"user_id":503,"name":"Cowboyfos","steam_id":76561199055740230,"connected_time":1045000000000,"state":"active","ping":65},{"user_id":504,"name":"Amateur Glaswegian","steam_id":76561198030851956,"connected_time":1044000000000,"state":"active","ping":48},{"user_id":518,"name":"wmjledger","steam_id":76561198443046861,"connected_time":326000000000,"state":"active","ping":48},{"user_id":507,"name":"V A R M I N T","steam_id":76561198417042268,"connected_time":877000000000,"state":"active","ping":47},{"user_id":508,"name":"mrappledumb","steam_id":76561199133590774,"connected_time":838000000000,"state":"active","ping":118},{"user_id":509,"name":"Sock","steam_id":76561198315420000,"connected_time":830000000000,"state":"active","ping":126},{"user_id":521,"name":"DiegoVal12","steam_id":76561198408509079,"connected_time":292000000000,"state":"active","ping":80},{"user_id":523,"name":"cachisbachis","steam_id":76561198272001404,"connected_time":205000000000,"state":"active","ping":77}]},{"server_id":406,"name":"Uncletopia | Seattle | 3 | Stopwatch","name_short":"sea-3","host":"sea-1.us.uncletopia.com","port":27035,"enabled":true,"region":"us-west","cc":"us","latitude":47.608013,"longitude":-122.33517,"reserved":0,"last_update":"0001-01-01T00:00:00Z","name_a2s":"Uncletopia | Seattle | 3 | Stopwatch","protocol":17,"map":"pl_pier","folder":"tf","game":"Team Fortress","app_id":440,"player_count":4,"max_players":24,"Bots":0,"server_type":"Dedicated","server_os":"Linux","password":true,"vac":true,"version":"7961495","steam_id":85568392924515217,"keywords":["nocrits","nodmgspread","payload","uncletopia"],"game_id":440,"stv_port":27036,"stv_name":"Uncletopia | Seattle | 3 | Stopwatch | STV","players":[{"user_id":4,"name":"DIRTSMOKER3000","steam_id":76561198044782657,"connected_time":741000000000,"state":"active","ping":42},{"user_id":5,"name":"Vagrant","steam_id":76561198242536886,"connected_time":497000000000,"state":"active","ping":76},{"user_id":6,"name":"feeple murphy","steam_id":76561199069482101,"connected_time":356000000000,"state":"active","ping":41},{"user_id":10,"name":"Shrek Wazowski","steam_id":76561198811003850,"connected_time":182000000000,"state":"active","ping":60}]},{"server_id":17,"name":"Uncletopia | San Francisco | 1 | All Maps","name_short":"sfo-1","host":"sfo-1.us.uncletopia.com","port":27015,"enabled":true,"region":"us-west","cc":"us","latitude":37.77397,"longitude":-122.4313,"reserved":0,"last_update":"0001-01-01T00:00:00Z","name_a2s":"Uncletopia | San Francisco | 1 | All Maps","protocol":17,"map":"koth_cascade","folder":"tf","game":"Team Fortress","app_id":440,"player_count":0,"max_players":24,"Bots":0,"server_type":"Dedicated","server_os":"Linux","password":true,"vac":true,"version":"7961495","steam_id":85568392924469999,"keywords":["cp","nocrits","nodmgspread","uncletopia"],"game_id":440,"stv_port":27016,"stv_name":"Uncletopia | San Francisco | 1 | All Maps | STV","players":null},{"server_id":18,"name":"Uncletopia | San Francisco | 2 | All Maps","name_short":"sfo-2","host":"sfo-1.us.uncletopia.com","port":27025,"enabled":true,"region":"us-west","cc":"us","latitude":37.77397,"longitude":-122.4313,"reserved":0,"last_update":"0001-01-01T00:00:00Z","name_a2s":"Uncletopia | San Francisco | 2 | All Maps","protocol":17,"map":"cp_dustbowl","folder":"tf","game":"Team Fortress","app_id":440,"player_count":0,"max_players":24,"Bots":0,"server_type":"Dedicated","server_os":"Linux","password":true,"vac":true,"version":"7961495","steam_id":85568392924470000,"keywords":["cp","nocrits","nodmgspread","uncletopia"],"game_id":440,"stv_port":27026,"stv_name":"Uncletopia | San Francisco | 2 | All Maps | STV","players":null},{"server_id":19,"name":"Uncletopia | San Francisco | 3 | Stopwatch","name_short":"sfo-3","host":"sfo-1.us.uncletopia.com","port":27035,"enabled":true,"region":"us-west","cc":"us","latitude":37.77397,"longitude":-122.4313,"reserved":0,"last_update":"0001-01-01T00:00:00Z","name_a2s":"Uncletopia | San Francisco | 3 | Stopwatch","protocol":17,"map":"pl_pier","folder":"tf","game":"Team Fortress","app_id":440,"player_count":0,"max_players":24,"Bots":0,"server_type":"Dedicated","server_os":"Linux","password":true,"vac":true,"version":"7961495","steam_id":85568392924742824,"keywords":["nocrits","nodmgspread","payload","uncletopia"],"game_id":440,"stv_port":27036,"stv_name":"Uncletopia | San Francisco | 3 | Stopwatch | STV","players":null},{"server_id":20,"name":"Uncletopia | San Francisco | 4 | Community","name_short":"sfo-4","host":"sfo-1.us.uncletopia.com","port":27045,"enabled":true,"region":"us-west","cc":"us","latitude":37.77397,"longitude":-122.4313,"reserved":0,"last_update":"0001-01-01T00:00:00Z","name_a2s":"Uncletopia | San Francisco | 4 | Community","protocol":17,"map":"workshop/koth_ashville_final.ugc2130459942","folder":"tf","game":"Team Fortress","app_id":440,"player_count":0,"max_players":24,"Bots":0,"server_type":"Dedicated","server_os":"Linux","password":true,"vac":true,"version":"7961495","steam_id":85568392924742826,"keywords":["cp","nocrits","nodmgspread","uncletopia"],"game_id":440,"stv_port":27046,"stv_name":"Uncletopia | San Francisco | 4 | Community | STV","players":null},{"server_id":141,"name":"Uncletopia | Sydney | 1 | All Maps","name_short":"syd-1","host":"syd-1.au.uncletopia.com","port":27015,"enabled":true,"region":"au","cc":"au","latitude":-33.865143,"longitude":151.2099,"reserved":0,"last_update":"0001-01-01T00:00:00Z","name_a2s":"Uncletopia | Sydney | 1 | All Maps","protocol":17,"map":"koth_viaduct","folder":"tf","game":"Team Fortress","app_id":440,"player_count":0,"max_players":24,"Bots":0,"server_type":"Dedicated","server_os":"Linux","password":true,"vac":true,"version":"7961495","steam_id":85568392924470001,"keywords":["cp","nocrits","nodmgspread","uncletopia"],"game_id":440,"stv_port":27016,"stv_name":"Uncletopia | Sydney | 1 | All Maps | STV","players":null},{"server_id":123,"name":"Uncletopia | Sydney | 2 | All Maps","name_short":"syd-2","host":"syd-1.au.uncletopia.com","port":27025,"enabled":true,"region":"au","cc":"au","latitude":-33.865143,"longitude":151.2099,"reserved":0,"last_update":"0001-01-01T00:00:00Z","name_a2s":"Uncletopia | Sydney | 2 | All Maps","protocol":17,"map":"koth_lakeside_final","folder":"tf","game":"Team Fortress","app_id":440,"player_count":0,"max_players":24,"Bots":0,"server_type":"Dedicated","server_os":"Linux","password":true,"vac":true,"version":"7961495","steam_id":85568392924470002,"keywords":["cp","nocrits","nodmgspread","uncletopia"],"game_id":440,"stv_port":27026,"stv_name":"Uncletopia | Sydney | 2 | All Maps | STV","players":null},{"server_id":395,"name":"Uncletopia | Sydney | 3 | All Maps","name_short":"syd-3","host":"syd-1.au.uncletopia.com","port":27035,"enabled":true,"region":"au","cc":"au","latitude":-33.865143,"longitude":151.2099,"reserved":0,"last_update":"0001-01-01T00:00:00Z","name_a2s":"Uncletopia | Sydney | 3 | All Maps","protocol":17,"map":"pl_frontier_final","folder":"tf","game":"Team Fortress","app_id":440,"player_count":0,"max_players":24,"Bots":0,"server_type":"Dedicated","server_os":"Linux","password":true,"vac":true,"version":"7961495","steam_id":85568392925194467,"keywords":["nocrits","nodmgspread","payload","uncletopia"],"game_id":440,"stv_port":27036,"stv_name":"Uncletopia | Sydney | 3 | All Maps | STV","players":null},{"server_id":396,"name":"Uncletopia | Sydney | 4 | All Maps","name_short":"syd-4","host":"syd-1.au.uncletopia.com","port":27045,"enabled":true,"region":"au","cc":"au","latitude":-33.865143,"longitude":151.2099,"reserved":0,"last_update":"0001-01-01T00:00:00Z","name_a2s":"Uncletopia | Sydney | 4 | All Maps","protocol":17,"map":"cp_process_final","folder":"tf","game":"Team Fortress","app_id":440,"player_count":0,"max_players":24,"Bots":0,"server_type":"Dedicated","server_os":"Linux","password":true,"vac":true,"version":"7961495","steam_id":85568392925397958,"keywords":["cp","nocrits","nodmgspread","uncletopia"],"game_id":440,"stv_port":27046,"stv_name":"Uncletopia | Sydney | 4 | All Maps | STV","players":null},{"server_id":58,"name":"Uncletopia | Sydney | 5 | Stopwatch","name_short":"syd-5","host":"syd-1.au.uncletopia.com","port":27055,"enabled":true,"region":"au","cc":"au","latitude":-33.865143,"longitude":151.2099,"reserved":0,"last_update":"0001-01-01T00:00:00Z","name_a2s":"Uncletopia | Sydney | 5 | Stopwatch","protocol":17,"map":"pl_frontier_final","folder":"tf","game":"Team Fortress","app_id":440,"player_count":0,"max_players":24,"Bots":0,"server_type":"Dedicated","server_os":"Linux","password":true,"vac":true,"version":"7961495","steam_id":85568392925397959,"keywords":["nocrits","nodmgspread","payload","uncletopia"],"game_id":440,"stv_port":27056,"stv_name":"Uncletopia | Sydney | 5 | Stopwatch | STV","players":null},{"server_id":59,"name":"Uncletopia | Sydney | 6 | Community","name_short":"syd-6","host":"syd-1.au.uncletopia.com","port":27065,"enabled":true,"region":"au","cc":"au","latitude":-33.865143,"longitude":151.2099,"reserved":0,"last_update":"0001-01-01T00:00:00Z","name_a2s":"Uncletopia | Sydney | 6 | Community","protocol":17,"map":"cp_sunshine","folder":"tf","game":"Team Fortress","app_id":440,"player_count":0,"max_players":24,"Bots":0,"server_type":"Dedicated","server_os":"Linux","password":true,"vac":true,"version":"7961495","steam_id":85568392925397960,"keywords":["cp","nocrits","nodmgspread","uncletopia"],"game_id":440,"stv_port":27066,"stv_name":"Uncletopia | Sydney | 6 | Community | STV","players":null},{"server_id":49,"name":"Uncletopia | Warsaw | 1 | One Thousand Uncles","name_short":"waw-1","host":"waw-1.pl.uncletopia.com","port":27015,"enabled":true,"region":"eu","cc":"pl","latitude":52.2297,"longitude":21.017532,"reserved":0,"last_update":"0001-01-01T00:00:00Z","name_a2s":"Uncletopia | Warsaw | 1 | One Thousand Uncles","protocol":17,"map":"cp_egypt_final","folder":"tf","game":"Team Fortress","app_id":440,"player_count":28,"max_players":32,"Bots":16,"server_type":"Dedicated","server_os":"Linux","password":true,"vac":true,"version":"7961495","steam_id":85568392925397850,"keywords":["alltalk","bots","cp","danepve","increased_maxplayers","nocrits","norespawntime","uncletopia"],"game_id":440,"stv_port":0,"stv_name":"","players":[{"user_id":667,"name":"alicheek_86","steam_id":76561198253553809,"connected_time":4819000000000,"state":"active","ping":64},{"user_id":712,"name":"ourlittlemonkey","steam_id":76561199236499312,"connected_time":1329000000000,"state":"active","ping":226},{"user_id":711,"name":"nelipa84","steam_id":76561199259397833,"connected_time":1578000000000,"state":"active","ping":35},{"user_id":689,"name":"jackthegreenlade","steam_id":76561199468264132,"connected_time":4018000000000,"state":"active","ping":110},{"user_id":713,"name":"jedi5218","steam_id":76561198071195598,"connected_time":832000000000,"state":"active","ping":45},{"user_id":541,"name":"Lucas096br","steam_id":76561198350760997,"connected_time":12255000000000,"state":"active","ping":309},{"user_id":706,"name":"Retro","steam_id":76561199181824842,"connected_time":2747000000000,"state":"active","ping":63},{"user_id":714,"name":"Voks_","steam_id":76561198159687785,"connected_time":832000000000,"state":"active","ping":67},{"user_id":715,"name":"dima_x26","steam_id":76561199202758594,"connected_time":736000000000,"state":"active","ping":38},{"user_id":690,"name":"Professorstino","steam_id":76561199117907277,"connected_time":3985000000000,"state":"active","ping":160},{"user_id":691,"name":"demo flower","steam_id":76561199401272759,"connected_time":3884000000000,"state":"active","ping":70},{"user_id":705,"name":"cheesecake hunter","steam_id":76561198097769060,"connected_time":2793000000000,"state":"active","ping":78}]},{"server_id":50,"name":"Uncletopia | Warsaw | 2 | One Thousand Uncles","name_short":"waw-2","host":"waw-1.pl.uncletopia.com","port":27025,"enabled":true,"region":"eu","cc":"pl","latitude":52.2297,"longitude":21.017532,"reserved":0,"last_update":"0001-01-01T00:00:00Z","name_a2s":"Uncletopia | Warsaw | 2 | One Thousand Uncles","protocol":17,"map":"pl_upward","folder":"tf","game":"Team Fortress","app_id":440,"player_count":24,"max_players":32,"Bots":16,"server_type":"Dedicated","server_os":"Linux","password":true,"vac":true,"version":"7961495","steam_id":85568392925397851,"keywords":["alltalk","bots","danepve","increased_maxplayers","nocrits","norespawntime","payload","uncletopia"],"game_id":440,"stv_port":0,"stv_name":"","players":[{"user_id":178,"name":"Old Hat","steam_id":76561197994673297,"connected_time":789000000000,"state":"active","ping":59},{"user_id":183,"name":"penis atomizer 9000 🏳️?","steam_id":76561198864841966,"connected_time":94000000000,"state":"active","ping":184},{"user_id":132,"name":"skike","steam_id":76561198071079992,"connected_time":5846000000000,"state":"active","ping":93},{"user_id":177,"name":"bENtO","steam_id":76561198082076676,"connected_time":1031000000000,"state":"active","ping":60},{"user_id":151,"name":"mikado990","steam_id":76561198116629489,"connected_time":3607000000000,"state":"active","ping":39},{"user_id":172,"name":"C++, Git and Linux Enjoyer","steam_id":76561198277310442,"connected_time":2968000000000,"state":"active","ping":75},{"user_id":180,"name":"Gregor Samsa","steam_id":76561198973069177,"connected_time":541000000000,"state":"active","ping":62},{"user_id":181,"name":"Gustavo_Fring_6969","steam_id":76561199373610279,"connected_time":467000000000,"state":"active","ping":109}]},{"server_id":51,"name":"Uncletopia | Warsaw | 3 | All Maps","name_short":"waw-3","host":"waw-1.pl.uncletopia.com","port":27035,"enabled":true,"region":"eu","cc":"pl","latitude":52.2297,"longitude":21.017532,"reserved":0,"last_update":"0001-01-01T00:00:00Z","name_a2s":"Uncletopia | Warsaw | 3 | All Maps","protocol":17,"map":"plr_pipeline","folder":"tf","game":"Team Fortress","app_id":440,"player_count":0,"max_players":24,"Bots":0,"server_type":"Dedicated","server_os":"Linux","password":true,"vac":true,"version":"7961495","steam_id":85568392925397852,"keywords":["nocrits","nodmgspread","payload","uncletopia"],"game_id":440,"stv_port":27036,"stv_name":"Uncletopia | Warsaw | 3 | All Maps | STV","players":null},{"server_id":52,"name":"Uncletopia | Warsaw | 4 | All Maps","name_short":"waw-4","host":"waw-1.pl.uncletopia.com","port":27045,"enabled":true,"region":"eu","cc":"pl","latitude":52.2297,"longitude":21.017532,"reserved":0,"last_update":"0001-01-01T00:00:00Z","name_a2s":"Uncletopia | Warsaw | 4 | All Maps","protocol":17,"map":"cp_sunshine","folder":"tf","game":"Team Fortress","app_id":440,"player_count":0,"max_players":24,"Bots":0,"server_type":"Dedicated","server_os":"Linux","password":true,"vac":true,"version":"7961495","steam_id":85568392925397853,"keywords":["cp","nocrits","nodmgspread","uncletopia"],"game_id":440,"stv_port":27046,"stv_name":"Uncletopia | Warsaw | 4 | All Maps | STV","players":null},{"server_id":53,"name":"Uncletopia | Warsaw | 5 | Stopwatch","name_short":"waw-5","host":"waw-1.pl.uncletopia.com","port":27055,"enabled":true,"region":"eu","cc":"pl","latitude":52.2297,"longitude":21.017532,"reserved":0,"last_update":"0001-01-01T00:00:00Z","name_a2s":"Uncletopia | Warsaw | 5 | Stopwatch","protocol":17,"map":"koth_lakeside_final","folder":"tf","game":"Team Fortress","app_id":440,"player_count":0,"max_players":24,"Bots":0,"server_type":"Dedicated","server_os":"Linux","password":true,"vac":true,"version":"7961495","steam_id":85568392925397854,"keywords":["cp","nocrits","nodmgspread","uncletopia"],"game_id":440,"stv_port":27056,"stv_name":"Uncletopia | Warsaw | 5 | Stopwatch | STV","players":null},{"server_id":54,"name":"Uncletopia | Warsaw | 6 | Community","name_short":"waw-6","host":"waw-1.pl.uncletopia.com","port":27065,"enabled":true,"region":"eu","cc":"pl","latitude":52.2297,"longitude":21.017532,"reserved":0,"last_update":"0001-01-01T00:00:00Z","name_a2s":"Uncletopia | Warsaw | 6 | Community","protocol":17,"map":"workshop/koth_ashville_final.ugc2130459942","folder":"tf","game":"Team Fortress","app_id":440,"player_count":0,"max_players":24,"Bots":0,"server_type":"Dedicated","server_os":"Linux","password":true,"vac":true,"version":"7961495","steam_id":85568392925397856,"keywords":["cp","nocrits","nodmgspread","uncletopia"],"game_id":440,"stv_port":27066,"stv_name":"Uncletopia | Warsaw | 6 | Community | STV","players":null}]}