{"status":true,"message":"","result":[{"server_id":9,"name":"Uncletopia | Atlanta | 1 | All Maps","name_short":"atl-1","host":"atl-1.us.uncletopia.com","port":27015,"enabled":true,"region":"us-east","cc":"us","latitude":33.753746,"longitude":-84.38633,"reserved":0,"last_update":"0001-01-01T00:00:00Z","name_a2s":"Uncletopia | Atlanta | 1 | All Maps","protocol":17,"map":"pl_rumford_event","folder":"tf","game":"Team Fortress","app_id":440,"player_count":24,"max_players":24,"Bots":0,"server_type":"Dedicated","server_os":"Linux","password":true,"vac":true,"version":"7757534","steam_id":85568392924469982,"keywords":["nocrits","nodmgspread","payload","uncletopia"],"game_id":440,"stv_port":27016,"stv_name":"Uncletopia | Atlanta | 1 | All Maps | STV","players":[{"user_id":195,"name":"Sway","steam_id":76561198170353885,"connected_time":2997000000000,"state":"active","ping":75},{"user_id":203,"name":"Wackydavo","steam_id":76561197990094209,"connected_time":1680000000000,"state":"active","ping":128},{"user_id":218,"name":"pest","steam_id":76561198052571208,"connected_time":621000000000,"state":"active","ping":61},{"user_id":220,"name":"Broken Cereal√","steam_id":76561198087489795,"connected_time":492000000000,"state":"active","ping":66},{"user_id":180,"name":"DevSlashUser","steam_id":76561198805884205,"connected_time":4004000000000,"state":"active","ping":65},{"user_id":211,"name":"Brown_Dream","steam_id":76561198975766145,"connected_time":1059000000000,"state":"active","ping":76},{"user_id":223,"name":"lu","steam_id":76561198080731872,"connected_time":213000000000,"state":"active","ping":73},{"user_id":209,"name":"⇌ | ϟtriKeR | ⇋","steam_id":76561199389089862,"connected_time":1093000000000,"state":"active","ping":144},{"user_id":174,"name":"William Wallace","steam_id":76561199343316814,"connected_time":4395000000000,"state":"active","ping":53},{"user_id":154,"name":"Ashes!","steam_id":76561197998475441,"connected_time":5493000000000,"state":"active","ping":78},{"user_id":188,"name":"-W3E- grim10465","steam_id":76561198045698581,"connected_time":3232000000000,"state":"active","ping":59},{"user_id":123,"name":"I'm Only 4 Inches","steam_id":76561198055542546,"connected_time":7895000000000,"state":"active","ping":76},{"user_id":212,"name":"LeTonzy","steam_id":76561198005806699,"connected_time":1019000000000,"state":"active","ping":121},{"user_id":197,"name":"Plutia","steam_id":76561197996787193,"connected_time":2568000000000,"state":"active","ping":84},{"user_id":160,"name":"̝̬̩͓̯̠̪ͦ͒̀ͫ̚ ͦ͒̚","steam_id":76561199161322235,"connected_time":5069000000000,"state":"active","ping":93},{"user_id":204,"name":"hunchback of gay paris","steam_id":76561198116741891,"connected_time":1342000000000,"state":"active","ping":59},{"user_id":192,"name":"Poomanchu","steam_id":76561198070071631,"connected_time":3110000000000,"state":"active","ping":109},{"user_id":189,"name":"Doctor Vegeta","steam_id":76561198353898356,"connected_time":3230000000000,"state":"active","ping":80},{"user_id":202,"name":"mayhem","steam_id":76561199246637881,"connected_time":1923000000000,"state":"active","ping":57},{"user_id":213,"name":"\u003c blank \u003e","steam_id":76561199383789041,"connected_time":1011000000000,"state":"active","ping":173},{"user_id":215,"name":"Cooki","steam_id":76561198051705314,"connected_time":995000000000,"state":"active","ping":95},{"user_id":222,"name":"Rockguy21","steam_id":76561198121303359,"connected_time":407000000000,"state":"active","ping":77},{"user_id":221,"name":"ATL1 | Pango","steam_id":76561198069811545,"connected_time":490000000000,"state":"active","ping":45},{"user_id":206,"name":"--_Cook_--","steam_id":76561198080855748,"connected_time":1141000000000,"state":"active","ping":50}]},{"server_id":400,"name":"Uncletopia | Atlanta | 3 | Community","name_short":"atl-3","host":"atl-1.us.uncletopia.com","port":27035,"enabled":true,"region":"us-east","cc":"us","latitude":33.753746,"longitude":-84.38633,"reserved":0,"last_update":"0001-01-01T00:00:00Z","name_a2s":"Uncletopia | Atlanta | 3 | Community","protocol":17,"map":"cp_mountainlab","folder":"tf","game":"Team Fortress","app_id":440,"player_count":0,"max_players":24,"Bots":0,"server_type":"Dedicated","server_os":"Linux","password":true,"vac":true,"version":"7757534","steam_id":85568392924515187,"keywords":["cp","nocrits","nodmgspread","uncletopia"],"game_id":440,"stv_port":27036,"stv_name":"Uncletopia | Atlanta | 3 | Community | STV","players":null},{"server_id":401,"name":"Uncletopia | Atlanta | 4 | No Payload","name_short":"atl-4","host":"atl-1.us.uncletopia.com","port":27045,"enabled":true,"region":"us-east","cc":"us","latitude":33.753746,"longitude":-84.38633,"reserved":0,"last_update":"0001-01-01T00:00:00Z","name_a2s":"","protocol":0,"map":"","folder":"","game":"","app_id":0,"player_count":0,"max_players":0,"Bots":0,"server_type":"","server_os":"","password":false,"vac":false,"version":"","steam_id":0,"keywords":null,"game_id":0,"stv_port":0,"stv_name":"","players":null},{"server_id":2,"name":"Uncletopia | Chicago | 1 | All Maps","name_short":"chi-1","host":"chi-1.us.uncletopia.com","port":27015,"enabled":true,"region":"us-central","cc":"us","latitude":41.881832,"longitude":-87.62318,"reserved":0,"last_update":"0001-01-01T00:00:00Z","name_a2s":"Uncletopia | Chicago | 1 | All Maps","protocol":17,"map":"cp_dustbowl","folder":"tf","game":"Team Fortress","app_id":440,"player_count":24,"max_players":24,"Bots":0,"server_type":"Dedicated","server_os":"Linux","password":true,"vac":true,"version":"7757534","steam_id":85568392924469984,"keywords":["cp","nocrits","nodmgspread","uncletopia"],"game_id":440,"stv_port":27016,"stv_name":"Uncletopia | Chicago | 1 | All Maps | STV","players":[{"user_id":399,"name":"BatJet","steam_id":76561198147738441,"connected_time":1192000000000,"state":"active","ping":115},{"user_id":406,"name":"Silly Scientist","steam_id":76561199199886079,"connected_time":467000000000,"state":"active","ping":64},{"user_id":368,"name":"tyg","steam_id":76561198056246867,"connected_time":3489000000000,"state":"active","ping":61},{"user_id":413,"name":"TallBit","steam_id":76561199059748976,"connected_time":121000000000,"state":"active","ping":52},{"user_id":371,"name":"Majin Boo Radley","steam_id":76561198288471052,"connected_time":3335000000000,"state":"active","ping":55},{"user_id":420,"name":"yng knk","steam_id":76561198116087893,"connected_time":19000000000,"state":"active","ping":70},{"user_id":416,"name":"wheres my drink?","steam_id":76561198031675881,"connected_time":99000000000,"state":"active","ping":46},{"user_id":391,"name":"Valerie","steam_id":76561198243188782,"connected_time":1738000000000,"state":"active","ping":76},{"user_id":403,"name":"DocLucky","steam_id":76561199093899249,"connected_time":506000000000,"state":"active","ping":162},{"user_id":412,"name":"richard clock","steam_id":76561198048455671,"connected_time":154000000000,"state":"active","ping":59},{"user_id":414,"name":"FiddyFoMike","steam_id":76561198057072581,"connected_time":113000000000,"state":"active","ping":90},{"user_id":418,"name":"JAke","steam_id":76561198141382684,"connected_time":60000000000,"state":"active","ping":82},{"user_id":365,"name":"pigeoncup","steam_id":76561198964926838,"connected_time":3524000000000,"state":"active","ping":59},{"user_id":417,"name":"John Darksoul","steam_id":76561198999712284,"connected_time":93000000000,"state":"active","ping":72},{"user_id":361,"name":"Candy Sparkles","steam_id":76561198126871264,"connected_time":3786000000000,"state":"active","ping":86},{"user_id":389,"name":"totally not a pile of beans","steam_id":76561198119851931,"connected_time":2117000000000,"state":"active","ping":76},{"user_id":419,"name":"trans rights","steam_id":76561198153764923,"connected_time":52000000000,"state":"active","ping":63},{"user_id":421,"name":"ExplosiveGamer21","steam_id":76561198132370955,"connected_time":16000000000,"state":"spawning","ping":130},{"user_id":388,"name":"zed","steam_id":76561198090531755,"connected_time":2159000000000,"state":"active","ping":60},{"user_id":348,"name":"Tyler\u0026Fingers","steam_id":76561198085154485,"connected_time":5156000000000,"state":"active","ping":85},{"user_id":397,"name":"Chaos","steam_id":76561199068325065,"connected_time":1252000000000,"state":"active","ping":99},{"user_id":409,"name":"BLANK3T (They/He) | RGL.gg","steam_id":76561198028875624,"connected_time":273000000000,"state":"active","ping":82},{"user_id":383,"name":"Prowox","steam_id":76561198032606089,"connected_time":2670000000000,"state":"active","ping":163},{"user_id":376,"name":"98","steam_id":76561198134813102,"connected_time":2905000000000,"state":"active","ping":58}]},{"server_id":106,"name":"Uncletopia | Chicago | 2 | All Maps","name_short":"chi-2","host":"chi-1.us.uncletopia.com","port":27025,"enabled":true,"region":"us-central","cc":"us","latitude":41.881832,"longitude":-87.62318,"reserved":0,"last_update":"0001-01-01T00:00:00Z","name_a2s":"Uncletopia | Chicago | 2 | All Maps","protocol":17,"map":"pl_pier","folder":"tf","game":"Team Fortress","app_id":440,"player_count":24,"max_players":24,"Bots":0,"server_type":"Dedicated","server_os":"Linux","password":true,"vac":true,"version":"7757534","steam_id":85568392924469985,"keywords":["nocrits","nodmgspread","payload","uncletopia"],"game_id":440,"stv_port":27026,"stv_name":"Uncletopia | Chicago | 2 | All Maps | STV","players":[{"user_id":434,"name":"Violet42","steam_id":76561198072927887,"connected_time":638000000000,"state":"active","ping":68},{"user_id":421,"name":"hestus","steam_id":76561199132268907,"connected_time":1577000000000,"state":"active","ping":43},{"user_id":435,"name":"Vracstan Renem","steam_id":76561198271627851,"connected_time":625000000000,"state":"active","ping":167},{"user_id":440,"name":"-W3E-GoatTheftAuto","steam_id":76561198118080750,"connected_time":314000000000,"state":"active","ping":37},{"user_id":379,"name":"Mr.YoYo","steam_id":76561198988717854,"connected_time":5408000000000,"state":"active","ping":92},{"user_id":429,"name":"battle clown","steam_id":76561198045788371,"connected_time":689000000000,"state":"active","ping":117},{"user_id":422,"name":"ChillyJones","steam_id":76561198017658702,"connected_time":1574000000000,"state":"active","ping":78},{"user_id":436,"name":"fasterbum","steam_id":76561198142577444,"connected_time":611000000000,"state":"active","ping":53},{"user_id":401,"name":"A Puppy","steam_id":76561198828184456,"connected_time":3880000000000,"state":"active","ping":60},{"user_id":370,"name":"work it harder make it better","steam_id":76561198328109873,"connected_time":5614000000000,"state":"active","ping":73},{"user_id":433,"name":"LoonaLover@gmail.com","steam_id":76561198085815757,"connected_time":653000000000,"state":"active","ping":61},{"user_id":428,"name":"64 Zoo Lane","steam_id":76561198416724843,"connected_time":727000000000,"state":"active","ping":145},{"user_id":425,"name":"Luke","steam_id":76561198072441047,"connected_time":1413000000000,"state":"active","ping":106},{"user_id":427,"name":"creeeeeee","steam_id":76561198392539722,"connected_time":948000000000,"state":"active","ping":78},{"user_id":418,"name":"Hertz","steam_id":76561198245322982,"connected_time":2123000000000,"state":"active","ping":50},{"user_id":395,"name":"Skullypoo","steam_id":76561198067912022,"connected_time":4762000000000,"state":"active","ping":72},{"user_id":439,"name":"sweppy","steam_id":76561198035457667,"connected_time":459000000000,"state":"active","ping":63},{"user_id":441,"name":"BigBubble42","steam_id":76561198136286123,"connected_time":299000000000,"state":"active","ping":56},{"user_id":413,"name":"worst tf2 player ever","steam_id":76561198103496593,"connected_time":2488000000000,"state":"active","ping":72},{"user_id":438,"name":"Strange Diplomat","steam_id":76561198428191920,"connected_time":553000000000,"state":"active","ping":77},{"user_id":414,"name":"Eden","steam_id":76561198075587475,"connected_time":2465000000000,"state":"active","ping":54},{"user_id":404,"name":"Magnum_doom","steam_id":76561199119161534,"connected_time":3563000000000,"state":"active","ping":86},{"user_id":431,"name":"The Drunk Clown","steam_id":76561197986850426,"connected_time":665000000000,"state":"active","ping":74},{"user_id":432,"name":"SpaceOfHate | HM |","steam_id":76561199029944244,"connected_time":663000000000,"state":"active","ping":69}]},{"server_id":402,"name":"Uncletopia | Chicago | 3 | All Maps","name_short":"chi-3","host":"chi-1.us.uncletopia.com","port":27035,"enabled":true,"region":"us-central","cc":"us","latitude":41.881832,"longitude":-87.62318,"reserved":0,"last_update":"0001-01-01T00:00:00Z","name_a2s":"Uncletopia | Chicago | 3 | All Maps","protocol":17,"map":"koth_cascade","folder":"tf","game":"Team Fortress","app_id":440,"player_count":0,"max_players":24,"Bots":0,"server_type":"Dedicated","server_os":"Linux","password":true,"vac":true,"version":"7757534","steam_id":85568392924515191,"keywords":["cp","nocrits","nodmgspread","uncletopia"],"game_id":440,"stv_port":27036,"stv_name":"Uncletopia | Chicago | 3 | All Maps | STV","players":null},{"server_id":403,"name":"Uncletopia | Chicago | 4 | All Maps","name_short":"chi-4","host":"chi-1.us.uncletopia.com","port":27045,"enabled":true,"region":"us-central","cc":"us","latitude":41.881832,"longitude":-87.62318,"reserved":0,"last_update":"0001-01-01T00:00:00Z","name_a2s":"Uncletopia | Chicago | 4 | All Maps","protocol":17,"map":"pl_borneo","folder":"tf","game":"Team Fortress","app_id":440,"player_count":23,"max_players":24,"Bots":0,"server_type":"Dedicated","server_os":"Linux","password":true,"vac":true,"version":"7757534","steam_id":85568392924515193,"keywords":["nocrits","nodmgspread","payload","uncletopia"],"game_id":440,"stv_port":27046,"stv_name":"Uncletopia | Chicago | 4 | All Maps | STV","players":[{"user_id":249,"name":"Zwahe✟","steam_id":76561198119750206,"connected_time":2866000000000,"state":"active","ping":80},{"user_id":270,"name":"Try Gardening","steam_id":76561198120311340,"connected_time":1866000000000,"state":"active","ping":46},{"user_id":235,"name":"shadow wizard","steam_id":76561198165212575,"connected_time":3423000000000,"state":"active","ping":60},{"user_id":266,"name":"soccernano","steam_id":76561198116633137,"connected_time":1940000000000,"state":"active","ping":66},{"user_id":261,"name":"Scum!","steam_id":76561198051805219,"connected_time":2102000000000,"state":"active","ping":48},{"user_id":223,"name":"Quansen","steam_id":76561198151594550,"connected_time":4699000000000,"state":"active","ping":50},{"user_id":274,"name":"Doinnoid","steam_id":76561198262276139,"connected_time":1567000000000,"state":"active","ping":64},{"user_id":248,"name":"Bludgeon","steam_id":76561198272009412,"connected_time":2963000000000,"state":"active","ping":103},{"user_id":200,"name":"Doost44","steam_id":76561198115785902,"connected_time":6004000000000,"state":"active","ping":59},{"user_id":280,"name":"VanderSalad","steam_id":76561198027370031,"connected_time":856000000000,"state":"active","ping":57},{"user_id":284,"name":"mystery beer","steam_id":76561197995620232,"connected_time":660000000000,"state":"active","ping":58},{"user_id":292,"name":"tlm","steam_id":76561198178457461,"connected_time":225000000000,"state":"active","ping":59},{"user_id":258,"name":"I Lead MLB In \"Bats Eaten\"","steam_id":76561198034079853,"connected_time":2278000000000,"state":"active","ping":70},{"user_id":285,"name":"The Rambler","steam_id":76561198109648603,"connected_time":657000000000,"state":"active","ping":80},{"user_id":282,"name":"THRILLHO","steam_id":76561198371663047,"connected_time":732000000000,"state":"active","ping":60},{"user_id":286,"name":"lag","steam_id":76561197963872739,"connected_time":618000000000,"state":"active","ping":90},{"user_id":293,"name":"i have rabies","steam_id":76561198028612613,"connected_time":130000000000,"state":"active","ping":90},{"user_id":259,"name":"MynMonster","steam_id":76561198333128330,"connected_time":2239000000000,"state":"active","ping":35},{"user_id":283,"name":"wack","steam_id":76561198095697330,"connected_time":725000000000,"state":"active","ping":83},{"user_id":288,"name":"I can't heal","steam_id":76561198039763676,"connected_time":596000000000,"state":"active","ping":63},{"user_id":264,"name":"darkesther0","steam_id":76561198858282525,"connected_time":1987000000000,"state":"active","ping":104},{"user_id":277,"name":"bear","steam_id":76561198909415646,"connected_time":1530000000000,"state":"active","ping":80},{"user_id":291,"name":"oui","steam_id":76561198004481006,"connected_time":333000000000,"state":"active","ping":105}]},{"server_id":36,"name":"Uncletopia | Chicago | 5 | All Maps","name_short":"chi-5","host":"chi-2.us.uncletopia.com","port":27015,"enabled":true,"region":"us-central","cc":"us","latitude":41.881832,"longitude":-87.62318,"reserved":0,"last_update":"0001-01-01T00:00:00Z","name_a2s":"Uncletopia | Chicago | 5 | All Maps","protocol":17,"map":"koth_lakeside_final","folder":"tf","game":"Team Fortress","app_id":440,"player_count":0,"max_players":24,"Bots":0,"server_type":"Dedicated","server_os":"Linux","password":true,"vac":true,"version":"7757534","steam_id":85568392924866362,"keywords":["cp","nocrits","nodmgspread","uncletopia"],"game_id":440,"stv_port":27016,"stv_name":"Uncletopia | Chicago | 5 | All Maps | STV","players":null},{"server_id":37,"name":"Uncletopia | Chicago | 6 | All Maps","name_short":"chi-6","host":"chi-2.us.uncletopia.com","port":27025,"enabled":true,"region":"us-central","cc":"us","latitude":41.881832,"longitude":-87.62318,"reserved":0,"last_update":"0001-01-01T00:00:00Z","name_a2s":"Uncletopia | Chicago | 6 | All Maps","protocol":17,"map":"cp_dustbowl","folder":"tf","game":"Team Fortress","app_id":440,"player_count":0,"max_players":24,"Bots":0,"server_type":"Dedicated","server_os":"Linux","password":true,"vac":true,"version":"7757534","steam_id":85568392924866363,"keywords":["cp","nocrits","nodmgspread","uncletopia"],"game_id":440,"stv_port":27026,"stv_name":"Uncletopia | Chicago | 6 | All Maps | STV","players":null},{"server_id":38,"name":"Uncletopia | Chicago | 7 | Stopwatch Beta","name_short":"chi-7","host":"chi-2.us.uncletopia.com","port":27035,"enabled":true,"region":"us-central","cc":"us","latitude":41.881832,"longitude":-87.62318,"reserved":0,"last_update":"0001-01-01T00:00:00Z","name_a2s":"Uncletopia | Chicago | 7 | Stopwatch Beta","protocol":17,"map":"workshop/koth_bagel_rc6.ugc2514036946","folder":"tf","game":"Team Fortress","app_id":440,"player_count":0,"max_players":24,"Bots":0,"server_type":"Dedicated","server_os":"Linux","password":true,"vac":true,"version":"7757534","steam_id":85568392924866364,"keywords":["cp","nocrits","nodmgspread","uncletopia"],"game_id":440,"stv_port":27036,"stv_name":"Uncletopia | Chicago | 7 | Stopwatch Beta | STV","players":null},{"server_id":39,"name":"Uncletopia | Chicago | 8 | Community","name_short":"chi-8","host":"chi-2.us.uncletopia.com","port":27045,"enabled":true,"region":"us-central","cc":"us","latitude":41.881832,"longitude":-87.62318,"reserved":0,"last_update":"0001-01-01T00:00:00Z","name_a2s":"Uncletopia | Chicago | 8 | Community","protocol":17,"map":"koth_lakeside_final","folder":"tf","game":"Team Fortress","app_id":440,"player_count":0,"max_players":24,"Bots":0,"server_type":"Dedicated","server_os":"Linux","password":true,"vac":true,"version":"7757534","steam_id":85568392924866365,"keywords":["cp","nocrits","nodmgspread","uncletopia"],"game_id":440,"stv_port":27046,"stv_name":"Uncletopia | Chicago | 8 | Community | STV","players":null},{"server_id":8,"name":"Uncletopia | Dallas | 1 | All Maps","name_short":"dal-1","host":"dal-1.us.uncletopia.com","port":27015,"enabled":true,"region":"us-central","cc":"us","latitude":32.779167,"longitude":-96.80889,"reserved":0,"last_update":"0001-01-01T00:00:00Z","name_a2s":"Uncletopia | Dallas | 1 | All Maps","protocol":17,"map":"pl_snowycoast","folder":"tf","game":"Team Fortress","app_id":440,"player_count":24,"max_players":24,"Bots":0,"server_type":"Dedicated","server_os":"Linux","password":true,"vac":true,"version":"7757534","steam_id":85568392924469986,"keywords":["nocrits","nodmgspread","payload","uncletopia"],"game_id":440,"stv_port":27016,"stv_name":"Uncletopia | Dallas | 1 | All Maps | STV","players":[{"user_id":193,"name":"Mr. Tickle","steam_id":76561198126684647,"connected_time":845000000000,"state":"active","ping":85},{"user_id":188,"name":"Brutus","steam_id":76561198213163211,"connected_time":1349000000000,"state":"active","ping":111},{"user_id":206,"name":"Sh3ba Spaniel","steam_id":76561198047412394,"connected_time":615000000000,"state":"active","ping":86},{"user_id":194,"name":"Female Gamer","steam_id":76561199366482682,"connected_time":844000000000,"state":"active","ping":121},{"user_id":197,"name":"Ekoh2wo","steam_id":76561198067994868,"connected_time":818000000000,"state":"active","ping":94},{"user_id":207,"name":"Vortiger","steam_id":76561198275813176,"connected_time":563000000000,"state":"active","ping":98},{"user_id":199,"name":"bash -lc ./asshat.sh","steam_id":76561198004584315,"connected_time":798000000000,"state":"active","ping":81},{"user_id":165,"name":"cheeks","steam_id":76561197993371179,"connected_time":3567000000000,"state":"active","ping":60},{"user_id":209,"name":"nika","steam_id":76561198308290211,"connected_time":165000000000,"state":"active","ping":95},{"user_id":200,"name":"Person","steam_id":76561198073885832,"connected_time":790000000000,"state":"active","ping":89},{"user_id":162,"name":"mkl","steam_id":76561197986401685,"connected_time":3647000000000,"state":"active","ping":58},{"user_id":182,"name":"samsoeder","steam_id":76561198293741183,"connected_time":2328000000000,"state":"active","ping":69},{"user_id":177,"name":"Pine Tree","steam_id":76561198112323877,"connected_time":3126000000000,"state":"active","ping":108},{"user_id":202,"name":"Kenku","steam_id":76561199086762926,"connected_time":699000000000,"state":"active","ping":65},{"user_id":208,"name":"turd ferguson","steam_id":76561198071620782,"connected_time":558000000000,"state":"active","ping":108},{"user_id":154,"name":"Acro Banwagon","steam_id":76561198092451804,"connected_time":4101000000000,"state":"active","ping":73},{"user_id":178,"name":"god approaches","steam_id":76561198081617990,"connected_time":3115000000000,"state":"active","ping":90},{"user_id":190,"name":"Decs","steam_id":76561198825197974,"connected_time":1252000000000,"state":"active","ping":131},{"user_id":187,"name":"TTV/ChadMorningWood","steam_id":76561198139832291,"connected_time":1408000000000,"state":"active","ping":62},{"user_id":151,"name":"Shamrock Shake Oct.10.2020 @8pm","steam_id":76561198833313201,"connected_time":4307000000000,"state":"active","ping":87},{"user_id":185,"name":"Johnny Lawrence #JohnnyMaxxing","steam_id":76561199367141671,"connected_time":2224000000000,"state":"active","ping":88},{"user_id":192,"name":"amazing","steam_id":76561198386233160,"connected_time":849000000000,"state":"active","ping":74},{"user_id":189,"name":"whale_lord420","steam_id":76561199014469424,"connected_time":1296000000000,"state":"active","ping":68},{"user_id":211,"name":"Normalux","steam_id":76561198293891426,"connected_time":62000000000,"state":"active","ping":110}]},{"server_id":108,"name":"Uncletopia | Dallas | 2 | All Maps","name_short":"dal-2","host":"dal-1.us.uncletopia.com","port":27025,"enabled":true,"region":"us-central","cc":"us","latitude":32.779167,"longitude":-96.80889,"reserved":0,"last_update":"0001-01-01T00:00:00Z","name_a2s":"Uncletopia | Dallas | 2 | All Maps","protocol":17,"map":"pl_badwater","folder":"tf","game":"Team Fortress","app_id":440,"player_count":24,"max_players":24,"Bots":0,"server_type":"Dedicated","server_os":"Linux","password":true,"vac":true,"version":"7757534","steam_id":85568392924469988,"keywords":["nocrits","nodmgspread","payload","uncletopia"],"game_id":440,"stv_port":27026,"stv_name":"Uncletopia | Dallas | 2 | All Maps | STV","players":[{"user_id":45,"name":"uncle 'ardboss","steam_id":76561198055490732,"connected_time":1987000000000,"state":"active","ping":144},{"user_id":57,"name":"Single Gun Tommy","steam_id":76561198272906289,"connected_time":1299000000000,"state":"active","ping":75},{"user_id":54,"name":"Pika","steam_id":76561198068063436,"connected_time":1446000000000,"state":"active","ping":63},{"user_id":26,"name":"Satori Komeiji","steam_id":76561198158211423,"connected_time":2766000000000,"state":"active","ping":77},{"user_id":21,"name":"Agent Bowtie","steam_id":76561198175839279,"connected_time":3097000000000,"state":"active","ping":58},{"user_id":61,"name":"qiulongtao","steam_id":76561198977558717,"connected_time":982000000000,"state":"active","ping":98},{"user_id":64,"name":"Degree","steam_id":76561198059812393,"connected_time":694000000000,"state":"active","ping":106},{"user_id":22,"name":"Skyrim killable children mod","steam_id":76561198862836173,"connected_time":2964000000000,"state":"active","ping":127},{"user_id":23,"name":"NBA Youngboy","steam_id":76561199118797200,"connected_time":2885000000000,"state":"active","ping":55},{"user_id":32,"name":"Metbol","steam_id":76561198001362410,"connected_time":2460000000000,"state":"active","ping":62},{"user_id":70,"name":"HELIUM VAN!","steam_id":76561198083463877,"connected_time":363000000000,"state":"active","ping":84},{"user_id":29,"name":"Superman123389","steam_id":76561198267472539,"connected_time":2606000000000,"state":"active","ping":90},{"user_id":63,"name":"Ayvier","steam_id":76561198042750874,"connected_time":825000000000,"state":"active","ping":98},{"user_id":71,"name":"kris736","steam_id":76561198038208255,"connected_time":346000000000,"state":"active","ping":75},{"user_id":56,"name":"Demoman With One Joke","steam_id":76561197993467034,"connected_time":1418000000000,"state":"active","ping":60},{"user_id":72,"name":"Polygunner","steam_id":76561199165741650,"connected_time":341000000000,"state":"active","ping":95},{"user_id":58,"name":"SilvaDefault","steam_id":76561198155255282,"connected_time":1272000000000,"state":"active","ping":107},{"user_id":42,"name":"Tele Co","steam_id":76561198041909269,"connected_time":2109000000000,"state":"active","ping":81},{"user_id":69,"name":"pablo","steam_id":76561198395577807,"connected_time":495000000000,"state":"active","ping":83},{"user_id":44,"name":"StarLy","steam_id":76561198174428289,"connected_time":2044000000000,"state":"active","ping":81},{"user_id":48,"name":"faxxy","steam_id":76561198079621240,"connected_time":1917000000000,"state":"active","ping":94},{"user_id":73,"name":"mikey | I'm Burning Bright!","steam_id":76561198985847893,"connected_time":145000000000,"state":"active","ping":54},{"user_id":68,"name":"Unofficial","steam_id":76561198370071152,"connected_time":531000000000,"state":"active","ping":103},{"user_id":53,"name":"Trolldier 76","steam_id":76561198036504161,"connected_time":1730000000000,"state":"active","ping":128}]},{"server_id":5,"name":"Uncletopia | Frankfurt | 1 | All Maps","name_short":"frk-1","host":"frk-1.de.uncletopia.com","port":27015,"enabled":true,"region":"eu","cc":"de","latitude":50.110924,"longitude":8.682127,"reserved":0,"last_update":"0001-01-01T00:00:00Z","name_a2s":"Uncletopia | Frankfurt | 1 | All Maps","protocol":17,"map":"pl_snowycoast","folder":"tf","game":"Team Fortress","app_id":440,"player_count":12,"max_players":24,"Bots":0,"server_type":"Dedicated","server_os":"Linux","password":true,"vac":true,"version":"7757534","steam_id":85568392924469989,"keywords":["nocrits","nodmgspread","payload","uncletopia"],"game_id":440,"stv_port":27016,"stv_name":"Uncletopia | Frankfurt | 1 | All Maps | STV","players":[{"user_id":635,"name":"Grønkjær","steam_id":76561198041075280,"connected_time":158000000000,"state":"active","ping":81},{"user_id":636,"name":"misky","steam_id":76561198179070173,"connected_time":8000000000,"state":"spawning","ping":58},{"user_id":630,"name":"Puck :))","steam_id":76561198378295653,"connected_time":517000000000,"state":"active","ping":75},{"user_id":633,"name":"lambo_man1","steam_id":76561198179327614,"connected_time":379000000000,"state":"active","ping":102},{"user_id":595,"name":"R","steam_id":76561199379233899,"connected_time":2487000000000,"state":"active","ping":88},{"user_id":623,"name":"Ryfili","steam_id":76561198167001433,"connected_time":906000000000,"state":"active","ping":88},{"user_id":598,"name":"minespweper","steam_id":76561199096919345,"connected_time":2469000000000,"state":"active","ping":90},{"user_id":599,"name":"Solu","steam_id":76561198054652468,"connected_time":2466000000000,"state":"active","ping":45},{"user_id":631,"name":"Krieger","steam_id":76561197982693641,"connected_time":487000000000,"state":"active","ping":45},{"user_id":601,"name":"pumaschildkroete","steam_id":76561198044892630,"connected_time":2447000000000,"state":"active","ping":50},{"user_id":577,"name":"Waffles","steam_id":76561199086942763,"connected_time":3627000000000,"state":"active","ping":77},{"user_id":606,"name":"Utkunator","steam_id":76561198967463151,"connected_time":2287000000000,"state":"active","ping":93}]},{"server_id":110,"name":"Uncletopia | Frankfurt | 2 | All Maps","name_short":"frk-2","host":"frk-1.de.uncletopia.com","port":27025,"enabled":true,"region":"eu","cc":"de","latitude":50.110924,"longitude":8.682127,"reserved":0,"last_update":"0001-01-01T00:00:00Z","name_a2s":"Uncletopia | Frankfurt | 2 | All Maps","protocol":17,"map":"pl_frontier_final","folder":"tf","game":"Team Fortress","app_id":440,"player_count":3,"max_players":24,"Bots":0,"server_type":"Dedicated","server_os":"Linux","password":true,"vac":true,"version":"7757534","steam_id":85568392924469990,"keywords":["nocrits","nodmgspread","payload","uncletopia"],"game_id":440,"stv_port":27026,"stv_name":"Uncletopia | Frankfurt | 2 | All Maps | STV","players":[{"user_id":439,"name":"Viking Jeff","steam_id":76561198062000324,"connected_time":1089000000000,"state":"active","ping":54},{"user_id":446,"name":"Coronalijer","steam_id":76561198064625255,"connected_time":528000000000,"state":"active","ping":69},{"user_id":445,"name":"roblan11","steam_id":76561198066839258,"connected_time":594000000000,"state":"active","ping":35}]},{"server_id":308,"name":"Uncletopia | Frankfurt | 3 | All Maps","name_short":"frk-3","host":"frk-1.de.uncletopia.com","port":27035,"enabled":true,"region":"eu","cc":"de","latitude":50.110924,"longitude":8.682127,"reserved":0,"last_update":"0001-01-01T00:00:00Z","name_a2s":"Uncletopia | Frankfurt | 3 | All Maps","protocol":17,"map":"pl_upward","folder":"tf","game":"Team Fortress","app_id":440,"player_count":24,"max_players":24,"Bots":0,"server_type":"Dedicated","server_os":"Linux","password":true,"vac":true,"version":"7757534","steam_id":85568392924504274,"keywords":["nocrits","nodmgspread","payload","uncletopia"],"game_id":440,"stv_port":27036,"stv_name":"Uncletopia | Frankfurt | 3 | All Maps | STV","players":[{"user_id":221,"name":"SlwoFø","steam_id":76561198049663931,"connected_time":2541000000000,"state":"active","ping":59},{"user_id":250,"name":"Psycho","steam_id":76561198084918608,"connected_time":749000000000,"state":"active","ping":55},{"user_id":205,"name":"σsiris","steam_id":76561198050791602,"connected_time":3134000000000,"state":"active","ping":47},{"user_id":183,"name":"Balls","steam_id":76561198086400484,"connected_time":4953000000000,"state":"active","ping":80},{"user_id":238,"name":"RadialMount","steam_id":76561198063002562,"connected_time":1433000000000,"state":"active","ping":66},{"user_id":248,"name":"Bond","steam_id":76561198070654906,"connected_time":1012000000000,"state":"active","ping":55},{"user_id":232,"name":"Dragon","steam_id":76561198880628326,"connected_time":2183000000000,"state":"active","ping":59},{"user_id":241,"name":"Riel","steam_id":76561198066017633,"connected_time":1308000000000,"state":"active","ping":75},{"user_id":252,"name":"KillerQueen (he/they/she)","steam_id":76561199019399725,"connected_time":546000000000,"state":"active","ping":61},{"user_id":247,"name":"Leszy","steam_id":76561198372172135,"connected_time":1055000000000,"state":"active","ping":61},{"user_id":199,"name":"tankcom","steam_id":76561198003280485,"connected_time":3175000000000,"state":"active","ping":38},{"user_id":253,"name":"\u003eSix in swedish + y","steam_id":76561198372971096,"connected_time":529000000000,"state":"active","ping":79},{"user_id":242,"name":"doopsuiker","steam_id":76561198025916703,"connected_time":1305000000000,"state":"active","ping":71},{"user_id":254,"name":"PLUTO","steam_id":76561198312436128,"connected_time":511000000000,"state":"active","ping":119},{"user_id":225,"name":"Pyrolander","steam_id":76561198050785450,"connected_time":2480000000000,"state":"active","ping":55},{"user_id":198,"name":"glyph","steam_id":76561197980736364,"connected_time":3328000000000,"state":"active","ping":76},{"user_id":255,"name":"Little Rascal","steam_id":76561197969825907,"connected_time":492000000000,"state":"active","ping":57},{"user_id":244,"name":"king251311","steam_id":76561199063310889,"connected_time":1297000000000,"state":"active","ping":85},{"user_id":216,"name":"Eren","steam_id":76561198180623345,"connected_time":2727000000000,"state":"active","ping":78},{"user_id":217,"name":"SİKİŞMAKİNESİ","steam_id":76561198254610075,"connected_time":2718000000000,"state":"active","ping":78},{"user_id":235,"name":"\u003c3 chunky chack *^.^* \u003c3","steam_id":76561198343506483,"connected_time":1648000000000,"state":"active","ping":91},{"user_id":239,"name":"ducks","steam_id":76561198166148685,"connected_time":1327000000000,"state":"active","ping":46},{"user_id":256,"name":"Wattseyy","steam_id":76561198248567360,"connected_time":426000000000,"state":"active","ping":59},{"user_id":258,"name":"tsundora | ツンドラ","steam_id":76561198086997247,"connected_time":152000000000,"state":"active","ping":67}]},{"server_id":309,"name":"Uncletopia | Frankfurt | 4 | All Maps","name_short":"frk-4","host":"frk-1.de.uncletopia.com","port":27045,"enabled":true,"region":"eu","cc":"de","latitude":50.110924,"longitude":8.682127,"reserved":0,"last_update":"0001-01-01T00:00:00Z","name_a2s":"Uncletopia | Frankfurt | 4 | All Maps","protocol":17,"map":"pl_snowycoast","folder":"tf","game":"Team Fortress","app_id":440,"player_count":21,"max_players":24,"Bots":0,"server_type":"Dedicated","server_os":"Linux","password":true,"vac":true,"version":"7757534","steam_id":85568392924504275,"keywords":["nocrits","nodmgspread","payload","uncletopia"],"game_id":440,"stv_port":27046,"stv_name":"Uncletopia | Frankfurt | 4 | All Maps | STV","players":[{"user_id":137,"name":"WhyDoIFeed?","steam_id":76561198003117441,"connected_time":261000000000,"state":"active","ping":45},{"user_id":138,"name":"mèx","steam_id":76561197975951572,"connected_time":234000000000,"state":"active","ping":60},{"user_id":139,"name":"Spajro","steam_id":76561198257383813,"connected_time":165000000000,"state":"active","ping":45},{"user_id":79,"name":"maxharmony","steam_id":76561198233819688,"connected_time":4290000000000,"state":"active","ping":83},{"user_id":135,"name":"[HOL] Solringen","steam_id":76561198003584681,"connected_time":387000000000,"state":"active","ping":69},{"user_id":140,"name":"Mr.4kb","steam_id":76561198027916127,"connected_time":118000000000,"state":"active","ping":56},{"user_id":141,"name":"Nag","steam_id":76561197970488206,"connected_time":80000000000,"state":"active","ping":85},{"user_id":78,"name":"generic alias","steam_id":76561198271607226,"connected_time":4605000000000,"state":"active","ping":98},{"user_id":120,"name":"123","steam_id":76561198113733477,"connected_time":1075000000000,"state":"active","ping":60},{"user_id":143,"name":"Roe Jogan","steam_id":76561198871991529,"connected_time":19000000000,"state":"spawning","ping":83},{"user_id":142,"name":"Michael","steam_id":76561198003146906,"connected_time":52000000000,"state":"active","ping":63},{"user_id":126,"name":"Jin","steam_id":76561198248878364,"connected_time":841000000000,"state":"active","ping":45},{"user_id":144,"name":"scroted sigma freud","steam_id":76561198162462063,"connected_time":13000000000,"state":"spawning","ping":53},{"user_id":89,"name":"cloud","steam_id":76561198179768931,"connected_time":3379000000000,"state":"active","ping":45},{"user_id":93,"name":"Joe * tf2cases.com","steam_id":76561198061717026,"connected_time":3113000000000,"state":"active","ping":54},{"user_id":129,"name":"Srebrny","steam_id":76561198874309787,"connected_time":647000000000,"state":"active","ping":82},{"user_id":112,"name":"wasto-/-™","steam_id":76561198102888038,"connected_time":1688000000000,"state":"active","ping":47},{"user_id":110,"name":"yoursbzt","steam_id":76561198201866574,"connected_time":1867000000000,"state":"active","ping":84},{"user_id":128,"name":"Okacha","steam_id":76561198341166854,"connected_time":697000000000,"state":"active","ping":96},{"user_id":117,"name":"Almaynax","steam_id":76561198039757994,"connected_time":1418000000000,"state":"active","ping":92},{"user_id":132,"name":"JIMMY  fakin POHUISON","steam_id":76561198412980333,"connected_time":551000000000,"state":"active","ping":75}]},{"server_id":310,"name":"Uncletopia | Frankfurt | 5 | All Maps","name_short":"frk-5","host":"frk-1.de.uncletopia.com","port":27055,"enabled":true,"region":"eu","cc":"de","latitude":50.110924,"longitude":8.682127,"reserved":0,"last_update":"0001-01-01T00:00:00Z","name_a2s":"Uncletopia | Frankfurt | 5 | All Maps","protocol":17,"map":"pl_pier","folder":"tf","game":"Team Fortress","app_id":440,"player_count":24,"max_players":24,"Bots":0,"server_type":"Dedicated","server_os":"Linux","password":true,"vac":true,"version":"7757534","steam_id":85568392924504277,"keywords":["nocrits","nodmgspread","payload","uncletopia"],"game_id":440,"stv_port":27056,"stv_name":"Uncletopia | Frankfurt | 5 | All Maps | STV","players":[{"user_id":235,"name":"alvinulv","steam_id":76561198024487177,"connected_time":412000000000,"state":"active","ping":61},{"user_id":229,"name":"Mikeshowsha","steam_id":76561199114014127,"connected_time":863000000000,"state":"active","ping":67},{"user_id":225,"name":"cazzoneporcodio","steam_id":76561198337994909,"connected_time":1175000000000,"state":"active","ping":75},{"user_id":234,"name":"ДОВИТОФФ","steam_id":76561198313372925,"connected_time":423000000000,"state":"active","ping":68},{"user_id":237,"name":"Klinmir","steam_id":76561198352339376,"connected_time":380000000000,"state":"active","ping":94},{"user_id":238,"name":"Mr Manager","steam_id":76561198021775885,"connected_time":343000000000,"state":"active","ping":49},{"user_id":160,"name":"Pilaarius","steam_id":76561198120273212,"connected_time":4627000000000,"state":"active","ping":84},{"user_id":239,"name":"Zatusrex","steam_id":76561198104147805,"connected_time":340000000000,"state":"active","ping":75},{"user_id":216,"name":"jameso","steam_id":76561198064042970,"connected_time":1971000000000,"state":"active","ping":68},{"user_id":243,"name":"Hasamnas","steam_id":76561199125038537,"connected_time":255000000000,"state":"active","ping":54},{"user_id":170,"name":"Louki","steam_id":76561198150080041,"connected_time":4108000000000,"state":"active","ping":60},{"user_id":136,"name":"im so silly XD  :333","steam_id":76561198058012525,"connected_time":7236000000000,"state":"active","ping":80},{"user_id":210,"name":"Carry Krypl","steam_id":76561198136938121,"connected_time":2163000000000,"state":"active","ping":59},{"user_id":203,"name":"Vershal Smershal","steam_id":76561198116223995,"connected_time":2550000000000,"state":"active","ping":64},{"user_id":236,"name":"kamp","steam_id":76561198068937285,"connected_time":399000000000,"state":"active","ping":60},{"user_id":230,"name":"profreshional cactus","steam_id":76561198837919828,"connected_time":861000000000,"state":"active","ping":112},{"user_id":244,"name":"mcdonaldburger54@yahoo.com","steam_id":76561198846982793,"connected_time":46000000000,"state":"active","ping":61},{"user_id":241,"name":"Monkey Boss","steam_id":76561198249012916,"connected_time":324000000000,"state":"active","ping":60},{"user_id":242,"name":"Thors","steam_id":76561197968739075,"connected_time":290000000000,"state":"active","ping":50},{"user_id":217,"name":"the foe","steam_id":76561198065743977,"connected_time":1969000000000,"state":"active","ping":63},{"user_id":206,"name":"plazma","steam_id":76561198886594048,"connected_time":2362000000000,"state":"active","ping":102},{"user_id":207,"name":"Mi Manchi","steam_id":76561198171573129,"connected_time":2276000000000,"state":"active","ping":60},{"user_id":221,"name":"Kvicha Kvaratskhelia","steam_id":76561198179339326,"connected_time":1562000000000,"state":"active","ping":82},{"user_id":233,"name":"Deva Path","steam_id":76561198085763542,"connected_time":615000000000,"state":"active","ping":79}]},{"server_id":311,"name":"Uncletopia | Frankfurt | 6 | All Maps","name_short":"frk-6","host":"frk-1.de.uncletopia.com","port":27065,"enabled":true,"region":"eu","cc":"de","latitude":50.110924,"longitude":8.682127,"reserved":0,"last_update":"0001-01-01T00:00:00Z","name_a2s":"Uncletopia | Frankfurt | 6 | All Maps","protocol":17,"map":"pl_pier","folder":"tf","game":"Team Fortress","app_id":440,"player_count":24,"max_players":24,"Bots":0,"server_type":"Dedicated","server_os":"Linux","password":true,"vac":true,"version":"7757534","steam_id":85568392924504278,"keywords":["nocrits","nodmgspread","payload","uncletopia"],"game_id":440,"stv_port":27066,"stv_name":"Uncletopia | Frankfurt | 6 | All Maps | STV","players":[{"user_id":59,"name":"Medvenator","steam_id":76561198014759767,"connected_time":435000000000,"state":"active","ping":60},{"user_id":36,"name":"markus","steam_id":76561198186791643,"connected_time":1000000000000,"state":"active","ping":75},{"user_id":17,"name":"The voice in your head","steam_id":76561198848650365,"connected_time":4743000000000,"state":"active","ping":89},{"user_id":58,"name":"gamerbot106","steam_id":76561198832917810,"connected_time":589000000000,"state":"active","ping":152},{"user_id":37,"name":"frosty","steam_id":76561198094560834,"connected_time":944000000000,"state":"active","ping":60},{"user_id":64,"name":"Bubz","steam_id":76561199013499631,"connected_time":75000000000,"state":"active","ping":160},{"user_id":39,"name":"dOni","steam_id":76561198257223353,"connected_time":909000000000,"state":"active","ping":75},{"user_id":40,"name":"FADe","steam_id":76561197960400908,"connected_time":906000000000,"state":"active","ping":59},{"user_id":47,"name":"sn0w;","steam_id":76561198804021899,"connected_time":797000000000,"state":"active","ping":76},{"user_id":41,"name":"weed fairy","steam_id":76561197998843096,"connected_time":900000000000,"state":"active","ping":69},{"user_id":44,"name":"Adrenaline","steam_id":76561197970852048,"connected_time":869000000000,"state":"active","ping":63},{"user_id":33,"name":"Drekadóttir","steam_id":76561198119979169,"connected_time":1311000000000,"state":"active","ping":70},{"user_id":65,"name":"Oxer","steam_id":76561198055942412,"connected_time":41000000000,"state":"active","ping":91},{"user_id":53,"name":"Cosmetic brain","steam_id":76561198055936410,"connected_time":735000000000,"state":"active","ping":90},{"user_id":45,"name":"Hilldog","steam_id":76561198082209322,"connected_time":860000000000,"state":"active","ping":107},{"user_id":46,"name":"benifis163","steam_id":76561198420973492,"connected_time":832000000000,"state":"active","ping":104},{"user_id":48,"name":"Cheers Mate!","steam_id":76561198265192382,"connected_time":796000000000,"state":"active","ping":59},{"user_id":49,"name":"multiflex","steam_id":76561198049639319,"connected_time":771000000000,"state":"active","ping":60},{"user_id":50,"name":"Finnto2205","steam_id":76561199221818118,"connected_time":765000000000,"state":"active","ping":90},{"user_id":51,"name":"20BB Raxor","steam_id":76561198239927434,"connected_time":764000000000,"state":"active","ping":98},{"user_id":63,"name":"AwterSix","steam_id":76561198042561678,"connected_time":85000000000,"state":"active","ping":55},{"user_id":66,"name":"Kendo-6","steam_id":76561198318748304,"connected_time":27000000000,"state":"active","ping":195},{"user_id":56,"name":"EastmoreRandoms.","steam_id":76561198048921203,"connected_time":701000000000,"state":"active","ping":68},{"user_id":57,"name":"kag","steam_id":76561198059813166,"connected_time":658000000000,"state":"active","ping":59}]},{"server_id":23,"name":"Uncletopia | Frankfurt | 7 | Stopwatch Beta","name_short":"frk-7","host":"frk-1.de.uncletopia.com","port":27075,"enabled":true,"region":"eu","cc":"de","latitude":50.110924,"longitude":8.682127,"reserved":0,"last_update":"0001-01-01T00:00:00Z","name_a2s":"Uncletopia | Frankfurt | 7 | Stopwatch Beta","protocol":17,"map":"pl_swiftwater_final1","folder":"tf","game":"Team Fortress","app_id":440,"player_count":0,"max_players":24,"Bots":0,"server_type":"Dedicated","server_os":"Linux","password":true,"vac":true,"version":"7757534","steam_id":85568392924742827,"keywords":["nocrits","nodmgspread","payload","uncletopia"],"game_id":440,"stv_port":27076,"stv_name":"Uncletopia | Frankfurt | 7 | Stopwatch Beta | STV","players":null},{"server_id":24,"name":"Uncletopia | Frankfurt | 8 | Community","name_short":"frk-8","host":"frk-1.de.uncletopia.com","port":27085,"enabled":true,"region":"eu","cc":"de","latitude":50.110924,"longitude":8.682127,"reserved":0,"last_update":"0001-01-01T00:00:00Z","name_a2s":"Uncletopia | Frankfurt | 8 | Community","protocol":17,"map":"koth_viaduct","folder":"tf","game":"Team Fortress","app_id":440,"player_count":0,"max_players":24,"Bots":0,"server_type":"Dedicated","server_os":"Linux","password":true,"vac":true,"version":"7757534","steam_id":85568392924742828,"keywords":["cp","nocrits","nodmgspread","uncletopia"],"game_id":440,"stv_port":27086,"stv_name":"Uncletopia | Frankfurt | 8 | Community | STV","players":null},{"server_id":202,"name":"Uncletopia | Hong Kong | 1 | All Maps","name_short":"hgk-1","host":"hgk-1.hk.uncletopia.com","port":27015,"enabled":true,"region":"asia","cc":"hk","latitude":22.302711,"longitude":114.177216,"reserved":0,"last_update":"0001-01-01T00:00:00Z","name_a2s":"Uncletopia | Hong Kong | 1 | All Maps","protocol":17,"map":"cp_process_final","folder":"tf","game":"Team Fortress","app_id":440,"player_count":0,"max_players":24,"Bots":0,"server_type":"Dedicated","server_os":"Linux","password":true,"vac":true,"version":"7757534","steam_id":85568392924494504,"keywords":["cp","nocrits","nodmgspread","uncletopia"],"game_id":440,"stv_port":27016,"stv_name":"Uncletopia | Hong Kong | 1 | All Maps | STV","players":null},{"server_id":1,"name":"Uncletopia | Los Angeles | 1 | All Maps","name_short":"lax-1","host":"lax-1.us.uncletopia.com","port":27015,"enabled":true,"region":"us-west","cc":"us","latitude":33.94279,"longitude":-118.41004,"reserved":0,"last_update":"0001-01-01T00:00:00Z","name_a2s":"Uncletopia | Los Angeles | 1 | All Maps","protocol":17,"map":"koth_lakeside_final","folder":"tf","game":"Team Fortress","app_id":440,"player_count":2,"max_players":24,"Bots":0,"server_type":"Dedicated","server_os":"Linux","password":true,"vac":true,"version":"7757534","steam_id":85568392924469991,"keywords":["cp","nocrits","nodmgspread","uncletopia"],"game_id":440,"stv_port":27016,"stv_name":"Uncletopia | Los Angeles | 1 | All Maps | STV","players":[{"user_id":7,"name":"Golden.mp3","steam_id":76561199062764883,"connected_time":1359000000000,"state":"active","ping":51},{"user_id":9,"name":"Jhon Xina","steam_id":76561198411174051,"connected_time":236000000000,"state":"active","ping":75}]},{"server_id":112,"name":"Uncletopia | Los Angeles | 2 | All Maps","name_short":"lax-2","host":"lax-1.us.uncletopia.com","port":27025,"enabled":true,"region":"us-west","cc":"us","latitude":33.94279,"longitude":-118.41004,"reserved":0,"last_update":"0001-01-01T00:00:00Z","name_a2s":"Uncletopia | Los Angeles | 2 | All Maps","protocol":17,"map":"koth_viaduct","folder":"tf","game":"Team Fortress","app_id":440,"player_count":1,"max_players":24,"Bots":0,"server_type":"Dedicated","server_os":"Linux","password":true,"vac":true,"version":"7757534","steam_id":85568392924469992,"keywords":["cp","nocrits","nodmgspread","uncletopia"],"game_id":440,"stv_port":27026,"stv_name":"Uncletopia | Los Angeles | 2 | All Maps | STV","players":[{"user_id":4,"name":"Warriorbuilds3","steam_id":76561199214713674,"connected_time":14000000000,"state":"spawning","ping":59}]},{"server_id":324,"name":"Uncletopia | Los Angeles | 3 | All Maps","name_short":"lax-3","host":"lax-1.us.uncletopia.com","port":27035,"enabled":true,"region":"us-west","cc":"us","latitude":33.94279,"longitude":-118.41004,"reserved":0,"last_update":"0001-01-01T00:00:00Z","name_a2s":"Uncletopia | Los Angeles | 3 | All Maps","protocol":17,"map":"cp_altitude","folder":"tf","game":"Team Fortress","app_id":440,"player_count":0,"max_players":24,"Bots":0,"server_type":"Dedicated","server_os":"Linux","password":true,"vac":true,"version":"7757534","steam_id":85568392924510198,"keywords":["cp","nocrits","nodmgspread","uncletopia"],"game_id":440,"stv_port":27036,"stv_name":"Uncletopia | Los Angeles | 3 | All Maps | STV","players":null},{"server_id":25,"name":"Uncletopia | Los Angeles | 4 | Stopwatch Beta","name_short":"lax-4","host":"lax-1.us.uncletopia.com","port":27045,"enabled":true,"region":"us-west","cc":"us","latitude":33.94279,"longitude":-118.41004,"reserved":0,"last_update":"0001-01-01T00:00:00Z","name_a2s":"Uncletopia | Los Angeles | 4 | Stopwatch Beta","protocol":17,"map":"cp_dustbowl","folder":"tf","game":"Team Fortress","app_id":440,"player_count":0,"max_players":24,"Bots":0,"server_type":"Dedicated","server_os":"Linux","password":true,"vac":true,"version":"7757534","steam_id":85568392924510199,"keywords":["cp","nocrits","nodmgspread","uncletopia"],"game_id":440,"stv_port":27046,"stv_name":"Uncletopia | Los Angeles | 4 | Stopwatch Beta | STV","players":null},{"server_id":11,"name":"Uncletopia | London | 1 | All Maps","name_short":"lon-1","host":"lon-1.uk.uncletopia.com","port":27015,"enabled":true,"region":"eu","cc":"gb","latitude":51.509865,"longitude":-0.118092,"reserved":0,"last_update":"0001-01-01T00:00:00Z","name_a2s":"Uncletopia | London | 1 | All Maps","protocol":17,"map":"pl_barnblitz","folder":"tf","game":"Team Fortress","app_id":440,"player_count":24,"max_players":24,"Bots":0,"server_type":"Dedicated","server_os":"Linux","password":true,"vac":true,"version":"7757534","steam_id":85568392924367362,"keywords":["nocrits","nodmgspread","payload","uncletopia"],"game_id":440,"stv_port":27016,"stv_name":"Uncletopia | London | 1 | All Maps | STV","players":[{"user_id":501,"name":"trite","steam_id":76561197983765323,"connected_time":1448000000000,"state":"active","ping":51},{"user_id":524,"name":"Tearow","steam_id":76561198171248926,"connected_time":199000000000,"state":"active","ping":69},{"user_id":433,"name":"robsan","steam_id":76561198137375391,"connected_time":6278000000000,"state":"active","ping":80},{"user_id":394,"name":"Hegyi tahó F2P","steam_id":76561199219150356,"connected_time":7706000000000,"state":"active","ping":76},{"user_id":439,"name":"British Disapproval","steam_id":76561198001375260,"connected_time":5664000000000,"state":"active","ping":56},{"user_id":522,"name":"cockwater","steam_id":76561198209101861,"connected_time":249000000000,"state":"active","ping":74},{"user_id":515,"name":"Luk3","steam_id":76561198340519063,"connected_time":487000000000,"state":"active","ping":59},{"user_id":384,"name":"[waffles]","steam_id":76561198951206047,"connected_time":8073000000000,"state":"active","ping":85},{"user_id":498,"name":"QuorglepleegJR","steam_id":76561198984658438,"connected_time":1891000000000,"state":"active","ping":45},{"user_id":477,"name":"AiRBiscuiT","steam_id":76561198348655114,"connected_time":3155000000000,"state":"active","ping":51},{"user_id":502,"name":"MalatodiMenta","steam_id":76561198070370194,"connected_time":1410000000000,"state":"active","ping":67},{"user_id":495,"name":"dec","steam_id":76561198009660168,"connected_time":1948000000000,"state":"active","ping":53},{"user_id":387,"name":"{waffle toaster}","steam_id":76561199233664005,"connected_time":7983000000000,"state":"active","ping":80},{"user_id":511,"name":"Aaron","steam_id":76561197990046953,"connected_time":746000000000,"state":"active","ping":69},{"user_id":521,"name":"bug shooter","steam_id":76561198133532980,"connected_time":260000000000,"state":"active","ping":45},{"user_id":525,"name":"Enforcer02","steam_id":76561197966045944,"connected_time":39000000000,"state":"active","ping":53},{"user_id":496,"name":"Sorky","steam_id":76561198007502339,"connected_time":1947000000000,"state":"active","ping":75},{"user_id":507,"name":"ulei de motor","steam_id":76561198057308127,"connected_time":1187000000000,"state":"active","ping":93},{"user_id":514,"name":"ciliorkun18","steam_id":76561198228942500,"connected_time":499000000000,"state":"active","ping":90},{"user_id":517,"name":"Thalgorock","steam_id":76561198195315022,"connected_time":484000000000,"state":"active","ping":69},{"user_id":518,"name":"S'all good, man","steam_id":76561198363882056,"connected_time":453000000000,"state":"active","ping":44},{"user_id":523,"name":"quake 2 hater","steam_id":76561198101451654,"connected_time":238000000000,"state":"active","ping":51},{"user_id":379,"name":"Joseph Stalin","steam_id":76561198033199746,"connected_time":8712000000000,"state":"active","ping":47},{"user_id":459,"name":"LOBZIK","steam_id":76561198114830120,"connected_time":4479000000000,"state":"active","ping":77}]},{"server_id":114,"name":"Uncletopia | London | 2 | All Maps","name_short":"lon-2","host":"lon-1.uk.uncletopia.com","port":27025,"enabled":true,"region":"eu","cc":"gb","latitude":51.509865,"longitude":-0.118092,"reserved":0,"last_update":"0001-01-01T00:00:00Z","name_a2s":"Uncletopia | London | 2 | All Maps","protocol":17,"map":"cp_steel","folder":"tf","game":"Team Fortress","app_id":440,"player_count":16,"max_players":24,"Bots":0,"server_type":"Dedicated","server_os":"Linux","password":true,"vac":true,"version":"7757534","steam_id":85568392924470941,"keywords":["cp","nocrits","nodmgspread","uncletopia"],"game_id":440,"stv_port":27026,"stv_name":"Uncletopia | London | 2 | All Maps | STV","players":[{"user_id":274,"name":"Tort","steam_id":76561198329646769,"connected_time":163000000000,"state":"active","ping":259},{"user_id":265,"name":"Koalified","steam_id":76561198095350290,"connected_time":2081000000000,"state":"active","ping":181},{"user_id":272,"name":"Purps","steam_id":76561198053886680,"connected_time":184000000000,"state":"active","ping":49},{"user_id":275,"name":"Boyarishnik","steam_id":76561198986324207,"connected_time":33000000000,"state":"active","ping":89},{"user_id":273,"name":"Jibus Chritz [UA]","steam_id":76561199050751529,"connected_time":178000000000,"state":"active","ping":79},{"user_id":264,"name":"Nobaddy","steam_id":76561198037871007,"connected_time":2121000000000,"state":"active","ping":84},{"user_id":238,"name":"Caro-Kann","steam_id":76561198065506317,"connected_time":4694000000000,"state":"active","ping":73},{"user_id":253,"name":"Tomau5","steam_id":76561198027409468,"connected_time":2973000000000,"state":"active","ping":54},{"user_id":271,"name":"Adopted?","steam_id":76561198118667043,"connected_time":698000000000,"state":"active","ping":52},{"user_id":248,"name":"Uncle Owen","steam_id":76561198157999291,"connected_time":3198000000000,"state":"active","ping":85},{"user_id":267,"name":"Meddler","steam_id":76561198033001402,"connected_time":1448000000000,"state":"active","ping":44},{"user_id":268,"name":"Fridge","steam_id":76561198071665589,"connected_time":1091000000000,"state":"active","ping":100},{"user_id":242,"name":"Grillem Dafoe","steam_id":76561198306874574,"connected_time":4498000000000,"state":"active","ping":59},{"user_id":237,"name":"goblin","steam_id":76561198151122921,"connected_time":4739000000000,"state":"active","ping":74},{"user_id":258,"name":"☭ybercat","steam_id":76561198014070417,"connected_time":2723000000000,"state":"active","ping":63},{"user_id":257,"name":"Benny the Ball","steam_id":76561198043104532,"connected_time":2826000000000,"state":"active","ping":44}]},{"server_id":320,"name":"Uncletopia | London | 3 | All Maps","name_short":"lon-3","host":"lon-1.uk.uncletopia.com","port":27035,"enabled":true,"region":"eu","cc":"gb","latitude":51.509865,"longitude":-0.118092,"reserved":0,"last_update":"0001-01-01T00:00:00Z","name_a2s":"Uncletopia | London | 3 | All Maps","protocol":17,"map":"cp_steel","folder":"tf","game":"Team Fortress","app_id":440,"player_count":22,"max_players":24,"Bots":0,"server_type":"Dedicated","server_os":"Linux","password":true,"vac":true,"version":"7757534","steam_id":85568392924510192,"keywords":["cp","nocrits","nodmgspread","uncletopia"],"game_id":440,"stv_port":27036,"stv_name":"Uncletopia | London | 3 | All Maps | STV","players":[{"user_id":139,"name":"♥ TRANS RIGHTS ♥","steam_id":76561198066258544,"connected_time":2821000000000,"state":"active","ping":62},{"user_id":172,"name":"Saser","steam_id":76561198070438914,"connected_time":56000000000,"state":"active","ping":75},{"user_id":121,"name":"Malabar","steam_id":76561198026857959,"connected_time":3643000000000,"state":"active","ping":61},{"user_id":111,"name":"Weenie Hut Jr's","steam_id":76561198050515739,"connected_time":4168000000000,"state":"active","ping":47},{"user_id":149,"name":"Relix18144","steam_id":76561199202454318,"connected_time":2189000000000,"state":"active","ping":73},{"user_id":169,"name":"Zonts","steam_id":76561198850176432,"connected_time":378000000000,"state":"active","ping":82},{"user_id":171,"name":"Poodle","steam_id":76561198015483504,"connected_time":105000000000,"state":"active","ping":86},{"user_id":173,"name":"zvekan","steam_id":76561198381101196,"connected_time":25000000000,"state":"active","ping":72},{"user_id":152,"name":"zaleek69","steam_id":76561198058877595,"connected_time":1509000000000,"state":"active","ping":80},{"user_id":168,"name":"Salih","steam_id":76561198287934839,"connected_time":570000000000,"state":"active","ping":60},{"user_id":120,"name":"V","steam_id":76561199006462039,"connected_time":3852000000000,"state":"active","ping":70},{"user_id":138,"name":"bussy overload","steam_id":76561198413545609,"connected_time":2914000000000,"state":"active","ping":47},{"user_id":123,"name":"Forgetful","steam_id":76561198147445965,"connected_time":3561000000000,"state":"active","ping":49},{"user_id":161,"name":"Minimi","steam_id":76561198873850443,"connected_time":927000000000,"state":"active","ping":45},{"user_id":128,"name":"darktheif54","steam_id":76561198043650119,"connected_time":3388000000000,"state":"active","ping":55},{"user_id":125,"name":"rob","steam_id":76561198122211848,"connected_time":3527000000000,"state":"active","ping":91},{"user_id":174,"name":"beurgeur","steam_id":76561198872426314,"connected_time":11000000000,"state":"active","ping":36},{"user_id":162,"name":"koca kolahan","steam_id":76561199033153779,"connected_time":907000000000,"state":"active","ping":86},{"user_id":154,"name":"steakman10","steam_id":76561198152584691,"connected_time":1465000000000,"state":"active","ping":70},{"user_id":132,"name":"Pinkchup","steam_id":76561198106802803,"connected_time":3251000000000,"state":"active","ping":75},{"user_id":145,"name":"=PB=","steam_id":76561197999146612,"connected_time":2762000000000,"state":"active","ping":40},{"user_id":155,"name":"pezza","steam_id":76561197995173247,"connected_time":1455000000000,"state":"active","ping":55}]},{"server_id":321,"name":"Uncletopia | London | 4 | All Maps","name_short":"lon-4","host":"lon-1.uk.uncletopia.com","port":27045,"enabled":true,"region":"eu","cc":"gb","latitude":51.509865,"longitude":-0.118092,"reserved":0,"last_update":"0001-01-01T00:00:00Z","name_a2s":"Uncletopia | London | 4 | All Maps","protocol":17,"map":"pl_snowycoast","folder":"tf","game":"Team Fortress","app_id":440,"player_count":24,"max_players":24,"Bots":0,"server_type":"Dedicated","server_os":"Linux","password":true,"vac":true,"version":"7757534","steam_id":85568392924510193,"keywords":["nocrits","nodmgspread","payload","uncletopia"],"game_id":440,"stv_port":27046,"stv_name":"Uncletopia | London | 4 | All Maps | STV","players":[{"user_id":123,"name":"X-tis","steam_id":76561198043837480,"connected_time":4401000000000,"state":"active","ping":62},{"user_id":175,"name":"paranoia","steam_id":76561198274105878,"connected_time":372000000000,"state":"active","ping":87},{"user_id":125,"name":"Dr. Uberschwein","steam_id":76561198111367431,"connected_time":4165000000000,"state":"active","ping":70},{"user_id":181,"name":"Kaek","steam_id":76561197960283484,"connected_time":178000000000,"state":"active","ping":78},{"user_id":116,"name":"๖ۣۜSir Robbiewolf","steam_id":76561198001357988,"connected_time":5212000000000,"state":"active","ping":69},{"user_id":176,"name":"Craig Crusade","steam_id":76561199225918086,"connected_time":369000000000,"state":"active","ping":60},{"user_id":170,"name":"Boil em mash em","steam_id":76561198026508026,"connected_time":1115000000000,"state":"active","ping":66},{"user_id":164,"name":"Regan","steam_id":76561198100631086,"connected_time":1648000000000,"state":"active","ping":57},{"user_id":102,"name":"FoOzTV","steam_id":76561197998636728,"connected_time":7323000000000,"state":"active","ping":70},{"user_id":122,"name":"PizzaPete123","steam_id":76561198089478290,"connected_time":4543000000000,"state":"active","ping":38},{"user_id":177,"name":"Egap","steam_id":76561199070653454,"connected_time":361000000000,"state":"active","ping":100},{"user_id":151,"name":"Bodhi","steam_id":76561198000606642,"connected_time":2386000000000,"state":"active","ping":58},{"user_id":163,"name":"LemonLeCitron","steam_id":76561198215545267,"connected_time":1668000000000,"state":"active","ping":69},{"user_id":157,"name":"Spetse","steam_id":76561197990649972,"connected_time":2024000000000,"state":"active","ping":84},{"user_id":154,"name":"Ender w","steam_id":76561198160747515,"connected_time":2101000000000,"state":"active","ping":85},{"user_id":178,"name":"Krim","steam_id":76561199070070579,"connected_time":264000000000,"state":"active","ping":68},{"user_id":167,"name":"Pepegi","steam_id":76561198001230113,"connected_time":1280000000000,"state":"active","ping":87},{"user_id":137,"name":"owlsie","steam_id":76561198094883280,"connected_time":3674000000000,"state":"active","ping":63},{"user_id":182,"name":"MAKENTAKEN","steam_id":76561199127359587,"connected_time":25000000000,"state":"active","ping":102},{"user_id":130,"name":"a fresh pan of lemon squares","steam_id":76561197984071376,"connected_time":3842000000000,"state":"active","ping":66},{"user_id":149,"name":"Sunchouse","steam_id":76561198453479806,"connected_time":2613000000000,"state":"active","ping":87},{"user_id":109,"name":"Fat Pigeon","steam_id":76561198817940142,"connected_time":6370000000000,"state":"active","ping":49},{"user_id":179,"name":"Egor Pomidor","steam_id":76561199175688390,"connected_time":199000000000,"state":"active","ping":86},{"user_id":180,"name":"tone","steam_id":76561197975301462,"connected_time":193000000000,"state":"active","ping":68}]},{"server_id":21,"name":"Uncletopia | London | 5 | All Maps","name_short":"lon-5","host":"lon-1.uk.uncletopia.com","port":27055,"enabled":true,"region":"eu","cc":"gb","latitude":51.509865,"longitude":-0.118092,"reserved":0,"last_update":"0001-01-01T00:00:00Z","name_a2s":"Uncletopia | London | 5 | All Maps","protocol":17,"map":"pl_pier","folder":"tf","game":"Team Fortress","app_id":440,"player_count":0,"max_players":24,"Bots":0,"server_type":"Dedicated","server_os":"Linux","password":true,"vac":true,"version":"7757534","steam_id":85568392924742829,"keywords":["nocrits","nodmgspread","payload","uncletopia"],"game_id":440,"stv_port":27056,"stv_name":"Uncletopia | London | 5 | All Maps | STV","players":null},{"server_id":22,"name":"Uncletopia | London | 6 | All Maps","name_short":"lon-6","host":"lon-1.uk.uncletopia.com","port":27065,"enabled":true,"region":"eu","cc":"gb","latitude":51.509865,"longitude":-0.118092,"reserved":0,"last_update":"0001-01-01T00:00:00Z","name_a2s":"Uncletopia | London | 6 | All Maps","protocol":17,"map":"cp_process_final","folder":"tf","game":"Team Fortress","app_id":440,"player_count":23,"max_players":24,"Bots":0,"server_type":"Dedicated","server_os":"Linux","password":true,"vac":true,"version":"7757534","steam_id":85568392924742830,"keywords":["cp","nocrits","nodmgspread","uncletopia"],"game_id":440,"stv_port":27066,"stv_name":"Uncletopia | London | 6 | All Maps | STV","players":[{"user_id":147,"name":"teddyswk","steam_id":76561198404939571,"connected_time":970000000000,"state":"active","ping":86},{"user_id":89,"name":"Mr. Mundy","steam_id":76561198132008918,"connected_time":4412000000000,"state":"active","ping":84},{"user_id":133,"name":"Posture Check","steam_id":76561198053897197,"connected_time":1890000000000,"state":"active","ping":44},{"user_id":142,"name":"Rocket","steam_id":76561198041017880,"connected_time":1165000000000,"state":"active","ping":62},{"user_id":154,"name":"CalThePal","steam_id":76561198084842126,"connected_time":435000000000,"state":"active","ping":48},{"user_id":114,"name":"Sigma","steam_id":76561199088506542,"connected_time":2922000000000,"state":"active","ping":60},{"user_id":151,"name":"Mike","steam_id":76561198203070687,"connected_time":573000000000,"state":"active","ping":58},{"user_id":103,"name":"Redkiller","steam_id":76561199453655288,"connected_time":3425000000000,"state":"active","ping":127},{"user_id":155,"name":"Silverowl","steam_id":76561198045773877,"connected_time":413000000000,"state":"active","ping":61},{"user_id":88,"name":"mt","steam_id":76561197961319303,"connected_time":4607000000000,"state":"active","ping":48},{"user_id":140,"name":"hatsune miku","steam_id":76561198069649097,"connected_time":1545000000000,"state":"active","ping":52},{"user_id":148,"name":"Government Hooker","steam_id":76561198005361358,"connected_time":969000000000,"state":"active","ping":47},{"user_id":156,"name":"Videogamer","steam_id":76561198106012909,"connected_time":317000000000,"state":"active","ping":79},{"user_id":136,"name":"Big Balls Bill","steam_id":76561198045998627,"connected_time":1760000000000,"state":"active","ping":48},{"user_id":158,"name":"balanced diet","steam_id":76561198240320806,"connected_time":180000000000,"state":"active","ping":75},{"user_id":138,"name":"fusion","steam_id":76561198059738176,"connected_time":1737000000000,"state":"active","ping":49},{"user_id":55,"name":"Hexagon","steam_id":76561198151205758,"connected_time":6212000000000,"state":"active","ping":62},{"user_id":149,"name":"big al","steam_id":76561198800662675,"connected_time":897000000000,"state":"active","ping":77},{"user_id":144,"name":"Welder","steam_id":76561198355300561,"connected_time":1146000000000,"state":"active","ping":66},{"user_id":159,"name":"E1s (Neo-Kemalist)","steam_id":76561198894958917,"connected_time":134000000000,"state":"connecting","ping":0},{"user_id":84,"name":"KingTeddy","steam_id":76561198131757499,"connected_time":4912000000000,"state":"active","ping":84},{"user_id":102,"name":"Udinese Dion","steam_id":76561198067931573,"connected_time":3515000000000,"state":"active","ping":61},{"user_id":160,"name":"FLYING DWARF","steam_id":76561199048614286,"connected_time":42000000000,"state":"spawning","ping":138}]},{"server_id":40,"name":"Uncletopia | London | 7 | No Payload","name_short":"lon-7","host":"lon-1.uk.uncletopia.com","port":27075,"enabled":true,"region":"eu","cc":"gb","latitude":51.509865,"longitude":-0.118092,"reserved":0,"last_update":"0001-01-01T00:00:00Z","name_a2s":"Uncletopia | London | 7 | No Payload","protocol":17,"map":"koth_highpass","folder":"tf","game":"Team Fortress","app_id":440,"player_count":0,"max_players":24,"Bots":0,"server_type":"Dedicated","server_os":"Linux","password":true,"vac":true,"version":"7757534","steam_id":85568392924964314,"keywords":["cp","nocrits","nodmgspread","uncletopia"],"game_id":440,"stv_port":27076,"stv_name":"Uncletopia | London | 7 | No Payload | STV","players":null},{"server_id":41,"name":"Uncletopia | London | 8 | Community","name_short":"lon-8","host":"lon-1.uk.uncletopia.com","port":27085,"enabled":true,"region":"eu","cc":"gb","latitude":51.509865,"longitude":-0.118092,"reserved":0,"last_update":"0001-01-01T00:00:00Z","name_a2s":"Uncletopia | London | 8 | Community","protocol":17,"map":"cp_altitude","folder":"tf","game":"Team Fortress","app_id":440,"player_count":0,"max_players":24,"Bots":0,"server_type":"Dedicated","server_os":"Linux","password":true,"vac":true,"version":"7757534","steam_id":85568392924964315,"keywords":["cp","nocrits","nodmgspread","uncletopia"],"game_id":440,"stv_port":27086,"stv_name":"Uncletopia | London | 8 | Community | STV","players":null},{"server_id":300,"name":"Uncletopia | Montréal | 1 | All Maps","name_short":"mtl-1","host":"mtl-1.ca.uncletopia.com","port":27015,"enabled":true,"region":"us-east","cc":"ca","latitude":45.50889,"longitude":-73.56167,"reserved":0,"last_update":"0001-01-01T00:00:00Z","name_a2s":"Uncletopia | Montréal | 1 | All Maps","protocol":17,"map":"pl_pier","folder":"tf","game":"Team Fortress","app_id":440,"player_count":0,"max_players":24,"Bots":0,"server_type":"Dedicated","server_os":"Linux","password":true,"vac":true,"version":"7757534","steam_id":85568392924500087,"keywords":["nocrits","nodmgspread","payload","uncletopia"],"game_id":440,"stv_port":27016,"stv_name":"Uncletopia | Montréal | 1 | All Maps | STV","players":null},{"server_id":301,"name":"Uncletopia | Montréal | 2 | All Maps","name_short":"mtl-2","host":"mtl-1.ca.uncletopia.com","port":27025,"enabled":true,"region":"us-east","cc":"ca","latitude":45.50889,"longitude":-73.56167,"reserved":0,"last_update":"0001-01-01T00:00:00Z","name_a2s":"Uncletopia | Montréal | 2 | All Maps","protocol":17,"map":"koth_highpass","folder":"tf","game":"Team Fortress","app_id":440,"player_count":14,"max_players":24,"Bots":0,"server_type":"Dedicated","server_os":"Linux","password":true,"vac":true,"version":"7757534","steam_id":85568392924500088,"keywords":["cp","nocrits","nodmgspread","uncletopia"],"game_id":440,"stv_port":27026,"stv_name":"Uncletopia | Montréal | 2 | All Maps | STV","players":[{"user_id":67,"name":"champion  turkey","steam_id":76561198151338482,"connected_time":437000000000,"state":"active","ping":49},{"user_id":58,"name":"a mass hallucination","steam_id":76561198259092181,"connected_time":1800000000000,"state":"active","ping":58},{"user_id":60,"name":"hotline bling","steam_id":76561198984131011,"connected_time":1209000000000,"state":"active","ping":51},{"user_id":61,"name":"Kit kyat","steam_id":76561198235786296,"connected_time":1201000000000,"state":"active","ping":80},{"user_id":42,"name":"DATONA","steam_id":76561198325164208,"connected_time":3072000000000,"state":"active","ping":84},{"user_id":63,"name":"That1nerrd","steam_id":76561199213334207,"connected_time":870000000000,"state":"active","ping":142},{"user_id":64,"name":"German_General101","steam_id":76561199214390234,"connected_time":848000000000,"state":"active","ping":141},{"user_id":65,"name":"kill me if you play tf2","steam_id":76561199218083741,"connected_time":846000000000,"state":"active","ping":138},{"user_id":66,"name":"Pepsiman","steam_id":76561198436946165,"connected_time":788000000000,"state":"active","ping":59},{"user_id":68,"name":"Professional Brohamad","steam_id":76561198824025210,"connected_time":392000000000,"state":"active","ping":61},{"user_id":70,"name":"Fujidinlo","steam_id":76561198338740580,"connected_time":107000000000,"state":"active","ping":89},{"user_id":71,"name":"rE_d0","steam_id":76561198975450630,"connected_time":84000000000,"state":"active","ping":106},{"user_id":72,"name":"Wahooka","steam_id":76561197962240925,"connected_time":4000000000,"state":"spawning","ping":52},{"user_id":48,"name":"Quailey","steam_id":76561198435292841,"connected_time":2986000000000,"state":"active","ping":99}]},{"server_id":302,"name":"Uncletopia | Montréal | 3 | All Maps","name_short":"mtl-3","host":"mtl-1.ca.uncletopia.com","port":27035,"enabled":true,"region":"us-east","cc":"ca","latitude":45.50889,"longitude":-73.56167,"reserved":0,"last_update":"0001-01-01T00:00:00Z","name_a2s":"Uncletopia | Montréal | 3 | All Maps","protocol":17,"map":"pl_frontier_final","folder":"tf","game":"Team Fortress","app_id":440,"player_count":0,"max_players":24,"Bots":0,"server_type":"Dedicated","server_os":"Linux","password":true,"vac":true,"version":"7757534","steam_id":85568392924500089,"keywords":["nocrits","nodmgspread","payload","uncletopia"],"game_id":440,"stv_port":27036,"stv_name":"Uncletopia | Montréal | 3 | All Maps | STV","players":null},{"server_id":303,"name":"Uncletopia | Montréal | 4 | No Payload","name_short":"mtl-4","host":"mtl-1.ca.uncletopia.com","port":27045,"enabled":true,"region":"us-east","cc":"ca","latitude":45.50889,"longitude":-73.56167,"reserved":0,"last_update":"0001-01-01T00:00:00Z","name_a2s":"Uncletopia | Montréal | 4 | No Payload","protocol":17,"map":"pl_pier","folder":"tf","game":"Team Fortress","app_id":440,"player_count":0,"max_players":24,"Bots":0,"server_type":"Dedicated","server_os":"Linux","password":true,"vac":true,"version":"7757534","steam_id":85568392924500090,"keywords":["nocrits","nodmgspread","payload","uncletopia"],"game_id":440,"stv_port":27046,"stv_name":"Uncletopia | Montréal | 4 | No Payload | STV","players":null},{"server_id":13,"name":"Uncletopia | New York City | 1 | All Maps","name_short":"nyc-1","host":"nyc-1.us.uncletopia.com","port":27015,"enabled":true,"region":"us-east","cc":"us","latitude":40.73061,"longitude":-73.93524,"reserved":0,"last_update":"0001-01-01T00:00:00Z","name_a2s":"Uncletopia | New York City | 1 | All Maps","protocol":17,"map":"pl_borneo","folder":"tf","game":"Team Fortress","app_id":440,"player_count":2,"max_players":24,"Bots":0,"server_type":"Dedicated","server_os":"Linux","password":true,"vac":true,"version":"7757534","steam_id":85568392924469993,"keywords":["nocrits","nodmgspread","payload","uncletopia"],"game_id":440,"stv_port":27016,"stv_name":"Uncletopia | New York City | 1 | All Maps | STV","players":[{"user_id":28,"name":"A_A","steam_id":76561199443932721,"connected_time":548000000000,"state":"active","ping":122},{"user_id":29,"name":"Average Engineer Main","steam_id":76561197999657118,"connected_time":344000000000,"state":"active","ping":205}]},{"server_id":14,"name":"Uncletopia | New York City | 2 | All Maps","name_short":"nyc-2","host":"nyc-1.us.uncletopia.com","port":27025,"enabled":true,"region":"us-east","cc":"us","latitude":40.73061,"longitude":-73.93524,"reserved":0,"last_update":"0001-01-01T00:00:00Z","name_a2s":"Uncletopia | New York City | 2 | All Maps","protocol":17,"map":"plr_hightower","folder":"tf","game":"Team Fortress","app_id":440,"player_count":0,"max_players":24,"Bots":0,"server_type":"Dedicated","server_os":"Linux","password":true,"vac":true,"version":"7757534","steam_id":85568392924469994,"keywords":["nocrits","nodmgspread","payload","uncletopia"],"game_id":440,"stv_port":27026,"stv_name":"Uncletopia | New York City | 2 | All Maps | STV","players":null},{"server_id":15,"name":"Uncletopia | New York City | 3 | Stopwatch Beta","name_short":"nyc-3","host":"nyc-1.us.uncletopia.com","port":27035,"enabled":true,"region":"us-east","cc":"us","latitude":40.73061,"longitude":-73.93524,"reserved":0,"last_update":"0001-01-01T00:00:00Z","name_a2s":"Uncletopia | New York City | 3 | Stopwatch Beta","protocol":17,"map":"koth_cascade","folder":"tf","game":"Team Fortress","app_id":440,"player_count":0,"max_players":24,"Bots":0,"server_type":"Dedicated","server_os":"Linux","password":true,"vac":true,"version":"7757534","steam_id":85568392924742820,"keywords":["cp","nocrits","nodmgspread","uncletopia"],"game_id":440,"stv_port":27036,"stv_name":"Uncletopia | New York City | 3 | Stopwatch Beta | STV","players":null},{"server_id":16,"name":"Uncletopia | New York City | 4 | Community","name_short":"nyc-4","host":"nyc-1.us.uncletopia.com","port":27045,"enabled":true,"region":"us-east","cc":"us","latitude":40.73061,"longitude":-73.93524,"reserved":0,"last_update":"0001-01-01T00:00:00Z","name_a2s":"Uncletopia | New York City | 4 | Community","protocol":17,"map":"pl_frontier_final","folder":"tf","game":"Team Fortress","app_id":440,"player_count":0,"max_players":24,"Bots":0,"server_type":"Dedicated","server_os":"Linux","password":true,"vac":true,"version":"7757534","steam_id":85568392924742821,"keywords":["nocrits","nodmgspread","payload","uncletopia"],"game_id":440,"stv_port":27046,"stv_name":"Uncletopia | New York City | 4 | Community | STV","players":null},{"server_id":142,"name":"Uncletopia | São Paulo | 1 | All Maps","name_short":"sao-1","host":"sao-1.br.uncletopia.com","port":27015,"enabled":true,"region":"sa","cc":"br","latitude":-23.533773,"longitude":-46.62529,"reserved":0,"last_update":"0001-01-01T00:00:00Z","name_a2s":"Uncletopia | São Paulo | 1 | All Maps","protocol":17,"map":"pl_badwater","folder":"tf","game":"Team Fortress","app_id":440,"player_count":0,"max_players":24,"Bots":0,"server_type":"Dedicated","server_os":"Linux","password":true,"vac":true,"version":"7757534","steam_id":85568392924469996,"keywords":["nocrits","nodmgspread","payload","uncletopia"],"game_id":440,"stv_port":27016,"stv_name":"Uncletopia | São Paulo | 1 | All Maps | STV","players":null},{"server_id":143,"name":"Uncletopia | São Paulo | 2 | All Maps","name_short":"sao-2","host":"sao-2.br.uncletopia.com","port":27015,"enabled":true,"region":"sa","cc":"br","latitude":-23.533773,"longitude":-46.62529,"reserved":0,"last_update":"0001-01-01T00:00:00Z","name_a2s":"Uncletopia | São Paulo | 2 | All Maps","protocol":17,"map":"koth_viaduct","folder":"tf","game":"Team Fortress","app_id":440,"player_count":1,"max_players":24,"Bots":0,"server_type":"Dedicated","server_os":"Linux","password":true,"vac":true,"version":"7757534","steam_id":85568392924485349,"keywords":["cp","nocrits","nodmgspread","uncletopia"],"game_id":440,"stv_port":27016,"stv_name":"Uncletopia | São Paulo | 2 | All Maps | STV","players":[{"user_id":18,"name":"siirtyaoliveira","steam_id":76561199176805537,"connected_time":44000000000,"state":"spawning","ping":126}]},{"server_id":7,"name":"Uncletopia | Seattle | 1 | All Maps","name_short":"sea-1","host":"sea-1.us.uncletopia.com","port":27015,"enabled":true,"region":"us-west","cc":"us","latitude":47.608013,"longitude":-122.33517,"reserved":0,"last_update":"0001-01-01T00:00:00Z","name_a2s":"Uncletopia | Seattle | 1 | All Maps","protocol":17,"map":"pl_upward","folder":"tf","game":"Team Fortress","app_id":440,"player_count":24,"max_players":24,"Bots":0,"server_type":"Dedicated","server_os":"Linux","password":true,"vac":true,"version":"7757534","steam_id":85568392924469997,"keywords":["nocrits","nodmgspread","payload","uncletopia"],"game_id":440,"stv_port":27016,"stv_name":"Uncletopia | Seattle | 1 | All Maps | STV","players":[{"user_id":338,"name":"slap cheeks","steam_id":76561198128285450,"connected_time":405000000000,"state":"active","ping":95},{"user_id":201,"name":"crumblejon","steam_id":76561198111273302,"connected_time":10039000000000,"state":"active","ping":75},{"user_id":313,"name":"Amish Robot","steam_id":76561198041156065,"connected_time":2400000000000,"state":"active","ping":109},{"user_id":236,"name":"Username","steam_id":76561198855586261,"connected_time":7779000000000,"state":"active","ping":62},{"user_id":325,"name":"〣dust〣 -she/it-","steam_id":76561198045218909,"connected_time":1543000000000,"state":"active","ping":40},{"user_id":309,"name":"DatFluffyPancake","steam_id":76561198271958697,"connected_time":2671000000000,"state":"active","ping":62},{"user_id":310,"name":"Dad 2","steam_id":76561198138546187,"connected_time":2599000000000,"state":"active","ping":123},{"user_id":308,"name":"bottom pride burger","steam_id":76561198322247602,"connected_time":2872000000000,"state":"active","ping":77},{"user_id":314,"name":"DrummerDiddles","steam_id":76561198327364451,"connected_time":2398000000000,"state":"active","ping":119},{"user_id":339,"name":"SpinetinglingToast","steam_id":76561198099470670,"connected_time":199000000000,"state":"active","ping":115},{"user_id":328,"name":"TheLonliestThelonius","steam_id":76561198097657243,"connected_time":1452000000000,"state":"active","ping":131},{"user_id":311,"name":"shy guy","steam_id":76561198151246059,"connected_time":2433000000000,"state":"active","ping":71},{"user_id":333,"name":"Flea103","steam_id":76561198085863864,"connected_time":780000000000,"state":"active","ping":90},{"user_id":298,"name":"Luca","steam_id":76561198125087140,"connected_time":3748000000000,"state":"active","ping":45},{"user_id":115,"name":"worker","steam_id":76561198039608940,"connected_time":16044000000000,"state":"active","ping":61},{"user_id":332,"name":"violet.gb","steam_id":76561198248461754,"connected_time":1152000000000,"state":"active","ping":84},{"user_id":330,"name":"Son of Slop","steam_id":76561198042816721,"connected_time":1290000000000,"state":"active","ping":87},{"user_id":317,"name":"MORE BOUNCE TO THE OUNCE","steam_id":76561198243399336,"connected_time":2311000000000,"state":"active","ping":77},{"user_id":181,"name":"LProduct","steam_id":76561199442139670,"connected_time":11812000000000,"state":"active","ping":80},{"user_id":335,"name":"mobe","steam_id":76561198121633820,"connected_time":708000000000,"state":"active","ping":87},{"user_id":326,"name":"Pootis_Spencer (Here)","steam_id":76561199175742075,"connected_time":1523000000000,"state":"active","ping":104},{"user_id":321,"name":"o o o o o o o o o","steam_id":76561197993757506,"connected_time":2138000000000,"state":"active","ping":75},{"user_id":318,"name":"SOBRII","steam_id":76561198077438484,"connected_time":2251000000000,"state":"active","ping":67},{"user_id":340,"name":"egyptiangodcard","steam_id":76561198855935442,"connected_time":187000000000,"state":"active","ping":64}]},{"server_id":119,"name":"Uncletopia | Seattle | 2 | All Maps","name_short":"sea-2","host":"sea-1.us.uncletopia.com","port":27025,"enabled":true,"region":"us-west","cc":"us","latitude":47.608013,"longitude":-122.33517,"reserved":0,"last_update":"0001-01-01T00:00:00Z","name_a2s":"Uncletopia | Seattle | 2 | All Maps","protocol":17,"map":"pl_borneo","folder":"tf","game":"Team Fortress","app_id":440,"player_count":24,"max_players":24,"Bots":0,"server_type":"Dedicated","server_os":"Linux","password":true,"vac":true,"version":"7757534","steam_id":85568392924469998,"keywords":["nocrits","nodmgspread","payload","uncletopia"],"game_id":440,"stv_port":27026,"stv_name":"Uncletopia | Seattle | 2 | All Maps | STV","players":[{"user_id":11,"name":"WaffleWithNoToppings","steam_id":76561199088280111,"connected_time":7638000000000,"state":"active","ping":54},{"user_id":96,"name":"Decimus","steam_id":76561198341781527,"connected_time":843000000000,"state":"active","ping":126},{"user_id":109,"name":"DesolateCabbage","steam_id":76561198064467423,"connected_time":384000000000,"state":"active","ping":109},{"user_id":93,"name":"Donkitus","steam_id":76561198101336551,"connected_time":1152000000000,"state":"active","ping":32},{"user_id":85,"name":"Healer Wolxer","steam_id":76561197999816472,"connected_time":1843000000000,"state":"active","ping":85},{"user_id":79,"name":"walterhwhite","steam_id":76561199433675789,"connected_time":2508000000000,"state":"active","ping":87},{"user_id":80,"name":"deus sex","steam_id":76561198048007844,"connected_time":2494000000000,"state":"active","ping":74},{"user_id":111,"name":"Jared","steam_id":76561198174468986,"connected_time":253000000000,"state":"active","ping":43},{"user_id":63,"name":"Kontray","steam_id":76561198294948653,"connected_time":3322000000000,"state":"active","ping":76},{"user_id":92,"name":"Icy","steam_id":76561198125015366,"connected_time":1160000000000,"state":"active","ping":115},{"user_id":65,"name":"soda","steam_id":76561198105924953,"connected_time":3285000000000,"state":"active","ping":73},{"user_id":94,"name":"❄ ǝlddɐǝuᴉd ❄","steam_id":76561198041108726,"connected_time":1073000000000,"state":"active","ping":60},{"user_id":107,"name":"Novaside","steam_id":76561198079461961,"connected_time":409000000000,"state":"active","ping":128},{"user_id":86,"name":"ShiftShock01","steam_id":76561199049488870,"connected_time":1829000000000,"state":"active","ping":54},{"user_id":108,"name":"DK360","steam_id":76561198796783094,"connected_time":404000000000,"state":"active","ping":56},{"user_id":100,"name":":^1 hekken","steam_id":76561198109933577,"connected_time":697000000000,"state":"active","ping":56},{"user_id":103,"name":"Gull","steam_id":76561198161560332,"connected_time":613000000000,"state":"active","ping":93},{"user_id":102,"name":"mari_","steam_id":76561198137855741,"connected_time":657000000000,"state":"active","ping":102},{"user_id":110,"name":"Simply_Komeiji","steam_id":76561198354177703,"connected_time":375000000000,"state":"active","ping":106},{"user_id":81,"name":"A Duck With Socks","steam_id":76561198018844227,"connected_time":2484000000000,"state":"active","ping":57},{"user_id":101,"name":"William","steam_id":76561199471434875,"connected_time":696000000000,"state":"active","ping":41},{"user_id":112,"name":"Kit Carson","steam_id":76561198115691546,"connected_time":145000000000,"state":"active","ping":89},{"user_id":60,"name":"aqua","steam_id":76561199407709552,"connected_time":3459000000000,"state":"active","ping":97},{"user_id":73,"name":"The Pepsi® Superbowl®!","steam_id":76561198080828981,"connected_time":3031000000000,"state":"active","ping":75}]},{"server_id":406,"name":"Uncletopia | Seattle | 3 | Stopwatch Beta","name_short":"sea-3","host":"sea-1.us.uncletopia.com","port":27035,"enabled":true,"region":"us-west","cc":"us","latitude":47.608013,"longitude":-122.33517,"reserved":0,"last_update":"0001-01-01T00:00:00Z","name_a2s":"Uncletopia | Seattle | 3 | Stopwatch Beta","protocol":17,"map":"cp_process_final","folder":"tf","game":"Team Fortress","app_id":440,"player_count":0,"max_players":24,"Bots":0,"server_type":"Dedicated","server_os":"Linux","password":true,"vac":true,"version":"7757534","steam_id":85568392924515217,"keywords":["cp","nocrits","nodmgspread","uncletopia"],"game_id":440,"stv_port":27036,"stv_name":"Uncletopia | Seattle | 3 | Stopwatch Beta | STV","players":null},{"server_id":17,"name":"Uncletopia | San Francisco | 1 | All Maps","name_short":"sfo-1","host":"sfo-1.us.uncletopia.com","port":27015,"enabled":true,"region":"us-west","cc":"us","latitude":37.77397,"longitude":-122.4313,"reserved":0,"last_update":"0001-01-01T00:00:00Z","name_a2s":"Uncletopia | San Francisco | 1 | All Maps","protocol":17,"map":"koth_highpass","folder":"tf","game":"Team Fortress","app_id":440,"player_count":0,"max_players":24,"Bots":0,"server_type":"Dedicated","server_os":"Linux","password":true,"vac":true,"version":"7757534","steam_id":85568392924469999,"keywords":["cp","nocrits","nodmgspread","uncletopia"],"game_id":440,"stv_port":27016,"stv_name":"Uncletopia | San Francisco | 1 | All Maps | STV","players":null},{"server_id":18,"name":"Uncletopia | San Francisco | 2 | All Maps","name_short":"sfo-2","host":"sfo-1.us.uncletopia.com","port":27025,"enabled":true,"region":"us-west","cc":"us","latitude":37.77397,"longitude":-122.4313,"reserved":0,"last_update":"0001-01-01T00:00:00Z","name_a2s":"Uncletopia | San Francisco | 2 | All Maps","protocol":17,"map":"koth_viaduct","folder":"tf","game":"Team Fortress","app_id":440,"player_count":0,"max_players":24,"Bots":0,"server_type":"Dedicated","server_os":"Linux","password":true,"vac":true,"version":"7757534","steam_id":85568392924470000,"keywords":["cp","nocrits","nodmgspread","uncletopia"],"game_id":440,"stv_port":27026,"stv_name":"Uncletopia | San Francisco | 2 | All Maps | STV","players":null},{"server_id":19,"name":"Uncletopia | San Francisco | 3 | Stopwatch Beta","name_short":"sfo-3","host":"sfo-1.us.uncletopia.com","port":27035,"enabled":true,"region":"us-west","cc":"us","latitude":37.77397,"longitude":-122.4313,"reserved":0,"last_update":"0001-01-01T00:00:00Z","name_a2s":"Uncletopia | San Francisco | 3 | Stopwatch Beta","protocol":17,"map":"cp_snakewater_final1","folder":"tf","game":"Team Fortress","app_id":440,"player_count":0,"max_players":24,"Bots":0,"server_type":"Dedicated","server_os":"Linux","password":true,"vac":true,"version":"7757534","steam_id":85568392924742824,"keywords":["cp","nocrits","nodmgspread","uncletopia"],"game_id":440,"stv_port":27036,"stv_name":"Uncletopia | San Francisco | 3 | Stopwatch Beta | STV","players":null},{"server_id":20,"name":"Uncletopia | San Francisco | 4 | Community","name_short":"sfo-4","host":"sfo-1.us.uncletopia.com","port":27045,"enabled":true,"region":"us-west","cc":"us","latitude":37.77397,"longitude":-122.4313,"reserved":0,"last_update":"0001-01-01T00:00:00Z","name_a2s":"Uncletopia | San Francisco | 4 | Community","protocol":17,"map":"pl_frontier_final","folder":"tf","game":"Team Fortress","app_id":440,"player_count":0,"max_players":24,"Bots":0,"server_type":"Dedicated","server_os":"Linux","password":true,"vac":true,"version":"7757534","steam_id":85568392924742826,"keywords":["nocrits","nodmgspread","payload","uncletopia"],"game_id":440,"stv_port":27046,"stv_name":"Uncletopia | San Francisco | 4 | Community | STV","players":null},{"server_id":141,"name":"Uncletopia | Sydney | 1 | All Maps","name_short":"syd-1","host":"syd-1.au.uncletopia.com","port":27015,"enabled":true,"region":"au","cc":"au","latitude":-33.865143,"longitude":151.2099,"reserved":0,"last_update":"0001-01-01T00:00:00Z","name_a2s":"Uncletopia | Sydney | 1 | All Maps","protocol":17,"map":"pl_borneo","folder":"tf","game":"Team Fortress","app_id":440,"player_count":0,"max_players":24,"Bots":0,"server_type":"Dedicated","server_os":"Linux","password":true,"vac":true,"version":"7757534","steam_id":85568392924470001,"keywords":["nocrits","nodmgspread","payload","uncletopia"],"game_id":440,"stv_port":27016,"stv_name":"Uncletopia | Sydney | 1 | All Maps | STV","players":null},{"server_id":123,"name":"Uncletopia | Sydney | 2 | All Maps","name_short":"syd-2","host":"syd-1.au.uncletopia.com","port":27025,"enabled":true,"region":"au","cc":"au","latitude":-33.865143,"longitude":151.2099,"reserved":0,"last_update":"0001-01-01T00:00:00Z","name_a2s":"Uncletopia | Sydney | 2 | All Maps","protocol":17,"map":"cp_snakewater_final1","folder":"tf","game":"Team Fortress","app_id":440,"player_count":0,"max_players":24,"Bots":0,"server_type":"Dedicated","server_os":"Linux","password":true,"vac":true,"version":"7757534","steam_id":85568392924470002,"keywords":["cp","nocrits","nodmgspread","uncletopia"],"game_id":440,"stv_port":27026,"stv_name":"Uncletopia | Sydney | 2 | All Maps | STV","players":null},{"server_id":395,"name":"Uncletopia | Sydney | 3 | All Maps","name_short":"syd-3","host":"syd-1.au.uncletopia.com","port":27035,"enabled":true,"region":"au","cc":"au","latitude":-33.865143,"longitude":151.2099,"reserved":0,"last_update":"0001-01-01T00:00:00Z","name_a2s":"Uncletopia | Sydney | 3 | All Maps","protocol":17,"map":"pl_borneo","folder":"tf","game":"Team Fortress","app_id":440,"player_count":0,"max_players":24,"Bots":0,"server_type":"Dedicated","server_os":"Linux","password":true,"vac":true,"version":"7757534","steam_id":85568392925194467,"keywords":["nocrits","nodmgspread","payload","uncletopia"],"game_id":440,"stv_port":27036,"stv_name":"Uncletopia | Sydney | 3 | All Maps | STV","players":null},{"server_id":396,"name":"Uncletopia | Sydney | 4 | All Maps","name_short":"syd-4","host":"syd-1.au.uncletopia.com","port":27045,"enabled":true,"region":"au","cc":"au","latitude":-33.865143,"longitude":151.2099,"reserved":0,"last_update":"0001-01-01T00:00:00Z","name_a2s":"Uncletopia | Sydney | 4 | All Maps","protocol":17,"map":"cp_process_final","folder":"tf","game":"Team Fortress","app_id":440,"player_count":0,"max_players":24,"Bots":0,"server_type":"Dedicated","server_os":"Linux","password":true,"vac":true,"version":"7757534","steam_id":85568392925397958,"keywords":["cp","nocrits","nodmgspread","uncletopia"],"game_id":440,"stv_port":27046,"stv_name":"Uncletopia | Sydney | 4 | All Maps | STV","players":null},{"server_id":58,"name":"Uncletopia | Sydney | 5 | Stopwatch Beta","name_short":"syd-5","host":"syd-1.au.uncletopia.com","port":27055,"enabled":true,"region":"au","cc":"au","latitude":-33.865143,"longitude":151.2099,"reserved":0,"last_update":"0001-01-01T00:00:00Z","name_a2s":"Uncletopia | Sydney | 5 | Stopwatch Beta","protocol":17,"map":"koth_cascade","folder":"tf","game":"Team Fortress","app_id":440,"player_count":0,"max_players":24,"Bots":0,"server_type":"Dedicated","server_os":"Linux","password":true,"vac":true,"version":"7757534","steam_id":85568392925397959,"keywords":["cp","nocrits","nodmgspread","uncletopia"],"game_id":440,"stv_port":27056,"stv_name":"Uncletopia | Sydney | 5 | Stopwatch Beta | STV","players":null},{"server_id":59,"name":"Uncletopia | Sydney | 6 | Community","name_short":"syd-6","host":"syd-1.au.uncletopia.com","port":27065,"enabled":true,"region":"au","cc":"au","latitude":-33.865143,"longitude":151.2099,"reserved":0,"last_update":"0001-01-01T00:00:00Z","name_a2s":"Uncletopia | Sydney | 6 | Community","protocol":17,"map":"pl_badwater","folder":"tf","game":"Team Fortress","app_id":440,"player_count":0,"max_players":24,"Bots":0,"server_type":"Dedicated","server_os":"Linux","password":true,"vac":true,"version":"7757534","steam_id":85568392925397960,"keywords":["nocrits","nodmgspread","payload","uncletopia"],"game_id":440,"stv_port":27066,"stv_name":"Uncletopia | Sydney | 6 | Community | STV","players":null},{"server_id":49,"name":"Uncletopia | Warsaw | 1 | All Maps","name_short":"waw-1","host":"waw-1.pl.uncletopia.com","port":27015,"enabled":true,"region":"eu","cc":"pl","latitude":52.2297,"longitude":21.017532,"reserved":0,"last_update":"0001-01-01T00:00:00Z","name_a2s":"","protocol":0,"map":"","folder":"","game":"","app_id":0,"player_count":0,"max_players":0,"Bots":0,"server_type":"","server_os":"","password":false,"vac":false,"version":"","steam_id":0,"keywords":null,"game_id":0,"stv_port":0,"stv_name":"","players":null},{"server_id":50,"name":"Uncletopia | Warsaw | 2 | All Maps","name_short":"waw-2","host":"waw-1.pl.uncletopia.com","port":27025,"enabled":true,"region":"eu","cc":"pl","latitude":52.2297,"longitude":21.017532,"reserved":0,"last_update":"0001-01-01T00:00:00Z","name_a2s":"Uncletopia | Warsaw | 2 | All Maps","protocol":17,"map":"koth_highpass","folder":"tf","game":"Team Fortress","app_id":440,"player_count":0,"max_players":24,"Bots":0,"server_type":"Dedicated","server_os":"Linux","password":true,"vac":true,"version":"7757534","steam_id":85568392925397851,"keywords":["cp","nocrits","nodmgspread","uncletopia"],"game_id":440,"stv_port":27026,"stv_name":"Uncletopia | Warsaw | 2 | All Maps | STV","players":null},{"server_id":51,"name":"Uncletopia | Warsaw | 3 | All Maps","name_short":"waw-3","host":"waw-1.pl.uncletopia.com","port":27035,"enabled":true,"region":"eu","cc":"pl","latitude":52.2297,"longitude":21.017532,"reserved":0,"last_update":"0001-01-01T00:00:00Z","name_a2s":"Uncletopia | Warsaw | 3 | All Maps","protocol":17,"map":"pl_pier","folder":"tf","game":"Team Fortress","app_id":440,"player_count":0,"max_players":24,"Bots":0,"server_type":"Dedicated","server_os":"Linux","password":true,"vac":true,"version":"7757534","steam_id":85568392925397852,"keywords":["nocrits","nodmgspread","payload","uncletopia"],"game_id":440,"stv_port":27036,"stv_name":"Uncletopia | Warsaw | 3 | All Maps | STV","players":null},{"server_id":52,"name":"Uncletopia | Warsaw | 4 | All Maps","name_short":"waw-4","host":"waw-1.pl.uncletopia.com","port":27045,"enabled":true,"region":"eu","cc":"pl","latitude":52.2297,"longitude":21.017532,"reserved":0,"last_update":"0001-01-01T00:00:00Z","name_a2s":"Uncletopia | Warsaw | 4 | All Maps","protocol":17,"map":"koth_highpass","folder":"tf","game":"Team Fortress","app_id":440,"player_count":0,"max_players":24,"Bots":0,"server_type":"Dedicated","server_os":"Linux","password":true,"vac":true,"version":"7757534","steam_id":85568392925397853,"keywords":["cp","nocrits","nodmgspread","uncletopia"],"game_id":440,"stv_port":27046,"stv_name":"Uncletopia | Warsaw | 4 | All Maps | STV","players":null},{"server_id":53,"name":"Uncletopia | Warsaw | 5 | Stopwatch Beta","name_short":"waw-5","host":"waw-1.pl.uncletopia.com","port":27055,"enabled":true,"region":"eu","cc":"pl","latitude":52.2297,"longitude":21.017532,"reserved":0,"last_update":"0001-01-01T00:00:00Z","name_a2s":"Uncletopia | Warsaw | 5 | Stopwatch Beta","protocol":17,"map":"pl_pier","folder":"tf","game":"Team Fortress","app_id":440,"player_count":0,"max_players":24,"Bots":0,"server_type":"Dedicated","server_os":"Linux","password":true,"vac":true,"version":"7757534","steam_id":85568392925397854,"keywords":["nocrits","nodmgspread","payload","uncletopia"],"game_id":440,"stv_port":27056,"stv_name":"Uncletopia | Warsaw | 5 | Stopwatch Beta | STV","players":null},{"server_id":54,"name":"Uncletopia | Warsaw | 6 | Community","name_short":"waw-6","host":"waw-1.pl.uncletopia.com","port":27065,"enabled":true,"region":"eu","cc":"pl","latitude":52.2297,"longitude":21.017532,"reserved":0,"last_update":"0001-01-01T00:00:00Z","name_a2s":"Uncletopia | Warsaw | 6 | Community","protocol":17,"map":"koth_highpass","folder":"tf","game":"Team Fortress","app_id":440,"player_count":0,"max_players":24,"Bots":0,"server_type":"Dedicated","server_os":"Linux","password":true,"vac":true,"version":"7757534","steam_id":85568392925397856,"keywords":["cp","nocrits","nodmgspread","uncletopia"],"game_id":440,"stv_port":27066,"stv_name":"Uncletopia | Warsaw | 6 | Community | STV","players":null}]}