{"status":true,"message":"","result":[{"server_id":2,"name":"Uncletopia | Chicago | 1 | All Maps","name_short":"chi-1","host":"chi-1.us.uncletopia.com","port":27015,"enabled":true,"region":"us-central","cc":"us","latitude":41.881832,"longitude":-87.62318,"reserved":0,"last_update":"0001-01-01T00:00:00Z","name_a2s":"Uncletopia | Chicago | 1 | All Maps","protocol":17,"map":"cp_dustbowl","folder":"tf","game":"Team Fortress","app_id":440,"player_count":25,"max_players":24,"Bots":0,"server_type":"Dedicated","server_os":"Linux","password":true,"vac":true,"version":"7961495","steam_id":85568392924469984,"keywords":["cp","nocrits","nodmgspread","uncletopia"],"game_id":440,"stv_port":27016,"stv_name":"Uncletopia | Chicago | 1 | All Maps | STV","players":[{"user_id":251,"name":"Detective Pyro","steam_id":76561199039805435,"connected_time":1991000000000,"state":"active","ping":84},{"user_id":270,"name":"Harpua","steam_id":76561197988020228,"connected_time":613000000000,"state":"active","ping":60},{"user_id":256,"name":"LerN","steam_id":76561198083463877,"connected_time":1343000000000,"state":"active","ping":54},{"user_id":252,"name":"shadovillia","steam_id":76561198167411287,"connected_time":1405000000000,"state":"active","ping":47},{"user_id":255,"name":"Snom","steam_id":76561198333827920,"connected_time":1391000000000,"state":"active","ping":109},{"user_id":241,"name":"paetho YT (new vid!)","steam_id":76561198152690003,"connected_time":2573000000000,"state":"active","ping":59},{"user_id":275,"name":"NikoOS (NO SOUND)","steam_id":76561198180020521,"connected_time":10000000000,"state":"spawning","ping":141},{"user_id":228,"name":"cheese burger","steam_id":76561198999217575,"connected_time":3390000000000,"state":"active","ping":63},{"user_id":243,"name":"cat","steam_id":76561198096347625,"connected_time":2549000000000,"state":"active","ping":75},{"user_id":245,"name":"Fernando","steam_id":76561198443038047,"connected_time":2499000000000,"state":"active","ping":95},{"user_id":259,"name":"Trader Yohan","steam_id":76561198048956010,"connected_time":1255000000000,"state":"active","ping":106},{"user_id":272,"name":"Radish Master","steam_id":76561198072523811,"connected_time":210000000000,"state":"active","ping":90},{"user_id":198,"name":"mr.edderkopper","steam_id":76561198152614478,"connected_time":5796000000000,"state":"active","ping":46},{"user_id":262,"name":"Gaming","steam_id":76561198107080532,"connected_time":1140000000000,"state":"active","ping":61},{"user_id":273,"name":"seldom","steam_id":76561198166193756,"connected_time":153000000000,"state":"active","ping":55},{"user_id":267,"name":"Idk","steam_id":76561198971629959,"connected_time":1048000000000,"state":"active","ping":140},{"user_id":182,"name":"Rainbeon","steam_id":76561198046150531,"connected_time":6685000000000,"state":"active","ping":57},{"user_id":244,"name":"Bheem","steam_id":76561198170453459,"connected_time":2529000000000,"state":"active","ping":87},{"user_id":274,"name":"sciencenerd42","steam_id":76561198274563320,"connected_time":130000000000,"state":"active","ping":48},{"user_id":240,"name":"Milkmur","steam_id":76561198210043821,"connected_time":2599000000000,"state":"active","ping":64},{"user_id":266,"name":"auts","steam_id":76561198055198646,"connected_time":1093000000000,"state":"active","ping":74},{"user_id":269,"name":"Der Krieger105","steam_id":76561197978384609,"connected_time":1017000000000,"state":"active","ping":88},{"user_id":271,"name":"popfulmail","steam_id":76561198865971290,"connected_time":516000000000,"state":"active","ping":87},{"user_id":195,"name":"Astoriae!","steam_id":76561199090168858,"connected_time":6338000000000,"state":"active","ping":70},{"user_id":276,"name":"Crunchy Pancake","steam_id":76561198002555973,"connected_time":8000000000,"state":"spawning","ping":98}]},{"server_id":106,"name":"Uncletopia | Chicago | 2 | All Maps","name_short":"chi-2","host":"chi-1.us.uncletopia.com","port":27025,"enabled":true,"region":"us-central","cc":"us","latitude":41.881832,"longitude":-87.62318,"reserved":0,"last_update":"0001-01-01T00:00:00Z","name_a2s":"Uncletopia | Chicago | 2 | All Maps","protocol":17,"map":"pl_enclosure_final","folder":"tf","game":"Team Fortress","app_id":440,"player_count":24,"max_players":24,"Bots":0,"server_type":"Dedicated","server_os":"Linux","password":true,"vac":true,"version":"7961495","steam_id":85568392924469985,"keywords":["nocrits","nodmgspread","payload","uncletopia"],"game_id":440,"stv_port":27026,"stv_name":"Uncletopia | Chicago | 2 | All Maps | STV","players":[{"user_id":394,"name":"Toblerone","steam_id":76561198057374871,"connected_time":770000000000,"state":"active","ping":62},{"user_id":312,"name":"Papy_rat","steam_id":76561198088207937,"connected_time":2655000000000,"state":"active","ping":72},{"user_id":400,"name":"Smokey Ian","steam_id":76561199128786637,"connected_time":481000000000,"state":"active","ping":98},{"user_id":404,"name":"Inkussy","steam_id":76561198042689943,"connected_time":449000000000,"state":"active","ping":45},{"user_id":396,"name":"Saggy Haggis Balls","steam_id":76561198047845399,"connected_time":718000000000,"state":"active","ping":68},{"user_id":397,"name":"yuuko","steam_id":76561198097711389,"connected_time":682000000000,"state":"active","ping":98},{"user_id":365,"name":"P.C. Baby","steam_id":76561198067011379,"connected_time":1412000000000,"state":"active","ping":116},{"user_id":412,"name":"BigNugs","steam_id":76561198056402610,"connected_time":281000000000,"state":"active","ping":71},{"user_id":378,"name":"Hotel Mario Next-Gen Remaster","steam_id":76561198217955315,"connected_time":1071000000000,"state":"active","ping":72},{"user_id":310,"name":"Oli B\u003eQS/BP/Bulk w/ 500+ keys","steam_id":76561198140316312,"connected_time":2661000000000,"state":"active","ping":70},{"user_id":306,"name":"elyk37","steam_id":76561198124135253,"connected_time":3159000000000,"state":"active","ping":78},{"user_id":294,"name":"GamingGeneral","steam_id":76561198872339275,"connected_time":3646000000000,"state":"active","ping":64},{"user_id":398,"name":"An Erect Penis :)","steam_id":76561198086477485,"connected_time":668000000000,"state":"active","ping":40},{"user_id":285,"name":"The Sinister Potion","steam_id":76561198131280715,"connected_time":4579000000000,"state":"active","ping":73},{"user_id":251,"name":"Weerk","steam_id":76561199209543551,"connected_time":7293000000000,"state":"active","ping":78},{"user_id":358,"name":"soltuno","steam_id":76561198074430565,"connected_time":1631000000000,"state":"active","ping":128},{"user_id":413,"name":"WitheringLeo","steam_id":76561198046722918,"connected_time":210000000000,"state":"active","ping":90},{"user_id":414,"name":"Shadow Monster Man","steam_id":76561198838739421,"connected_time":60000000000,"state":"active","ping":78},{"user_id":379,"name":"GiraffeMan","steam_id":76561198042104084,"connected_time":1035000000000,"state":"active","ping":65},{"user_id":300,"name":"Fresh0c0","steam_id":76561198271933283,"connected_time":3419000000000,"state":"active","ping":59},{"user_id":406,"name":"EggsAndBacon","steam_id":76561198031789082,"connected_time":430000000000,"state":"active","ping":115},{"user_id":381,"name":"i suffer from ligma","steam_id":76561199158496518,"connected_time":1029000000000,"state":"active","ping":115},{"user_id":382,"name":"Mr. Sandman","steam_id":76561198065870487,"connected_time":1014000000000,"state":"active","ping":58}]},{"server_id":402,"name":"Uncletopia | Chicago | 3 | All Maps","name_short":"chi-3","host":"chi-1.us.uncletopia.com","port":27035,"enabled":true,"region":"us-central","cc":"us","latitude":41.881832,"longitude":-87.62318,"reserved":0,"last_update":"0001-01-01T00:00:00Z","name_a2s":"Uncletopia | Chicago | 3 | All Maps","protocol":17,"map":"pl_snowycoast","folder":"tf","game":"Team Fortress","app_id":440,"player_count":24,"max_players":24,"Bots":0,"server_type":"Dedicated","server_os":"Linux","password":true,"vac":true,"version":"7961495","steam_id":85568392924515191,"keywords":["nocrits","nodmgspread","payload","uncletopia"],"game_id":440,"stv_port":27036,"stv_name":"Uncletopia | Chicago | 3 | All Maps | STV","players":[{"user_id":200,"name":"luna gaming","steam_id":76561198120487590,"connected_time":1174000000000,"state":"active","ping":89},{"user_id":205,"name":"snubcube","steam_id":76561198135880806,"connected_time":1020000000000,"state":"active","ping":68},{"user_id":155,"name":"Femboy drywall enthusiast","steam_id":76561198864841966,"connected_time":3884000000000,"state":"active","ping":95},{"user_id":230,"name":"Kung fu Mungus","steam_id":76561198069281556,"connected_time":515000000000,"state":"active","ping":75},{"user_id":231,"name":"LordCDAWG","steam_id":76561198026581404,"connected_time":321000000000,"state":"active","ping":69},{"user_id":207,"name":"imng","steam_id":76561198014988031,"connected_time":1000000000000,"state":"active","ping":70},{"user_id":201,"name":"kapowsminion","steam_id":76561198105669852,"connected_time":1154000000000,"state":"active","ping":48},{"user_id":216,"name":"Koishi","steam_id":76561198054541054,"connected_time":841000000000,"state":"active","ping":50},{"user_id":202,"name":"5mech","steam_id":76561198979167520,"connected_time":1088000000000,"state":"active","ping":51},{"user_id":219,"name":"Dullahan","steam_id":76561198119668908,"connected_time":818000000000,"state":"active","ping":105},{"user_id":210,"name":"Fran√ßois Vi√®te","steam_id":76561198072975518,"connected_time":913000000000,"state":"active","ping":73},{"user_id":212,"name":"Dabbledornk","steam_id":76561198065241300,"connected_time":904000000000,"state":"active","ping":60},{"user_id":213,"name":"Gachalover","steam_id":76561199231552074,"connected_time":873000000000,"state":"active","ping":72},{"user_id":214,"name":"Dreyfus the protogen :3","steam_id":76561198243365378,"connected_time":872000000000,"state":"active","ping":52},{"user_id":217,"name":"SLiPpeRyJoe.nosound","steam_id":76561197977206359,"connected_time":839000000000,"state":"active","ping":62},{"user_id":221,"name":"Green Bean","steam_id":76561198827330768,"connected_time":781000000000,"state":"active","ping":85},{"user_id":218,"name":"Malevo","steam_id":76561198148606522,"connected_time":822000000000,"state":"active","ping":82},{"user_id":220,"name":"GreenApples","steam_id":76561198120559543,"connected_time":818000000000,"state":"active","ping":105},{"user_id":222,"name":"A Mogus","steam_id":76561198097998607,"connected_time":781000000000,"state":"active","ping":45},{"user_id":223,"name":"beckeon","steam_id":76561198056474975,"connected_time":771000000000,"state":"active","ping":80},{"user_id":224,"name":"ceres","steam_id":76561198291976960,"connected_time":657000000000,"state":"active","ping":105},{"user_id":225,"name":"WesyUWU (The mini crit pig)","steam_id":76561198069188177,"connected_time":637000000000,"state":"active","ping":75},{"user_id":227,"name":"Sprinklingmydoughnut","steam_id":76561198168009092,"connected_time":625000000000,"state":"active","ping":96},{"user_id":229,"name":"HUMBY","steam_id":76561198065045867,"connected_time":579000000000,"state":"active","ping":85}]},{"server_id":403,"name":"Uncletopia | Chicago | 4 | All Maps","name_short":"chi-4","host":"chi-1.us.uncletopia.com","port":27045,"enabled":true,"region":"us-central","cc":"us","latitude":41.881832,"longitude":-87.62318,"reserved":0,"last_update":"0001-01-01T00:00:00Z","name_a2s":"Uncletopia | Chicago | 4 | All Maps","protocol":17,"map":"pl_pier","folder":"tf","game":"Team Fortress","app_id":440,"player_count":24,"max_players":24,"Bots":0,"server_type":"Dedicated","server_os":"Linux","password":true,"vac":true,"version":"7961495","steam_id":85568392924515193,"keywords":["nocrits","nodmgspread","payload","uncletopia"],"game_id":440,"stv_port":27046,"stv_name":"Uncletopia | Chicago | 4 | All Maps | STV","players":[{"user_id":629,"name":"Dad 2","steam_id":76561198138546187,"connected_time":1151000000000,"state":"active","ping":75},{"user_id":590,"name":"LtSalte","steam_id":76561198004721081,"connected_time":3530000000000,"state":"active","ping":82},{"user_id":649,"name":"Theory-LOL","steam_id":76561198116419931,"connected_time":85000000000,"state":"active","ping":95},{"user_id":627,"name":"Lunchbox","steam_id":76561198042914871,"connected_time":1184000000000,"state":"active","ping":50},{"user_id":647,"name":"RarestGuide","steam_id":76561198050338923,"connected_time":210000000000,"state":"active","ping":75},{"user_id":630,"name":"sylvyy","steam_id":76561198976976583,"connected_time":1126000000000,"state":"active","ping":74},{"user_id":625,"name":"Pontifex","steam_id":76561198013016489,"connected_time":1363000000000,"state":"active","ping":85},{"user_id":612,"name":"tiananmensquare1989","steam_id":76561199076837870,"connected_time":2729000000000,"state":"active","ping":86},{"user_id":595,"name":"BarrowBaron","steam_id":76561198013633236,"connected_time":3304000000000,"state":"active","ping":61},{"user_id":458,"name":"Maid Knight","steam_id":76561198214370515,"connected_time":9066000000000,"state":"active","ping":73},{"user_id":332,"name":"INVEST IN SKYNET::get rich","steam_id":76561198144436132,"connected_time":12556000000000,"state":"active","ping":74},{"user_id":631,"name":"comfy and cozy","steam_id":76561198860068961,"connected_time":1118000000000,"state":"active","ping":61},{"user_id":610,"name":"Jennifer Aniston's Nipples","steam_id":76561198086107548,"connected_time":2827000000000,"state":"active","ping":77},{"user_id":641,"name":"Zing","steam_id":76561198097160898,"connected_time":600000000000,"state":"active","ping":89},{"user_id":644,"name":"GRONT","steam_id":76561198040464533,"connected_time":223000000000,"state":"active","ping":70},{"user_id":645,"name":"jozthebob","steam_id":76561199476198856,"connected_time":219000000000,"state":"active","ping":88},{"user_id":633,"name":"Chevlanae","steam_id":76561198038180603,"connected_time":1024000000000,"state":"active","ping":62},{"user_id":637,"name":"Mom 2","steam_id":76561198200961750,"connected_time":975000000000,"state":"active","ping":113},{"user_id":624,"name":"Gaming Gaming","steam_id":76561198989717627,"connected_time":1548000000000,"state":"active","ping":63},{"user_id":588,"name":"crazygolfguy100","steam_id":76561198063099828,"connected_time":3801000000000,"state":"active","ping":56},{"user_id":646,"name":"minecraft","steam_id":76561198104345201,"connected_time":212000000000,"state":"active","ping":67},{"user_id":603,"name":"_SCOOBER_","steam_id":76561199239122502,"connected_time":3209000000000,"state":"active","ping":120},{"user_id":566,"name":"honor in defeat","steam_id":76561198013735714,"connected_time":5748000000000,"state":"active","ping":75},{"user_id":648,"name":"„Éì„Éº„Éä„Éº","steam_id":76561199196918355,"connected_time":205000000000,"state":"active","ping":59}]},{"server_id":36,"name":"Uncletopia | Chicago | 5 | All Maps","name_short":"chi-5","host":"chi-2.us.uncletopia.com","port":27015,"enabled":true,"region":"us-central","cc":"us","latitude":41.881832,"longitude":-87.62318,"reserved":0,"last_update":"0001-01-01T00:00:00Z","name_a2s":"Uncletopia | Chicago | 5 | All Maps","protocol":17,"map":"koth_viaduct","folder":"tf","game":"Team Fortress","app_id":440,"player_count":18,"max_players":24,"Bots":0,"server_type":"Dedicated","server_os":"Linux","password":true,"vac":true,"version":"7961495","steam_id":85568392924866362,"keywords":["cp","nocrits","nodmgspread","uncletopia"],"game_id":440,"stv_port":27016,"stv_name":"Uncletopia | Chicago | 5 | All Maps | STV","players":[{"user_id":176,"name":"Zero","steam_id":76561198033384990,"connected_time":784000000000,"state":"spawning","ping":198},{"user_id":181,"name":"Ghostmeal","steam_id":76561198042380299,"connected_time":6000000000,"state":"spawning","ping":87},{"user_id":182,"name":"corned beef","steam_id":76561199366782761,"connected_time":0,"state":"connecting","ping":0},{"user_id":164,"name":"SilentFootba11","steam_id":76561199006570947,"connected_time":1495000000000,"state":"spawning","ping":117},{"user_id":160,"name":"nuh uh","steam_id":76561198107343544,"connected_time":1690000000000,"state":"spawning","ping":127},{"user_id":131,"name":"Butters495","steam_id":76561197998689042,"connected_time":2707000000000,"state":"spawning","ping":128},{"user_id":175,"name":"Mephistopheles","steam_id":76561198253731826,"connected_time":807000000000,"state":"spawning","ping":115},{"user_id":107,"name":"Edwon","steam_id":76561198319902846,"connected_time":3717000000000,"state":"spawning","ping":200},{"user_id":172,"name":"Tacitus Kilgore","steam_id":76561198053915145,"connected_time":1005000000000,"state":"spawning","ping":100},{"user_id":152,"name":"Skeleton Hotel","steam_id":76561198041704727,"connected_time":1832000000000,"state":"spawning","ping":150},{"user_id":146,"name":"superbad","steam_id":76561198065913973,"connected_time":1977000000000,"state":"spawning","ping":207},{"user_id":153,"name":"Tri-Dot","steam_id":76561199075186597,"connected_time":1810000000000,"state":"spawning","ping":113},{"user_id":180,"name":"ODs","steam_id":76561198113096772,"connected_time":435000000000,"state":"spawning","ping":280},{"user_id":127,"name":"Zanartan","steam_id":76561198050528902,"connected_time":3000000000000,"state":"spawning","ping":240},{"user_id":155,"name":"awesomebrololo","steam_id":76561198374283489,"connected_time":1782000000000,"state":"spawning","ping":195},{"user_id":168,"name":"ShawnLmao","steam_id":76561198350691501,"connected_time":1174000000000,"state":"spawning","ping":109},{"user_id":73,"name":"ThatGamingKiwi","steam_id":76561199170522237,"connected_time":6198000000000,"state":"spawning","ping":111},{"user_id":166,"name":"DuragGod69","steam_id":76561198067814426,"connected_time":1366000000000,"state":"spawning","ping":131}]},{"server_id":37,"name":"Uncletopia | Chicago | 6 | All Maps","name_short":"chi-6","host":"chi-2.us.uncletopia.com","port":27025,"enabled":true,"region":"us-central","cc":"us","latitude":41.881832,"longitude":-87.62318,"reserved":0,"last_update":"0001-01-01T00:00:00Z","name_a2s":"Uncletopia | Chicago | 6 | All Maps","protocol":17,"map":"pl_snowycoast","folder":"tf","game":"Team Fortress","app_id":440,"player_count":4,"max_players":24,"Bots":0,"server_type":"Dedicated","server_os":"Linux","password":true,"vac":true,"version":"7961495","steam_id":85568392924866363,"keywords":["nocrits","nodmgspread","payload","uncletopia"],"game_id":440,"stv_port":27026,"stv_name":"Uncletopia | Chicago | 6 | All Maps | STV","players":[{"user_id":257,"name":"Supa Dupt","steam_id":76561198166666289,"connected_time":211000000000,"state":"active","ping":84},{"user_id":256,"name":"gideon nav my beloved","steam_id":76561198259092181,"connected_time":222000000000,"state":"active","ping":60},{"user_id":260,"name":"WoofyM","steam_id":76561199082782484,"connected_time":55000000000,"state":"active","ping":60},{"user_id":259,"name":"Danmar33","steam_id":76561198056453091,"connected_time":90000000000,"state":"active","ping":45}]},{"server_id":38,"name":"Uncletopia | Chicago | 7 | Stopwatch Beta","name_short":"chi-7","host":"chi-2.us.uncletopia.com","port":27035,"enabled":true,"region":"us-central","cc":"us","latitude":41.881832,"longitude":-87.62318,"reserved":0,"last_update":"0001-01-01T00:00:00Z","name_a2s":"Uncletopia | Chicago | 7 | Stopwatch Beta","protocol":17,"map":"koth_lakeside_final","folder":"tf","game":"Team Fortress","app_id":440,"player_count":0,"max_players":24,"Bots":0,"server_type":"Dedicated","server_os":"Linux","password":true,"vac":true,"version":"7961495","steam_id":85568392924866364,"keywords":["cp","nocrits","nodmgspread","uncletopia"],"game_id":440,"stv_port":27036,"stv_name":"Uncletopia | Chicago | 7 | Stopwatch Beta | STV","players":null},{"server_id":39,"name":"Uncletopia | Chicago | 8 | Community","name_short":"chi-8","host":"chi-2.us.uncletopia.com","port":27045,"enabled":true,"region":"us-central","cc":"us","latitude":41.881832,"longitude":-87.62318,"reserved":0,"last_update":"0001-01-01T00:00:00Z","name_a2s":"Uncletopia | Chicago | 8 | Community","protocol":17,"map":"workshop/cp_croissant_final.ugc458840209","folder":"tf","game":"Team Fortress","app_id":440,"player_count":0,"max_players":24,"Bots":0,"server_type":"Dedicated","server_os":"Linux","password":true,"vac":true,"version":"7961495","steam_id":85568392924866365,"keywords":["cp","nocrits","nodmgspread","uncletopia"],"game_id":440,"stv_port":27046,"stv_name":"Uncletopia | Chicago | 8 | Community | STV","players":null},{"server_id":8,"name":"Uncletopia | Dallas | 1 | All Maps","name_short":"dal-1","host":"dal-1.us.uncletopia.com","port":27015,"enabled":true,"region":"us-central","cc":"us","latitude":32.779167,"longitude":-96.80889,"reserved":0,"last_update":"0001-01-01T00:00:00Z","name_a2s":"Uncletopia | Dallas | 1 | All Maps","protocol":17,"map":"ctf_2fort","folder":"tf","game":"Team Fortress","app_id":440,"player_count":24,"max_players":24,"Bots":0,"server_type":"Dedicated","server_os":"Linux","password":true,"vac":true,"version":"7961495","steam_id":85568392924469986,"keywords":["ctf","nocrits","nodmgspread","uncletopia"],"game_id":440,"stv_port":27016,"stv_name":"Uncletopia | Dallas | 1 | All Maps | STV","players":[{"user_id":193,"name":"Lubs","steam_id":76561198099244216,"connected_time":6722000000000,"state":"active","ping":45},{"user_id":296,"name":"JtsRes","steam_id":76561197994809241,"connected_time":715000000000,"state":"active","ping":58},{"user_id":276,"name":"Cervid√©","steam_id":76561198098579497,"connected_time":1972000000000,"state":"active","ping":102},{"user_id":254,"name":"MasterGeek.MX","steam_id":76561198063355220,"connected_time":3274000000000,"state":"active","ping":86},{"user_id":272,"name":"„Åµ„Çè„Åµ„ÇèÊØõÂ∏É","steam_id":76561198088403016,"connected_time":2020000000000,"state":"active","ping":180},{"user_id":225,"name":"Blake...","steam_id":76561198064090974,"connected_time":4463000000000,"state":"active","ping":97},{"user_id":291,"name":"Pot4toLord","steam_id":76561198044181063,"connected_time":892000000000,"state":"active","ping":67},{"user_id":301,"name":"SafetyInstructor","steam_id":76561199195205705,"connected_time":406000000000,"state":"active","ping":58},{"user_id":263,"name":"{ST} Oxythemoron","steam_id":76561198060089965,"connected_time":2853000000000,"state":"active","ping":47},{"user_id":252,"name":"catfish from toontown","steam_id":76561198060070002,"connected_time":3344000000000,"state":"active","ping":53},{"user_id":277,"name":"SpookyGhost","steam_id":76561197998803941,"connected_time":1960000000000,"state":"active","ping":46},{"user_id":300,"name":"FFESK","steam_id":76561198118182211,"connected_time":605000000000,"state":"active","ping":87},{"user_id":297,"name":"i invented poop","steam_id":76561199044252053,"connected_time":687000000000,"state":"active","ping":97},{"user_id":255,"name":"Grand Piano Tuna","steam_id":76561198135137213,"connected_time":3269000000000,"state":"active","ping":48},{"user_id":302,"name":"The destroyer of foreskin","steam_id":76561198135275966,"connected_time":246000000000,"state":"active","ping":61},{"user_id":304,"name":"Choppah","steam_id":76561198269193530,"connected_time":138000000000,"state":"active","ping":55},{"user_id":264,"name":"Kirby.exe","steam_id":76561198242714582,"connected_time":2828000000000,"state":"active","ping":47},{"user_id":233,"name":".mp3","steam_id":76561198070710025,"connected_time":4275000000000,"state":"active","ping":54},{"user_id":303,"name":"Terminally Ill Downie Brownie","steam_id":76561198356484354,"connected_time":182000000000,"state":"active","ping":115},{"user_id":267,"name":"Rob","steam_id":76561199187786660,"connected_time":2528000000000,"state":"active","ping":51},{"user_id":295,"name":"DOPEam1ne","steam_id":76561198112204774,"connected_time":771000000000,"state":"active","ping":83},{"user_id":279,"name":"Mikael_01","steam_id":76561199080253129,"connected_time":1945000000000,"state":"active","ping":181},{"user_id":299,"name":"Greg Boberton 2012","steam_id":76561198983566026,"connected_time":647000000000,"state":"active","ping":86},{"user_id":280,"name":"andyiscolorless","steam_id":76561199239870921,"connected_time":1928000000000,"state":"active","ping":153}]},{"server_id":108,"name":"Uncletopia | Dallas | 2 | All Maps","name_short":"dal-2","host":"dal-1.us.uncletopia.com","port":27025,"enabled":true,"region":"us-central","cc":"us","latitude":32.779167,"longitude":-96.80889,"reserved":0,"last_update":"0001-01-01T00:00:00Z","name_a2s":"Uncletopia | Dallas | 2 | All Maps","protocol":17,"map":"pl_upward","folder":"tf","game":"Team Fortress","app_id":440,"player_count":24,"max_players":24,"Bots":0,"server_type":"Dedicated","server_os":"Linux","password":true,"vac":true,"version":"7961495","steam_id":85568392924469988,"keywords":["nocrits","nodmgspread","payload","uncletopia"],"game_id":440,"stv_port":27026,"stv_name":"Uncletopia | Dallas | 2 | All Maps | STV","players":[{"user_id":450,"name":"ang","steam_id":76561198435151254,"connected_time":508000000000,"state":"active","ping":88},{"user_id":375,"name":"Yeezuz","steam_id":76561198448209430,"connected_time":4553000000000,"state":"active","ping":98},{"user_id":418,"name":"MR. BEEEEEEEEEEEEEAAAAAAAAAAST","steam_id":76561198205346760,"connected_time":2329000000000,"state":"active","ping":62},{"user_id":427,"name":"Underscorn","steam_id":76561198374209415,"connected_time":1894000000000,"state":"active","ping":58},{"user_id":438,"name":"Giselle","steam_id":76561198162593640,"connected_time":1228000000000,"state":"active","ping":104},{"user_id":407,"name":"Zhong Xina","steam_id":76561198048157121,"connected_time":2929000000000,"state":"active","ping":100},{"user_id":345,"name":"Mellou","steam_id":76561198212048740,"connected_time":6492000000000,"state":"active","ping":34},{"user_id":356,"name":"Dr. Anonymous","steam_id":76561198061654197,"connected_time":5605000000000,"state":"active","ping":56},{"user_id":439,"name":"Elm","steam_id":76561198127972568,"connected_time":1178000000000,"state":"active","ping":75},{"user_id":440,"name":"s f $","steam_id":76561199064932372,"connected_time":1162000000000,"state":"active","ping":75},{"user_id":430,"name":"minty","steam_id":76561198062821894,"connected_time":1598000000000,"state":"active","ping":50},{"user_id":441,"name":"üå∏MelWormüå∏","steam_id":76561198084145814,"connected_time":1151000000000,"state":"active","ping":65},{"user_id":432,"name":"a fuddruckers","steam_id":76561198092656099,"connected_time":1565000000000,"state":"active","ping":60},{"user_id":429,"name":"Bandicam Recording Software","steam_id":76561199122281764,"connected_time":1798000000000,"state":"active","ping":78},{"user_id":415,"name":"SizableChap","steam_id":76561199148162904,"connected_time":2525000000000,"state":"active","ping":67},{"user_id":451,"name":"cc","steam_id":76561199215821942,"connected_time":508000000000,"state":"active","ping":48},{"user_id":449,"name":"Manic","steam_id":76561198128149670,"connected_time":584000000000,"state":"active","ping":48},{"user_id":446,"name":"We Go Crazy","steam_id":76561198209641359,"connected_time":1008000000000,"state":"active","ping":72},{"user_id":412,"name":"MacxNxCheese80","steam_id":76561198923725480,"connected_time":2715000000000,"state":"active","ping":99},{"user_id":448,"name":"donk","steam_id":76561198097138000,"connected_time":622000000000,"state":"active","ping":84},{"user_id":452,"name":"[cf] Captain Terror","steam_id":76561198028034742,"connected_time":502000000000,"state":"active","ping":87},{"user_id":453,"name":"i'm sorry for whatever i did","steam_id":76561198121468734,"connected_time":127000000000,"state":"active","ping":98},{"user_id":447,"name":"Smalls","steam_id":76561198046081504,"connected_time":677000000000,"state":"active","ping":46},{"user_id":431,"name":"Mayo Colored Benz, Miracle Whip","steam_id":76561198047340813,"connected_time":1577000000000,"state":"active","ping":76}]},{"server_id":5,"name":"Uncletopia | Frankfurt | 1 | All Maps","name_short":"frk-1","host":"frk-1.de.uncletopia.com","port":27015,"enabled":true,"region":"eu","cc":"de","latitude":50.110924,"longitude":8.682127,"reserved":0,"last_update":"0001-01-01T00:00:00Z","name_a2s":"Uncletopia | Frankfurt | 1 | All Maps","protocol":17,"map":"pl_upward","folder":"tf","game":"Team Fortress","app_id":440,"player_count":17,"max_players":24,"Bots":0,"server_type":"Dedicated","server_os":"Linux","password":true,"vac":true,"version":"7961495","steam_id":85568392924469989,"keywords":["nocrits","nodmgspread","payload","uncletopia"],"game_id":440,"stv_port":27016,"stv_name":"Uncletopia | Frankfurt | 1 | All Maps | STV","players":[{"user_id":606,"name":"MrKampfCookie","steam_id":76561198085490175,"connected_time":307000000000,"state":"active","ping":43},{"user_id":528,"name":"the least schizo med main","steam_id":76561198048530109,"connected_time":4910000000000,"state":"active","ping":60},{"user_id":607,"name":"Zedespook","steam_id":76561198265479349,"connected_time":255000000000,"state":"active","ping":62},{"user_id":608,"name":"Spex","steam_id":76561198404566859,"connected_time":248000000000,"state":"active","ping":144},{"user_id":611,"name":"Darfsterman #rustclash","steam_id":76561199004139305,"connected_time":161000000000,"state":"active","ping":55},{"user_id":487,"name":"race car driver jerry","steam_id":76561198054047446,"connected_time":6270000000000,"state":"active","ping":62},{"user_id":582,"name":"dinorno","steam_id":76561198146276830,"connected_time":1866000000000,"state":"active","ping":67},{"user_id":602,"name":"Vitamin Weee","steam_id":76561199183937747,"connected_time":560000000000,"state":"active","ping":86},{"user_id":612,"name":"w1nz#rustclash.com","steam_id":76561198896232945,"connected_time":151000000000,"state":"active","ping":60},{"user_id":613,"name":"nicco","steam_id":76561198046217866,"connected_time":130000000000,"state":"active","ping":44},{"user_id":580,"name":"Raulca25","steam_id":76561199068256964,"connected_time":2025000000000,"state":"active","ping":85},{"user_id":603,"name":"Risinger","steam_id":76561198079789688,"connected_time":540000000000,"state":"active","ping":67},{"user_id":559,"name":"tallen","steam_id":76561198061708595,"connected_time":3210000000000,"state":"active","ping":75},{"user_id":614,"name":"Wepto","steam_id":76561198009536306,"connected_time":43000000000,"state":"active","ping":54},{"user_id":585,"name":"Osaka","steam_id":76561198023837248,"connected_time":1736000000000,"state":"active","ping":53},{"user_id":597,"name":"Fizzing Fool","steam_id":76561198425415033,"connected_time":903000000000,"state":"active","ping":88},{"user_id":600,"name":"labcatluke","steam_id":76561198299504470,"connected_time":706000000000,"state":"active","ping":74}]},{"server_id":110,"name":"Uncletopia | Frankfurt | 2 | All Maps","name_short":"frk-2","host":"frk-1.de.uncletopia.com","port":27025,"enabled":true,"region":"eu","cc":"de","latitude":50.110924,"longitude":8.682127,"reserved":0,"last_update":"0001-01-01T00:00:00Z","name_a2s":"Uncletopia | Frankfurt | 2 | All Maps","protocol":17,"map":"pl_frontier_final","folder":"tf","game":"Team Fortress","app_id":440,"player_count":23,"max_players":24,"Bots":0,"server_type":"Dedicated","server_os":"Linux","password":true,"vac":true,"version":"7961495","steam_id":85568392924469990,"keywords":["nocrits","nodmgspread","payload","uncletopia"],"game_id":440,"stv_port":27026,"stv_name":"Uncletopia | Frankfurt | 2 | All Maps | STV","players":[{"user_id":650,"name":"Doctor Medic","steam_id":76561198100957443,"connected_time":3955000000000,"state":"active","ping":74},{"user_id":678,"name":"Valen","steam_id":76561198049614521,"connected_time":1431000000000,"state":"active","ping":75},{"user_id":668,"name":"The one who knocks","steam_id":76561198089341471,"connected_time":1754000000000,"state":"active","ping":70},{"user_id":669,"name":"meatsoupcube","steam_id":76561198276802249,"connected_time":1733000000000,"state":"active","ping":101},{"user_id":670,"name":"Mr.Schnittlauch","steam_id":76561198295868113,"connected_time":1690000000000,"state":"active","ping":59},{"user_id":660,"name":"√êoggo","steam_id":76561198208781180,"connected_time":2637000000000,"state":"active","ping":75},{"user_id":687,"name":"obi‚ò≠","steam_id":76561198040154461,"connected_time":908000000000,"state":"active","ping":75},{"user_id":689,"name":"MrSPY123","steam_id":76561198803380049,"connected_time":734000000000,"state":"active","ping":98},{"user_id":671,"name":"kubanamaxa","steam_id":76561198154315656,"connected_time":1669000000000,"state":"active","ping":83},{"user_id":677,"name":"tm`","steam_id":76561197993580412,"connected_time":1442000000000,"state":"active","ping":57},{"user_id":679,"name":"Mr_Pulse_","steam_id":76561198095001602,"connected_time":1394000000000,"state":"active","ping":93},{"user_id":688,"name":"FoxyTheFish","steam_id":76561199074190919,"connected_time":824000000000,"state":"active","ping":55},{"user_id":673,"name":"tralalaOuiOui","steam_id":76561197963471507,"connected_time":1634000000000,"state":"active","ping":58},{"user_id":683,"name":"Fido","steam_id":76561198019826483,"connected_time":1323000000000,"state":"active","ping":59},{"user_id":645,"name":"Naeso","steam_id":76561198068602498,"connected_time":4423000000000,"state":"active","ping":46},{"user_id":680,"name":"grrokr","steam_id":76561199003462804,"connected_time":1391000000000,"state":"active","ping":86},{"user_id":693,"name":"Ank0","steam_id":76561198214180388,"connected_time":383000000000,"state":"active","ping":85},{"user_id":676,"name":"sticks","steam_id":76561198127099299,"connected_time":1514000000000,"state":"active","ping":52},{"user_id":691,"name":"Uselss Joe","steam_id":76561198275853629,"connected_time":494000000000,"state":"active","ping":59},{"user_id":652,"name":"Ankle Dane","steam_id":76561198134378108,"connected_time":3820000000000,"state":"active","ping":86},{"user_id":681,"name":"Zyned","steam_id":76561198308711585,"connected_time":1383000000000,"state":"active","ping":75},{"user_id":627,"name":"Qwertuss","steam_id":76561198026305366,"connected_time":4892000000000,"state":"active","ping":63},{"user_id":653,"name":"zak","steam_id":76561197998895428,"connected_time":3811000000000,"state":"active","ping":57}]},{"server_id":308,"name":"Uncletopia | Frankfurt | 3 | All Maps","name_short":"frk-3","host":"frk-1.de.uncletopia.com","port":27035,"enabled":true,"region":"eu","cc":"de","latitude":50.110924,"longitude":8.682127,"reserved":0,"last_update":"0001-01-01T00:00:00Z","name_a2s":"Uncletopia | Frankfurt | 3 | All Maps","protocol":17,"map":"cp_dustbowl","folder":"tf","game":"Team Fortress","app_id":440,"player_count":23,"max_players":24,"Bots":0,"server_type":"Dedicated","server_os":"Linux","password":true,"vac":true,"version":"7961495","steam_id":85568392924504274,"keywords":["cp","nocrits","nodmgspread","uncletopia"],"game_id":440,"stv_port":27036,"stv_name":"Uncletopia | Frankfurt | 3 | All Maps | STV","players":[{"user_id":380,"name":"emko√ß","steam_id":76561198846782346,"connected_time":2202000000000,"state":"active","ping":97},{"user_id":357,"name":"BloodFuel","steam_id":76561198146340825,"connected_time":3187000000000,"state":"active","ping":112},{"user_id":352,"name":"Hey, I¬¥m Andy!","steam_id":76561198060337777,"connected_time":3668000000000,"state":"active","ping":79},{"user_id":394,"name":"‚ú™‚ù§‚ôïAbraKadaBra‚ôï‚ù§‚ú™","steam_id":76561198030773877,"connected_time":1146000000000,"state":"active","ping":75},{"user_id":391,"name":"pihen","steam_id":76561198089598943,"connected_time":1737000000000,"state":"active","ping":52},{"user_id":348,"name":"finbar","steam_id":76561198056812396,"connected_time":4284000000000,"state":"active","ping":87},{"user_id":407,"name":"cvprian","steam_id":76561198066655971,"connected_time":149000000000,"state":"active","ping":62},{"user_id":360,"name":"davlevan","steam_id":76561198090848620,"connected_time":3058000000000,"state":"active","ping":76},{"user_id":404,"name":"Mr Longlegs","steam_id":76561198135617293,"connected_time":541000000000,"state":"active","ping":53},{"user_id":408,"name":"cuddle","steam_id":76561198805181599,"connected_time":105000000000,"state":"active","ping":60},{"user_id":363,"name":"DumpsterFun","steam_id":76561198026922739,"connected_time":3029000000000,"state":"active","ping":119},{"user_id":397,"name":"ScarredPixel123","steam_id":76561199165112703,"connected_time":1035000000000,"state":"active","ping":85},{"user_id":396,"name":"Hyp3r #Savetf2","steam_id":76561198965043686,"connected_time":1055000000000,"state":"active","ping":71},{"user_id":398,"name":"Live Laugh Love","steam_id":76561198306066820,"connected_time":965000000000,"state":"active","ping":72},{"user_id":399,"name":"NotChloe","steam_id":76561198080658092,"connected_time":893000000000,"state":"active","ping":79},{"user_id":392,"name":"BlinkedUp","steam_id":76561198249985618,"connected_time":1617000000000,"state":"active","ping":53},{"user_id":367,"name":"Vins van Space","steam_id":76561198073054440,"connected_time":2910000000000,"state":"active","ping":64},{"user_id":400,"name":"Melonix19","steam_id":76561198910453076,"connected_time":888000000000,"state":"active","ping":101},{"user_id":406,"name":"ht","steam_id":76561198860941690,"connected_time":259000000000,"state":"active","ping":60},{"user_id":401,"name":"ƒ∞slam'ƒ±n Zinciri - Sylas","steam_id":76561198419812739,"connected_time":818000000000,"state":"active","ping":84},{"user_id":371,"name":"Flint Atheno","steam_id":76561198000565196,"connected_time":2883000000000,"state":"active","ping":58},{"user_id":410,"name":"–≤–∞–Ω—è –±—Ä–æ","steam_id":76561198985515577,"connected_time":80000000000,"state":"active","ping":90},{"user_id":403,"name":"highest noon","steam_id":76561199103959197,"connected_time":708000000000,"state":"active","ping":90}]},{"server_id":309,"name":"Uncletopia | Frankfurt | 4 | All Maps","name_short":"frk-4","host":"frk-1.de.uncletopia.com","port":27045,"enabled":true,"region":"eu","cc":"de","latitude":50.110924,"longitude":8.682127,"reserved":0,"last_update":"0001-01-01T00:00:00Z","name_a2s":"Uncletopia | Frankfurt | 4 | All Maps","protocol":17,"map":"pl_upward","folder":"tf","game":"Team Fortress","app_id":440,"player_count":24,"max_players":24,"Bots":0,"server_type":"Dedicated","server_os":"Linux","password":true,"vac":true,"version":"7961495","steam_id":85568392924504275,"keywords":["nocrits","nodmgspread","payload","uncletopia"],"game_id":440,"stv_port":27046,"stv_name":"Uncletopia | Frankfurt | 4 | All Maps | STV","players":[{"user_id":227,"name":"slorp","steam_id":76561198239927434,"connected_time":3464000000000,"state":"active","ping":90},{"user_id":257,"name":"TheEventGuy","steam_id":76561197972797744,"connected_time":532000000000,"state":"active","ping":69},{"user_id":254,"name":"H-say","steam_id":76561198177400362,"connected_time":925000000000,"state":"active","ping":92},{"user_id":228,"name":"pizzaboob","steam_id":76561198097507847,"connected_time":3439000000000,"state":"active","ping":75},{"user_id":260,"name":"Mach","steam_id":76561198952487564,"connected_time":382000000000,"state":"active","ping":139},{"user_id":266,"name":"Post-It Paige","steam_id":76561198294059159,"connected_time":17000000000,"state":"active","ping":211},{"user_id":267,"name":"Sand","steam_id":76561198103761268,"connected_time":8000000000,"state":"active","ping":48},{"user_id":229,"name":"C#","steam_id":76561198067204908,"connected_time":3298000000000,"state":"active","ping":60},{"user_id":242,"name":"realness","steam_id":76561199129226935,"connected_time":1521000000000,"state":"active","ping":97},{"user_id":250,"name":"Master Of Noob","steam_id":76561198217926783,"connected_time":1130000000000,"state":"active","ping":74},{"user_id":231,"name":"PaperPlay","steam_id":76561198046838964,"connected_time":3153000000000,"state":"active","ping":107},{"user_id":238,"name":"kanka","steam_id":76561198116530769,"connected_time":2611000000000,"state":"active","ping":83},{"user_id":248,"name":"Weakest Sniper Enjoyer","steam_id":76561198133597860,"connected_time":1309000000000,"state":"active","ping":98},{"user_id":241,"name":"Miiukade","steam_id":76561198089157860,"connected_time":1544000000000,"state":"active","ping":143},{"user_id":243,"name":"core","steam_id":76561198090152271,"connected_time":1505000000000,"state":"active","ping":45},{"user_id":258,"name":"Ocrim_R","steam_id":76561198050479516,"connected_time":511000000000,"state":"active","ping":58},{"user_id":262,"name":"[T]aKer","steam_id":76561198001778013,"connected_time":202000000000,"state":"active","ping":53},{"user_id":265,"name":"I Bleed Butter","steam_id":76561198130814770,"connected_time":103000000000,"state":"active","ping":73},{"user_id":236,"name":"ArmedWithWings","steam_id":76561198154615474,"connected_time":2926000000000,"state":"active","ping":84},{"user_id":203,"name":"RockFrenzy","steam_id":76561198005428050,"connected_time":5189000000000,"state":"active","ping":62},{"user_id":174,"name":"r06u3","steam_id":76561198254099253,"connected_time":7416000000000,"state":"active","ping":166},{"user_id":234,"name":"rummy","steam_id":76561197997573379,"connected_time":3118000000000,"state":"active","ping":64},{"user_id":246,"name":"Superiumentarius","steam_id":76561198081642249,"connected_time":1447000000000,"state":"active","ping":60},{"user_id":264,"name":"ShawdowSytherZX (No Sound)","steam_id":76561198094820131,"connected_time":157000000000,"state":"active","ping":195}]},{"server_id":310,"name":"Uncletopia | Frankfurt | 5 | All Maps","name_short":"frk-5","host":"frk-1.de.uncletopia.com","port":27055,"enabled":true,"region":"eu","cc":"de","latitude":50.110924,"longitude":8.682127,"reserved":0,"last_update":"0001-01-01T00:00:00Z","name_a2s":"Uncletopia | Frankfurt | 5 | All Maps","protocol":17,"map":"koth_cascade","folder":"tf","game":"Team Fortress","app_id":440,"player_count":0,"max_players":24,"Bots":0,"server_type":"Dedicated","server_os":"Linux","password":true,"vac":true,"version":"7961495","steam_id":85568392924504277,"keywords":["cp","nocrits","nodmgspread","uncletopia"],"game_id":440,"stv_port":27056,"stv_name":"Uncletopia | Frankfurt | 5 | All Maps | STV","players":null},{"server_id":311,"name":"Uncletopia | Frankfurt | 6 | All Maps","name_short":"frk-6","host":"frk-1.de.uncletopia.com","port":27065,"enabled":true,"region":"eu","cc":"de","latitude":50.110924,"longitude":8.682127,"reserved":0,"last_update":"0001-01-01T00:00:00Z","name_a2s":"Uncletopia | Frankfurt | 6 | All Maps","protocol":17,"map":"pl_badwater","folder":"tf","game":"Team Fortress","app_id":440,"player_count":24,"max_players":24,"Bots":0,"server_type":"Dedicated","server_os":"Linux","password":true,"vac":true,"version":"7961495","steam_id":85568392924504278,"keywords":["nocrits","nodmgspread","payload","uncletopia"],"game_id":440,"stv_port":27066,"stv_name":"Uncletopia | Frankfurt | 6 | All Maps | STV","players":[{"user_id":476,"name":"the neonate nailer","steam_id":76561198977420882,"connected_time":3128000000000,"state":"active","ping":55},{"user_id":512,"name":"‰Ω†ÂñúÊ¨¢ÂÆÉ?","steam_id":76561198201424726,"connected_time":148000000000,"state":"active","ping":159},{"user_id":479,"name":"generic alias","steam_id":76561198271607226,"connected_time":2327000000000,"state":"active","ping":103},{"user_id":498,"name":"Buddy","steam_id":76561198050185582,"connected_time":1403000000000,"state":"active","ping":72},{"user_id":503,"name":"—Å–≤–∏–Ω—Ç—É—Å –ø—Ä–∏–π–¥–µ—Ç","steam_id":76561198172046813,"connected_time":722000000000,"state":"active","ping":71},{"user_id":482,"name":"quak","steam_id":76561198053928976,"connected_time":2295000000000,"state":"active","ping":82},{"user_id":504,"name":"Glenn Quagmire","steam_id":76561199348527880,"connected_time":711000000000,"state":"active","ping":82},{"user_id":510,"name":"bruh","steam_id":76561198109262927,"connected_time":453000000000,"state":"active","ping":68},{"user_id":462,"name":"VK2124 :D","steam_id":76561198111130688,"connected_time":4201000000000,"state":"active","ping":52},{"user_id":505,"name":"o_o","steam_id":76561198113045011,"connected_time":701000000000,"state":"active","ping":91},{"user_id":502,"name":"BreadAcres","steam_id":76561198098217082,"connected_time":752000000000,"state":"active","ping":59},{"user_id":444,"name":"JeanCorben","steam_id":76561197965133561,"connected_time":5017000000000,"state":"active","ping":46},{"user_id":456,"name":"G.R.E","steam_id":76561197979806514,"connected_time":4463000000000,"state":"active","ping":49},{"user_id":446,"name":"Popop","steam_id":76561198004793795,"connected_time":4979000000000,"state":"active","ping":56},{"user_id":485,"name":"YYS","steam_id":76561198201866574,"connected_time":2268000000000,"state":"active","ping":86},{"user_id":511,"name":"Tonne","steam_id":76561197970856766,"connected_time":392000000000,"state":"active","ping":58},{"user_id":472,"name":"Ewelinka Zniszczenia","steam_id":76561198307374456,"connected_time":3426000000000,"state":"active","ping":70},{"user_id":506,"name":"cult","steam_id":76561198188647690,"connected_time":693000000000,"state":"active","ping":74},{"user_id":487,"name":"Kurage","steam_id":76561198021221288,"connected_time":2246000000000,"state":"active","ping":60},{"user_id":509,"name":"IDon'tNeedACoolName","steam_id":76561198013547503,"connected_time":580000000000,"state":"active","ping":70},{"user_id":473,"name":"Kaishakunin","steam_id":76561198028123874,"connected_time":3422000000000,"state":"active","ping":96},{"user_id":378,"name":"Gaxkang","steam_id":76561198125768571,"connected_time":10447000000000,"state":"active","ping":71},{"user_id":500,"name":"Burbie","steam_id":76561198046069449,"connected_time":1169000000000,"state":"active","ping":69},{"user_id":494,"name":"NikIdamous","steam_id":76561198147872963,"connected_time":1621000000000,"state":"active","ping":104}]},{"server_id":23,"name":"Uncletopia | Frankfurt | 7 | Stopwatch Beta","name_short":"frk-7","host":"frk-1.de.uncletopia.com","port":27075,"enabled":true,"region":"eu","cc":"de","latitude":50.110924,"longitude":8.682127,"reserved":0,"last_update":"0001-01-01T00:00:00Z","name_a2s":"Uncletopia | Frankfurt | 7 | Stopwatch Beta","protocol":17,"map":"koth_lakeside_final","folder":"tf","game":"Team Fortress","app_id":440,"player_count":0,"max_players":24,"Bots":0,"server_type":"Dedicated","server_os":"Linux","password":true,"vac":true,"version":"7961495","steam_id":85568392924742827,"keywords":["cp","nocrits","nodmgspread","uncletopia"],"game_id":440,"stv_port":27076,"stv_name":"Uncletopia | Frankfurt | 7 | Stopwatch Beta | STV","players":null},{"server_id":24,"name":"Uncletopia | Frankfurt | 8 | Community","name_short":"frk-8","host":"frk-1.de.uncletopia.com","port":27085,"enabled":true,"region":"eu","cc":"de","latitude":50.110924,"longitude":8.682127,"reserved":0,"last_update":"0001-01-01T00:00:00Z","name_a2s":"Uncletopia | Frankfurt | 8 | Community","protocol":17,"map":"workshop/cp_sulfur_rc2.ugc619869471","folder":"tf","game":"Team Fortress","app_id":440,"player_count":0,"max_players":24,"Bots":0,"server_type":"Dedicated","server_os":"Linux","password":true,"vac":true,"version":"7961495","steam_id":85568392924742828,"keywords":["cp","nocrits","nodmgspread","uncletopia"],"game_id":440,"stv_port":27086,"stv_name":"Uncletopia | Frankfurt | 8 | Community | STV","players":null},{"server_id":202,"name":"Uncletopia | Hong Kong | 1 | All Maps","name_short":"hgk-1","host":"hgk-1.hk.uncletopia.com","port":27015,"enabled":true,"region":"asia","cc":"hk","latitude":22.302711,"longitude":114.177216,"reserved":0,"last_update":"0001-01-01T00:00:00Z","name_a2s":"Uncletopia | Hong Kong | 1 | All Maps","protocol":17,"map":"koth_highpass","folder":"tf","game":"Team Fortress","app_id":440,"player_count":0,"max_players":24,"Bots":0,"server_type":"Dedicated","server_os":"Linux","password":true,"vac":true,"version":"7961495","steam_id":85568392924494504,"keywords":["cp","nocrits","nodmgspread","uncletopia"],"game_id":440,"stv_port":27016,"stv_name":"Uncletopia | Hong Kong | 1 | All Maps | STV","players":null},{"server_id":1,"name":"Uncletopia | Los Angeles | 1 | All Maps","name_short":"lax-1","host":"lax-1.us.uncletopia.com","port":27015,"enabled":true,"region":"us-west","cc":"us","latitude":33.94279,"longitude":-118.41004,"reserved":0,"last_update":"0001-01-01T00:00:00Z","name_a2s":"Uncletopia | Los Angeles | 1 | All Maps","protocol":17,"map":"koth_nucleus","folder":"tf","game":"Team Fortress","app_id":440,"player_count":23,"max_players":24,"Bots":0,"server_type":"Dedicated","server_os":"Linux","password":true,"vac":true,"version":"7961495","steam_id":85568392924469991,"keywords":["cp","nocrits","nodmgspread","uncletopia"],"game_id":440,"stv_port":27016,"stv_name":"Uncletopia | Los Angeles | 1 | All Maps | STV","players":[{"user_id":191,"name":"Reem0h","steam_id":76561198169848690,"connected_time":2220000000000,"state":"active","ping":108},{"user_id":184,"name":"Korn Dawg","steam_id":76561198026941076,"connected_time":3128000000000,"state":"active","ping":58},{"user_id":218,"name":"durt cobain","steam_id":76561199489915885,"connected_time":673000000000,"state":"active","ping":59},{"user_id":222,"name":"Sunkenthree51","steam_id":76561198300781307,"connected_time":130000000000,"state":"active","ping":57},{"user_id":212,"name":"shakoiwa","steam_id":76561199059441773,"connected_time":985000000000,"state":"active","ping":54},{"user_id":223,"name":"Type Three Dabeetus","steam_id":76561198062710038,"connected_time":117000000000,"state":"active","ping":54},{"user_id":155,"name":"Morflez","steam_id":76561198338880051,"connected_time":4925000000000,"state":"active","ping":65},{"user_id":199,"name":"Boxcars","steam_id":76561198120978767,"connected_time":1526000000000,"state":"active","ping":55},{"user_id":201,"name":"Rainee","steam_id":76561198069185510,"connected_time":1524000000000,"state":"active","ping":53},{"user_id":221,"name":"frog with knife","steam_id":76561198171203882,"connected_time":323000000000,"state":"active","ping":119},{"user_id":198,"name":"Erntest","steam_id":76561198049499899,"connected_time":1526000000000,"state":"active","ping":71},{"user_id":200,"name":"FamousMatt","steam_id":76561198021918740,"connected_time":1525000000000,"state":"active","ping":126},{"user_id":224,"name":"Board","steam_id":76561198134326473,"connected_time":103000000000,"state":"active","ping":72},{"user_id":202,"name":"pc15pdx","steam_id":76561198072638933,"connected_time":1523000000000,"state":"active","ping":56},{"user_id":220,"name":"Mainlanders","steam_id":76561198329361992,"connected_time":489000000000,"state":"active","ping":74},{"user_id":164,"name":"Buswolley","steam_id":76561197995205571,"connected_time":4683000000000,"state":"active","ping":65},{"user_id":207,"name":"Purchase","steam_id":76561198821991700,"connected_time":1475000000000,"state":"active","ping":74},{"user_id":203,"name":"Schnitz","steam_id":76561198265484253,"connected_time":1522000000000,"state":"active","ping":64},{"user_id":216,"name":"Darkspiral","steam_id":76561198080807559,"connected_time":893000000000,"state":"active","ping":48},{"user_id":219,"name":"Trips","steam_id":76561198054581597,"connected_time":535000000000,"state":"active","ping":50},{"user_id":210,"name":"Octo","steam_id":76561198024056355,"connected_time":1194000000000,"state":"active","ping":59},{"user_id":217,"name":"Blue Banana","steam_id":76561198100077411,"connected_time":877000000000,"state":"active","ping":45},{"user_id":172,"name":"Banzai","steam_id":76561198196503877,"connected_time":4157000000000,"state":"active","ping":75}]},{"server_id":112,"name":"Uncletopia | Los Angeles | 2 | All Maps","name_short":"lax-2","host":"lax-1.us.uncletopia.com","port":27025,"enabled":true,"region":"us-west","cc":"us","latitude":33.94279,"longitude":-118.41004,"reserved":0,"last_update":"0001-01-01T00:00:00Z","name_a2s":"Uncletopia | Los Angeles | 2 | All Maps","protocol":17,"map":"pl_frontier_final","folder":"tf","game":"Team Fortress","app_id":440,"player_count":0,"max_players":24,"Bots":0,"server_type":"Dedicated","server_os":"Linux","password":true,"vac":true,"version":"7961495","steam_id":85568392924469992,"keywords":["nocrits","nodmgspread","payload","uncletopia"],"game_id":440,"stv_port":27026,"stv_name":"Uncletopia | Los Angeles | 2 | All Maps | STV","players":null},{"server_id":324,"name":"Uncletopia | Los Angeles | 3 | All Maps","name_short":"lax-3","host":"lax-1.us.uncletopia.com","port":27035,"enabled":true,"region":"us-west","cc":"us","latitude":33.94279,"longitude":-118.41004,"reserved":0,"last_update":"0001-01-01T00:00:00Z","name_a2s":"Uncletopia | Los Angeles | 3 | All Maps","protocol":17,"map":"koth_lakeside_final","folder":"tf","game":"Team Fortress","app_id":440,"player_count":0,"max_players":24,"Bots":0,"server_type":"Dedicated","server_os":"Linux","password":true,"vac":true,"version":"7961495","steam_id":85568392924510198,"keywords":["cp","nocrits","nodmgspread","uncletopia"],"game_id":440,"stv_port":27036,"stv_name":"Uncletopia | Los Angeles | 3 | All Maps | STV","players":null},{"server_id":25,"name":"Uncletopia | Los Angeles | 4 | Stopwatch Beta","name_short":"lax-4","host":"lax-1.us.uncletopia.com","port":27045,"enabled":true,"region":"us-west","cc":"us","latitude":33.94279,"longitude":-118.41004,"reserved":0,"last_update":"0001-01-01T00:00:00Z","name_a2s":"Uncletopia | Los Angeles | 4 | Stopwatch Beta","protocol":17,"map":"pl_frontier_final","folder":"tf","game":"Team Fortress","app_id":440,"player_count":0,"max_players":24,"Bots":0,"server_type":"Dedicated","server_os":"Linux","password":true,"vac":true,"version":"7961495","steam_id":85568392924510199,"keywords":["nocrits","nodmgspread","payload","uncletopia"],"game_id":440,"stv_port":27046,"stv_name":"Uncletopia | Los Angeles | 4 | Stopwatch Beta | STV","players":null},{"server_id":11,"name":"Uncletopia | London | 1 | All Maps","name_short":"lon-1","host":"lon-1.uk.uncletopia.com","port":27015,"enabled":true,"region":"eu","cc":"gb","latitude":51.509865,"longitude":-0.118092,"reserved":0,"last_update":"0001-01-01T00:00:00Z","name_a2s":"Uncletopia | London | 1 | All Maps","protocol":17,"map":"pl_snowycoast","folder":"tf","game":"Team Fortress","app_id":440,"player_count":24,"max_players":24,"Bots":0,"server_type":"Dedicated","server_os":"Linux","password":true,"vac":true,"version":"7961495","steam_id":85568392924367362,"keywords":["nocrits","nodmgspread","payload","uncletopia"],"game_id":440,"stv_port":27016,"stv_name":"Uncletopia | London | 1 | All Maps | STV","players":[{"user_id":757,"name":"Max Power","steam_id":76561198019269089,"connected_time":316000000000,"state":"active","ping":61},{"user_id":728,"name":"Puss in Boots","steam_id":76561198211599767,"connected_time":3622000000000,"state":"active","ping":57},{"user_id":750,"name":"BreadBubbles","steam_id":76561198174332826,"connected_time":1153000000000,"state":"active","ping":60},{"user_id":717,"name":"owo","steam_id":76561198158209651,"connected_time":5429000000000,"state":"active","ping":60},{"user_id":735,"name":"Snake-chan","steam_id":76561199044755854,"connected_time":2605000000000,"state":"active","ping":78},{"user_id":631,"name":"RLCrazyCat3","steam_id":76561197983757878,"connected_time":12468000000000,"state":"active","ping":66},{"user_id":742,"name":"Charmedelf","steam_id":76561197993611881,"connected_time":2114000000000,"state":"active","ping":60},{"user_id":715,"name":"J3LLY","steam_id":76561198048453764,"connected_time":5645000000000,"state":"active","ping":54},{"user_id":753,"name":"Toofy","steam_id":76561197989727907,"connected_time":695000000000,"state":"active","ping":39},{"user_id":744,"name":"Pablo.Fortnite.2011","steam_id":76561198259034983,"connected_time":2071000000000,"state":"active","ping":74},{"user_id":725,"name":"Prome","steam_id":76561199050383942,"connected_time":4566000000000,"state":"active","ping":56},{"user_id":752,"name":"Benny","steam_id":76561198056128703,"connected_time":933000000000,"state":"active","ping":77},{"user_id":739,"name":"big","steam_id":76561198073870893,"connected_time":2161000000000,"state":"active","ping":47},{"user_id":724,"name":"dec","steam_id":76561198009660168,"connected_time":4703000000000,"state":"active","ping":55},{"user_id":751,"name":"raehik","steam_id":76561198025278149,"connected_time":985000000000,"state":"active","ping":45},{"user_id":726,"name":"Fwebbie","steam_id":76561199006875621,"connected_time":4392000000000,"state":"active","ping":58},{"user_id":754,"name":"teddy","steam_id":76561198007436837,"connected_time":359000000000,"state":"active","ping":38},{"user_id":748,"name":"Grumble","steam_id":76561198053880090,"connected_time":1691000000000,"state":"active","ping":84},{"user_id":683,"name":"MEOWMEOWMEOWMEOWMEOWMEOWMEOWMEO","steam_id":76561198723244199,"connected_time":7723000000000,"state":"active","ping":78},{"user_id":730,"name":"go to sleep","steam_id":76561198305854178,"connected_time":3490000000000,"state":"active","ping":120},{"user_id":755,"name":"‚ùÑÔ∏éSHIT PISSER JULIANNE‚ùÑ","steam_id":76561198061955351,"connected_time":352000000000,"state":"active","ping":146},{"user_id":756,"name":"Dustbowl Lover","steam_id":76561198043919565,"connected_time":345000000000,"state":"active","ping":69},{"user_id":644,"name":"hmscole09","steam_id":76561198811362788,"connected_time":11628000000000,"state":"active","ping":55},{"user_id":712,"name":"Kphi(i)","steam_id":76561198970587061,"connected_time":5656000000000,"state":"active","ping":65}]},{"server_id":114,"name":"Uncletopia | London | 2 | All Maps","name_short":"lon-2","host":"lon-1.uk.uncletopia.com","port":27025,"enabled":true,"region":"eu","cc":"gb","latitude":51.509865,"longitude":-0.118092,"reserved":0,"last_update":"0001-01-01T00:00:00Z","name_a2s":"Uncletopia | London | 2 | All Maps","protocol":17,"map":"plr_bananabay","folder":"tf","game":"Team Fortress","app_id":440,"player_count":24,"max_players":24,"Bots":0,"server_type":"Dedicated","server_os":"Linux","password":true,"vac":true,"version":"7961495","steam_id":85568392924470941,"keywords":["nocrits","nodmgspread","payload","uncletopia"],"game_id":440,"stv_port":27026,"stv_name":"Uncletopia | London | 2 | All Maps | STV","players":[{"user_id":276,"name":"Emanuel Dexterity","steam_id":76561198236376196,"connected_time":3936000000000,"state":"active","ping":47},{"user_id":310,"name":"Verdy the Femboy","steam_id":76561198449084571,"connected_time":2038000000000,"state":"active","ping":30},{"user_id":294,"name":"BIGGERDANGO","steam_id":76561198247876394,"connected_time":2846000000000,"state":"active","ping":45},{"user_id":272,"name":"Dr. Funkenstein","steam_id":76561197977816210,"connected_time":4150000000000,"state":"active","ping":61},{"user_id":311,"name":"summer","steam_id":76561198170056395,"connected_time":2009000000000,"state":"active","ping":54},{"user_id":316,"name":"Aeglos","steam_id":76561198248698294,"connected_time":1165000000000,"state":"active","ping":70},{"user_id":302,"name":"pokemonsuper9","steam_id":76561198120530545,"connected_time":2594000000000,"state":"active","ping":71},{"user_id":314,"name":"Yuzu","steam_id":76561198121694613,"connected_time":1258000000000,"state":"active","ping":49},{"user_id":274,"name":"Gazza","steam_id":76561198090419732,"connected_time":4084000000000,"state":"active","ping":32},{"user_id":304,"name":"Hukka","steam_id":76561198035505355,"connected_time":2379000000000,"state":"active","ping":96},{"user_id":292,"name":"Mega","steam_id":76561197970389664,"connected_time":2916000000000,"state":"active","ping":48},{"user_id":282,"name":"HM Revenue and Customs","steam_id":76561198067699203,"connected_time":3727000000000,"state":"active","ping":37},{"user_id":293,"name":"demicalgar","steam_id":76561198166810614,"connected_time":2911000000000,"state":"active","ping":47},{"user_id":308,"name":"sachiko #","steam_id":76561198139615715,"connected_time":2070000000000,"state":"active","ping":55},{"user_id":295,"name":"Archos","steam_id":76561198181820631,"connected_time":2844000000000,"state":"active","ping":63},{"user_id":319,"name":"‚ô•Medical student‚ô•","steam_id":76561199119401415,"connected_time":938000000000,"state":"active","ping":114},{"user_id":296,"name":"bert","steam_id":76561198156318293,"connected_time":2841000000000,"state":"active","ping":46},{"user_id":306,"name":"stoicist","steam_id":76561197985213048,"connected_time":2302000000000,"state":"active","ping":55},{"user_id":325,"name":"Benson Blenderdick IV","steam_id":76561198109682749,"connected_time":410000000000,"state":"active","ping":84},{"user_id":323,"name":"{TPF}Badaabing","steam_id":76561197996161449,"connected_time":498000000000,"state":"active","ping":64},{"user_id":289,"name":"Synthro","steam_id":76561198144181109,"connected_time":3429000000000,"state":"active","ping":144},{"user_id":297,"name":"Bookus","steam_id":76561198108620516,"connected_time":2837000000000,"state":"active","ping":43},{"user_id":320,"name":"Dirty Dave","steam_id":76561198036930727,"connected_time":723000000000,"state":"active","ping":50},{"user_id":299,"name":"Jamon","steam_id":76561198393024383,"connected_time":2809000000000,"state":"active","ping":40}]},{"server_id":320,"name":"Uncletopia | London | 3 | All Maps","name_short":"lon-3","host":"lon-1.uk.uncletopia.com","port":27035,"enabled":true,"region":"eu","cc":"gb","latitude":51.509865,"longitude":-0.118092,"reserved":0,"last_update":"0001-01-01T00:00:00Z","name_a2s":"Uncletopia | London | 3 | All Maps","protocol":17,"map":"pl_swiftwater_final1","folder":"tf","game":"Team Fortress","app_id":440,"player_count":23,"max_players":24,"Bots":0,"server_type":"Dedicated","server_os":"Linux","password":true,"vac":true,"version":"7961495","steam_id":85568392924510192,"keywords":["nocrits","nodmgspread","payload","uncletopia"],"game_id":440,"stv_port":27036,"stv_name":"Uncletopia | London | 3 | All Maps | STV","players":[{"user_id":142,"name":"Gen","steam_id":76561198021775885,"connected_time":2399000000000,"state":"active","ping":58},{"user_id":147,"name":"Yokon","steam_id":76561198029645680,"connected_time":2099000000000,"state":"active","ping":69},{"user_id":146,"name":"hananamanna","steam_id":76561198006570285,"connected_time":2218000000000,"state":"active","ping":115},{"user_id":139,"name":"Vershal Smershal","steam_id":76561198116223995,"connected_time":2467000000000,"state":"active","ping":59},{"user_id":166,"name":"dd","steam_id":76561198254771749,"connected_time":364000000000,"state":"active","ping":112},{"user_id":148,"name":"Ladimir Lengin","steam_id":76561199438120787,"connected_time":2074000000000,"state":"active","ping":56},{"user_id":145,"name":"Yangus","steam_id":76561198147796010,"connected_time":2339000000000,"state":"active","ping":58},{"user_id":160,"name":"voltaic","steam_id":76561197996566832,"connected_time":688000000000,"state":"active","ping":35},{"user_id":154,"name":"sparcoro","steam_id":76561198986010546,"connected_time":1734000000000,"state":"active","ping":54},{"user_id":144,"name":"8 Ball","steam_id":76561197960988736,"connected_time":2349000000000,"state":"active","ping":46},{"user_id":72,"name":"zinc","steam_id":76561198141008822,"connected_time":7843000000000,"state":"active","ping":76},{"user_id":125,"name":"RealManiHACK","steam_id":76561198408081068,"connected_time":2927000000000,"state":"active","ping":71},{"user_id":161,"name":"AftiksPL","steam_id":76561198875182686,"connected_time":684000000000,"state":"active","ping":99},{"user_id":126,"name":"Pigeon","steam_id":76561199109713313,"connected_time":2870000000000,"state":"active","ping":44},{"user_id":82,"name":"fence_","steam_id":76561198150386379,"connected_time":7510000000000,"state":"active","ping":46},{"user_id":141,"name":"bowchika wowa #SlavaUkraine","steam_id":76561198159564550,"connected_time":2423000000000,"state":"active","ping":73},{"user_id":95,"name":"Prinsesse Vilikke","steam_id":76561198031651656,"connected_time":5978000000000,"state":"active","ping":89},{"user_id":162,"name":"Sagzy","steam_id":76561198121010932,"connected_time":666000000000,"state":"active","ping":40},{"user_id":140,"name":"xavier","steam_id":76561198076494034,"connected_time":2458000000000,"state":"active","ping":50},{"user_id":155,"name":"Koli","steam_id":76561197992428783,"connected_time":1718000000000,"state":"active","ping":61},{"user_id":163,"name":"AFerociousTeddyBearSlayer","steam_id":76561198247447256,"connected_time":661000000000,"state":"active","ping":53},{"user_id":167,"name":"Spitfire","steam_id":76561197997121260,"connected_time":235000000000,"state":"active","ping":42},{"user_id":165,"name":"Vika","steam_id":76561198014532457,"connected_time":485000000000,"state":"active","ping":80}]},{"server_id":321,"name":"Uncletopia | London | 4 | All Maps","name_short":"lon-4","host":"lon-1.uk.uncletopia.com","port":27045,"enabled":true,"region":"eu","cc":"gb","latitude":51.509865,"longitude":-0.118092,"reserved":0,"last_update":"0001-01-01T00:00:00Z","name_a2s":"Uncletopia | London | 4 | All Maps","protocol":17,"map":"pl_upward","folder":"tf","game":"Team Fortress","app_id":440,"player_count":24,"max_players":24,"Bots":0,"server_type":"Dedicated","server_os":"Linux","password":true,"vac":true,"version":"7961495","steam_id":85568392924510193,"keywords":["nocrits","nodmgspread","payload","uncletopia"],"game_id":440,"stv_port":27046,"stv_name":"Uncletopia | London | 4 | All Maps | STV","players":[{"user_id":538,"name":"Bobo","steam_id":76561198052308399,"connected_time":262000000000,"state":"active","ping":63},{"user_id":480,"name":"Epickario","steam_id":76561199068338969,"connected_time":4024000000000,"state":"active","ping":56},{"user_id":489,"name":"gmem","steam_id":76561198070006725,"connected_time":3941000000000,"state":"active","ping":47},{"user_id":479,"name":"Heed","steam_id":76561198033605800,"connected_time":4031000000000,"state":"active","ping":88},{"user_id":501,"name":"MR.PizzaRoles","steam_id":76561199068248901,"connected_time":3306000000000,"state":"active","ping":88},{"user_id":504,"name":"Fr√ºsteh","steam_id":76561198059177102,"connected_time":3098000000000,"state":"active","ping":65},{"user_id":447,"name":"StingyLettuce","steam_id":76561199010337406,"connected_time":5247000000000,"state":"active","ping":114},{"user_id":450,"name":"N","steam_id":76561198257342972,"connected_time":5132000000000,"state":"active","ping":60},{"user_id":451,"name":"7oid","steam_id":76561198142074232,"connected_time":5116000000000,"state":"active","ping":103},{"user_id":508,"name":"Dr_chilly","steam_id":76561198445383213,"connected_time":3002000000000,"state":"active","ping":171},{"user_id":540,"name":"0x01A4","steam_id":76561199038801888,"connected_time":125000000000,"state":"active","ping":50},{"user_id":521,"name":"Mafew","steam_id":76561198119993886,"connected_time":1462000000000,"state":"active","ping":57},{"user_id":526,"name":"Dr ADHD MD","steam_id":76561198025252995,"connected_time":1237000000000,"state":"active","ping":53},{"user_id":482,"name":"Kamanie","steam_id":76561198135448255,"connected_time":4020000000000,"state":"active","ping":65},{"user_id":505,"name":"ein'd","steam_id":76561198152162834,"connected_time":3088000000000,"state":"active","ping":99},{"user_id":530,"name":"Noob_with_source","steam_id":76561198870362103,"connected_time":1077000000000,"state":"active","ping":59},{"user_id":495,"name":"Jones","steam_id":76561198134347032,"connected_time":3589000000000,"state":"active","ping":65},{"user_id":473,"name":"Max Andrew","steam_id":76561198158955194,"connected_time":4273000000000,"state":"active","ping":55},{"user_id":534,"name":"Berdly","steam_id":76561199029872533,"connected_time":973000000000,"state":"active","ping":48},{"user_id":500,"name":"kilo","steam_id":76561198015641339,"connected_time":3345000000000,"state":"active","ping":80},{"user_id":486,"name":"weird gamer","steam_id":76561198047749446,"connected_time":3993000000000,"state":"active","ping":59},{"user_id":535,"name":"Jimmi Amareno","steam_id":76561198327750625,"connected_time":800000000000,"state":"active","ping":40},{"user_id":527,"name":"UltimateAura","steam_id":76561198338361324,"connected_time":1201000000000,"state":"active","ping":41},{"user_id":328,"name":"ROX","steam_id":76561198272289320,"connected_time":13320000000000,"state":"active","ping":65}]},{"server_id":21,"name":"Uncletopia | London | 5 | All Maps","name_short":"lon-5","host":"lon-1.uk.uncletopia.com","port":27055,"enabled":true,"region":"eu","cc":"gb","latitude":51.509865,"longitude":-0.118092,"reserved":0,"last_update":"0001-01-01T00:00:00Z","name_a2s":"Uncletopia | London | 5 | All Maps","protocol":17,"map":"cp_altitude","folder":"tf","game":"Team Fortress","app_id":440,"player_count":23,"max_players":24,"Bots":0,"server_type":"Dedicated","server_os":"Linux","password":true,"vac":true,"version":"7961495","steam_id":85568392924742829,"keywords":["cp","nocrits","nodmgspread","uncletopia"],"game_id":440,"stv_port":27056,"stv_name":"Uncletopia | London | 5 | All Maps | STV","players":[{"user_id":244,"name":"randompixel","steam_id":76561198003941207,"connected_time":1744000000000,"state":"active","ping":55},{"user_id":262,"name":"conquistadorgt","steam_id":76561198848812449,"connected_time":140000000000,"state":"active","ping":66},{"user_id":253,"name":"Klunkerino","steam_id":76561197971081655,"connected_time":303000000000,"state":"active","ping":69},{"user_id":246,"name":"Bob Sacamano","steam_id":76561198085610701,"connected_time":1554000000000,"state":"active","ping":99},{"user_id":254,"name":"DroidRanger","steam_id":76561198158858171,"connected_time":285000000000,"state":"active","ping":54},{"user_id":228,"name":"Goliac","steam_id":76561198165205268,"connected_time":2404000000000,"state":"active","ping":96},{"user_id":205,"name":"Naix","steam_id":76561198053893077,"connected_time":4262000000000,"state":"active","ping":57},{"user_id":258,"name":"Hercules","steam_id":76561198041164170,"connected_time":173000000000,"state":"active","ping":69},{"user_id":229,"name":"spy gaming","steam_id":76561198280056210,"connected_time":2399000000000,"state":"active","ping":93},{"user_id":230,"name":"Urfangonultasadana","steam_id":76561199389286151,"connected_time":2384000000000,"state":"active","ping":93},{"user_id":223,"name":"Osqq :s","steam_id":76561198075465106,"connected_time":3148000000000,"state":"active","ping":86},{"user_id":255,"name":"Envy","steam_id":76561198132723219,"connected_time":270000000000,"state":"active","ping":105},{"user_id":259,"name":"Rorugnak [try-hard]","steam_id":76561198850972149,"connected_time":170000000000,"state":"active","ping":140},{"user_id":257,"name":"Turtle","steam_id":76561198053254139,"connected_time":215000000000,"state":"active","ping":52},{"user_id":260,"name":"mister clusterfuck","steam_id":76561198531978435,"connected_time":160000000000,"state":"active","ping":68},{"user_id":201,"name":"wal","steam_id":76561198066043883,"connected_time":4293000000000,"state":"active","ping":50},{"user_id":261,"name":"–û–±–∞–º–∞–≤—Ä–∞—Ç—ä","steam_id":76561198327679106,"connected_time":150000000000,"state":"active","ping":135},{"user_id":235,"name":"Oak","steam_id":76561198067315672,"connected_time":2222000000000,"state":"active","ping":46},{"user_id":214,"name":"Red Metal","steam_id":76561198362722560,"connected_time":3850000000000,"state":"active","ping":183},{"user_id":263,"name":"Spy (I Love spy)","steam_id":76561199138738952,"connected_time":138000000000,"state":"active","ping":165},{"user_id":264,"name":"Shahaf","steam_id":76561198090838365,"connected_time":132000000000,"state":"active","ping":93},{"user_id":265,"name":"Pucho","steam_id":76561198134617262,"connected_time":124000000000,"state":"active","ping":58},{"user_id":266,"name":"Portugal","steam_id":76561198991911696,"connected_time":119000000000,"state":"active","ping":65}]},{"server_id":22,"name":"Uncletopia | London | 6 | All Maps","name_short":"lon-6","host":"lon-1.uk.uncletopia.com","port":27065,"enabled":true,"region":"eu","cc":"gb","latitude":51.509865,"longitude":-0.118092,"reserved":0,"last_update":"0001-01-01T00:00:00Z","name_a2s":"Uncletopia | London | 6 | All Maps","protocol":17,"map":"pl_upward","folder":"tf","game":"Team Fortress","app_id":440,"player_count":7,"max_players":24,"Bots":0,"server_type":"Dedicated","server_os":"Linux","password":true,"vac":true,"version":"7961495","steam_id":85568392924742830,"keywords":["nocrits","nodmgspread","payload","uncletopia"],"game_id":440,"stv_port":27066,"stv_name":"Uncletopia | London | 6 | All Maps | STV","players":[{"user_id":66,"name":"frodoan","steam_id":76561198165602426,"connected_time":3440000000000,"state":"active","ping":58},{"user_id":67,"name":"killer19611","steam_id":76561198267784520,"connected_time":3383000000000,"state":"active","ping":48},{"user_id":72,"name":"SharaEnder","steam_id":76561198389429180,"connected_time":3363000000000,"state":"active","ping":350},{"user_id":77,"name":"bombo112","steam_id":76561198059743551,"connected_time":864000000000,"state":"active","ping":56},{"user_id":78,"name":"Egg Guzzler","steam_id":76561199109194893,"connected_time":593000000000,"state":"active","ping":167},{"user_id":79,"name":"ST‚õ•RZ","steam_id":76561198965593434,"connected_time":481000000000,"state":"active","ping":120},{"user_id":81,"name":"Ghostie","steam_id":76561199040253415,"connected_time":218000000000,"state":"active","ping":31}]},{"server_id":40,"name":"Uncletopia | London | 7 | No Payload","name_short":"lon-7","host":"lon-1.uk.uncletopia.com","port":27075,"enabled":true,"region":"eu","cc":"gb","latitude":51.509865,"longitude":-0.118092,"reserved":0,"last_update":"0001-01-01T00:00:00Z","name_a2s":"Uncletopia | London | 7 | No Payload","protocol":17,"map":"ctf_sawmill","folder":"tf","game":"Team Fortress","app_id":440,"player_count":21,"max_players":24,"Bots":0,"server_type":"Dedicated","server_os":"Linux","password":true,"vac":true,"version":"7961495","steam_id":85568392924964314,"keywords":["ctf","nocrits","nodmgspread","uncletopia"],"game_id":440,"stv_port":27076,"stv_name":"Uncletopia | London | 7 | No Payload | STV","players":[{"user_id":89,"name":"Pan Pan","steam_id":76561199074670515,"connected_time":1106000000000,"state":"active","ping":101},{"user_id":65,"name":"FINNERTY2018","steam_id":76561198829848794,"connected_time":2695000000000,"state":"active","ping":73},{"user_id":66,"name":"Èà¥Êú®‰∏ÄÊúó","steam_id":76561198143551042,"connected_time":2668000000000,"state":"active","ping":58},{"user_id":60,"name":"joachym","steam_id":76561198428579761,"connected_time":3077000000000,"state":"active","ping":70},{"user_id":67,"name":"QUEENSLANDA","steam_id":76561198081390166,"connected_time":2637000000000,"state":"active","ping":59},{"user_id":78,"name":"Jamie","steam_id":76561198236763246,"connected_time":2215000000000,"state":"active","ping":69},{"user_id":115,"name":"Lensy","steam_id":76561198124442128,"connected_time":93000000000,"state":"active","ping":45},{"user_id":72,"name":"Mitch Trubisky","steam_id":76561198081333872,"connected_time":2536000000000,"state":"active","ping":50},{"user_id":113,"name":"TheEmeraldElias","steam_id":76561199117460238,"connected_time":186000000000,"state":"active","ping":148},{"user_id":116,"name":"THY DARK L0RD","steam_id":76561198029005085,"connected_time":59000000000,"state":"active","ping":74},{"user_id":114,"name":"Blad","steam_id":76561198866832210,"connected_time":162000000000,"state":"active","ping":67},{"user_id":82,"name":"Equinox","steam_id":76561198154698086,"connected_time":1963000000000,"state":"active","ping":55},{"user_id":119,"name":"SparklyCherries","steam_id":76561198102969924,"connected_time":1000000000,"state":"spawning","ping":36},{"user_id":102,"name":"Negev","steam_id":76561198327333965,"connected_time":532000000000,"state":"active","ping":53},{"user_id":111,"name":"Dr Nefario","steam_id":76561198254646194,"connected_time":202000000000,"state":"active","ping":114},{"user_id":51,"name":"Kekeke","steam_id":76561198063672270,"connected_time":3228000000000,"state":"active","ping":92},{"user_id":106,"name":"sAmasam","steam_id":76561198114953928,"connected_time":458000000000,"state":"active","ping":61},{"user_id":117,"name":"Enigmatic Gale","steam_id":76561198039416982,"connected_time":47000000000,"state":"active","ping":56},{"user_id":108,"name":"Hunnye","steam_id":76561198822725169,"connected_time":323000000000,"state":"active","ping":58},{"user_id":118,"name":"-Extreme-","steam_id":76561198013900127,"connected_time":40000000000,"state":"active","ping":431},{"user_id":112,"name":"Grenade The green goblin.","steam_id":76561197979603871,"connected_time":200000000000,"state":"active","ping":61}]},{"server_id":41,"name":"Uncletopia | London | 8 | Community","name_short":"lon-8","host":"lon-1.uk.uncletopia.com","port":27085,"enabled":true,"region":"eu","cc":"gb","latitude":51.509865,"longitude":-0.118092,"reserved":0,"last_update":"0001-01-01T00:00:00Z","name_a2s":"Uncletopia | London | 8 | Community","protocol":17,"map":"workshop/pl_highwood_b13.ugc1769496557","folder":"tf","game":"Team Fortress","app_id":440,"player_count":0,"max_players":24,"Bots":0,"server_type":"Dedicated","server_os":"Linux","password":true,"vac":true,"version":"7961495","steam_id":85568392924964315,"keywords":["nocrits","nodmgspread","payload","uncletopia"],"game_id":440,"stv_port":27086,"stv_name":"Uncletopia | London | 8 | Community | STV","players":null},{"server_id":300,"name":"Uncletopia | Montr√©al | 1 | All Maps","name_short":"mtl-1","host":"mtl-1.ca.uncletopia.com","port":27015,"enabled":true,"region":"us-east","cc":"ca","latitude":45.50889,"longitude":-73.56167,"reserved":0,"last_update":"0001-01-01T00:00:00Z","name_a2s":"Uncletopia | Montr√©al | 1 | All Maps","protocol":17,"map":"koth_cascade","folder":"tf","game":"Team Fortress","app_id":440,"player_count":0,"max_players":24,"Bots":0,"server_type":"Dedicated","server_os":"Linux","password":true,"vac":true,"version":"7961495","steam_id":85568392924500087,"keywords":["cp","nocrits","nodmgspread","uncletopia"],"game_id":440,"stv_port":27016,"stv_name":"Uncletopia | Montr√©al | 1 | All Maps | STV","players":null},{"server_id":301,"name":"Uncletopia | Montr√©al | 2 | All Maps","name_short":"mtl-2","host":"mtl-1.ca.uncletopia.com","port":27025,"enabled":true,"region":"us-east","cc":"ca","latitude":45.50889,"longitude":-73.56167,"reserved":0,"last_update":"0001-01-01T00:00:00Z","name_a2s":"Uncletopia | Montr√©al | 2 | All Maps","protocol":17,"map":"pl_frontier_final","folder":"tf","game":"Team Fortress","app_id":440,"player_count":24,"max_players":24,"Bots":0,"server_type":"Dedicated","server_os":"Linux","password":true,"vac":true,"version":"7961495","steam_id":85568392924500088,"keywords":["nocrits","nodmgspread","payload","uncletopia"],"game_id":440,"stv_port":27026,"stv_name":"Uncletopia | Montr√©al | 2 | All Maps | STV","players":[{"user_id":13,"name":"t.tv/stabslive","steam_id":76561198293116584,"connected_time":2420000000000,"state":"active","ping":77},{"user_id":65,"name":"Xbmann | Resurfed","steam_id":76561198041017977,"connected_time":8000000000,"state":"active","ping":88},{"user_id":34,"name":"bilysig","steam_id":76561199137827986,"connected_time":1906000000000,"state":"active","ping":65},{"user_id":52,"name":"Silverkeys","steam_id":76561197986012496,"connected_time":1029000000000,"state":"active","ping":73},{"user_id":15,"name":"conner","steam_id":76561198042801153,"connected_time":2407000000000,"state":"active","ping":57},{"user_id":16,"name":"Mowsferatu","steam_id":76561198041901707,"connected_time":2404000000000,"state":"active","ping":90},{"user_id":62,"name":"demoknight tf2","steam_id":76561198070393998,"connected_time":558000000000,"state":"active","ping":62},{"user_id":64,"name":"Karo","steam_id":76561199011823773,"connected_time":102000000000,"state":"active","ping":117},{"user_id":32,"name":"That damn gorsh gammit","steam_id":76561198374834340,"connected_time":2056000000000,"state":"active","ping":152},{"user_id":59,"name":"crabapples","steam_id":76561198075818655,"connected_time":820000000000,"state":"active","ping":74},{"user_id":53,"name":"Jeff Probst","steam_id":76561199215811448,"connected_time":988000000000,"state":"active","ping":60},{"user_id":25,"name":"El G√ºey","steam_id":76561197970450546,"connected_time":2312000000000,"state":"active","ping":131},{"user_id":50,"name":"Sicko Mode (Chris Pratt Cover)","steam_id":76561198315786174,"connected_time":1297000000000,"state":"active","ping":57},{"user_id":61,"name":"SapphireSalt","steam_id":76561198356921097,"connected_time":666000000000,"state":"active","ping":61},{"user_id":54,"name":"jimmyfnaf172198yay","steam_id":76561198311446636,"connected_time":905000000000,"state":"active","ping":77},{"user_id":55,"name":"Nungel","steam_id":76561198272961376,"connected_time":900000000000,"state":"active","ping":106},{"user_id":63,"name":"ACrispSlimJim","steam_id":76561198145913920,"connected_time":338000000000,"state":"active","ping":79},{"user_id":47,"name":"Flubby","steam_id":76561198069171252,"connected_time":1550000000000,"state":"active","ping":67},{"user_id":51,"name":"Wan Shi Tong","steam_id":76561198076441225,"connected_time":1294000000000,"state":"active","ping":59},{"user_id":57,"name":"rumidog","steam_id":76561198046896005,"connected_time":866000000000,"state":"active","ping":90},{"user_id":41,"name":"The Hoagie Hero","steam_id":76561198057569298,"connected_time":1661000000000,"state":"active","ping":93},{"user_id":60,"name":"Weeb","steam_id":76561198333568146,"connected_time":799000000000,"state":"active","ping":68},{"user_id":43,"name":"Scuff1e","steam_id":76561198272995728,"connected_time":1640000000000,"state":"active","ping":93},{"user_id":44,"name":"spillproff","steam_id":76561198082337619,"connected_time":1623000000000,"state":"active","ping":54}]},{"server_id":302,"name":"Uncletopia | Montr√©al | 3 | All Maps","name_short":"mtl-3","host":"mtl-1.ca.uncletopia.com","port":27035,"enabled":true,"region":"us-east","cc":"ca","latitude":45.50889,"longitude":-73.56167,"reserved":0,"last_update":"0001-01-01T00:00:00Z","name_a2s":"Uncletopia | Montr√©al | 3 | All Maps","protocol":17,"map":"pl_snowycoast","folder":"tf","game":"Team Fortress","app_id":440,"player_count":0,"max_players":24,"Bots":0,"server_type":"Dedicated","server_os":"Linux","password":true,"vac":true,"version":"7961495","steam_id":85568392924500089,"keywords":["nocrits","nodmgspread","payload","uncletopia"],"game_id":440,"stv_port":27036,"stv_name":"Uncletopia | Montr√©al | 3 | All Maps | STV","players":null},{"server_id":303,"name":"Uncletopia | Montr√©al | 4 | No Payload","name_short":"mtl-4","host":"mtl-1.ca.uncletopia.com","port":27045,"enabled":true,"region":"us-east","cc":"ca","latitude":45.50889,"longitude":-73.56167,"reserved":0,"last_update":"0001-01-01T00:00:00Z","name_a2s":"Uncletopia | Montr√©al | 4 | No Payload","protocol":17,"map":"cp_5gorge","folder":"tf","game":"Team Fortress","app_id":440,"player_count":0,"max_players":24,"Bots":0,"server_type":"Dedicated","server_os":"Linux","password":true,"vac":true,"version":"7961495","steam_id":85568392924500090,"keywords":["cp","nocrits","nodmgspread","uncletopia"],"game_id":440,"stv_port":27046,"stv_name":"Uncletopia | Montr√©al | 4 | No Payload | STV","players":null},{"server_id":13,"name":"Uncletopia | New York City | 1 | All Maps","name_short":"nyc-1","host":"nyc-1.us.uncletopia.com","port":27015,"enabled":true,"region":"us-east","cc":"us","latitude":40.73061,"longitude":-73.93524,"reserved":0,"last_update":"0001-01-01T00:00:00Z","name_a2s":"Uncletopia | New York City | 1 | All Maps","protocol":17,"map":"cp_mercenarypark","folder":"tf","game":"Team Fortress","app_id":440,"player_count":24,"max_players":24,"Bots":0,"server_type":"Dedicated","server_os":"Linux","password":true,"vac":true,"version":"7961495","steam_id":85568392924469993,"keywords":["cp","nocrits","nodmgspread","uncletopia"],"game_id":440,"stv_port":27016,"stv_name":"Uncletopia | New York City | 1 | All Maps | STV","players":[{"user_id":123,"name":"Kirbs","steam_id":76561198970654800,"connected_time":1047000000000,"state":"active","ping":50},{"user_id":124,"name":"Brown_Dream","steam_id":76561198975766145,"connected_time":1044000000000,"state":"active","ping":70},{"user_id":131,"name":"CRAZY engineer","steam_id":76561198887937902,"connected_time":501000000000,"state":"active","ping":52},{"user_id":141,"name":"Big Boss","steam_id":76561198364882026,"connected_time":119000000000,"state":"active","ping":215},{"user_id":132,"name":"Mora","steam_id":76561198060542307,"connected_time":461000000000,"state":"active","ping":105},{"user_id":139,"name":"vandeer","steam_id":76561198120124007,"connected_time":151000000000,"state":"active","ping":85},{"user_id":140,"name":"k3ramb1t","steam_id":76561198097880352,"connected_time":150000000000,"state":"active","ping":53},{"user_id":137,"name":"Primal","steam_id":76561197983118203,"connected_time":227000000000,"state":"active","ping":81},{"user_id":113,"name":"acid","steam_id":76561198055855408,"connected_time":1837000000000,"state":"active","ping":61},{"user_id":17,"name":"Periculosum PhD in Funny","steam_id":76561198123370914,"connected_time":6653000000000,"state":"active","ping":102},{"user_id":97,"name":"wyro","steam_id":76561199176835169,"connected_time":2710000000000,"state":"active","ping":120},{"user_id":19,"name":"Nilantive","steam_id":76561198177565082,"connected_time":6628000000000,"state":"active","ping":41},{"user_id":142,"name":"CloudVic","steam_id":76561198118868716,"connected_time":112000000000,"state":"active","ping":96},{"user_id":120,"name":"Ruger","steam_id":76561198079556769,"connected_time":1334000000000,"state":"active","ping":90},{"user_id":135,"name":"BLANK3T (They/He) | RGL.gg","steam_id":76561198028875624,"connected_time":330000000000,"state":"active","ping":117},{"user_id":102,"name":"submackeen","steam_id":76561198799855913,"connected_time":2346000000000,"state":"active","ping":85},{"user_id":70,"name":"thecal","steam_id":76561198307893384,"connected_time":4700000000000,"state":"active","ping":67},{"user_id":109,"name":"14Noodles","steam_id":76561198162798676,"connected_time":2003000000000,"state":"active","ping":81},{"user_id":130,"name":"6t26j","steam_id":76561198278282836,"connected_time":531000000000,"state":"active","ping":62},{"user_id":116,"name":"Cmellz","steam_id":76561198047577806,"connected_time":1552000000000,"state":"active","ping":120},{"user_id":118,"name":"fi_ji","steam_id":76561198126087725,"connected_time":1508000000000,"state":"active","ping":59},{"user_id":127,"name":"Prowox","steam_id":76561198032606089,"connected_time":721000000000,"state":"active","ping":148},{"user_id":121,"name":"cyberas","steam_id":76561198257092290,"connected_time":1291000000000,"state":"active","ping":67},{"user_id":134,"name":"watchfull","steam_id":76561198433266742,"connected_time":422000000000,"state":"active","ping":116}]},{"server_id":14,"name":"Uncletopia | New York City | 2 | All Maps","name_short":"nyc-2","host":"nyc-1.us.uncletopia.com","port":27025,"enabled":true,"region":"us-east","cc":"us","latitude":40.73061,"longitude":-73.93524,"reserved":0,"last_update":"0001-01-01T00:00:00Z","name_a2s":"Uncletopia | New York City | 2 | All Maps","protocol":17,"map":"pl_barnblitz","folder":"tf","game":"Team Fortress","app_id":440,"player_count":24,"max_players":24,"Bots":0,"server_type":"Dedicated","server_os":"Linux","password":true,"vac":true,"version":"7961495","steam_id":85568392924469994,"keywords":["nocrits","nodmgspread","payload","uncletopia"],"game_id":440,"stv_port":27026,"stv_name":"Uncletopia | New York City | 2 | All Maps | STV","players":[{"user_id":378,"name":"Rodgedan","steam_id":76561198226236524,"connected_time":1040000000000,"state":"active","ping":75},{"user_id":394,"name":"gIBBY","steam_id":76561198080099598,"connected_time":220000000000,"state":"active","ping":42},{"user_id":379,"name":"ooidial","steam_id":76561199086221916,"connected_time":1023000000000,"state":"active","ping":74},{"user_id":354,"name":"chesterwnimitz","steam_id":76561198062664377,"connected_time":1916000000000,"state":"active","ping":93},{"user_id":388,"name":"Universe Man","steam_id":76561197997710655,"connected_time":531000000000,"state":"active","ping":98},{"user_id":386,"name":"-œÄ- BakaD","steam_id":76561197960559169,"connected_time":856000000000,"state":"active","ping":45},{"user_id":360,"name":"Professional Brohamad","steam_id":76561198824025210,"connected_time":1503000000000,"state":"active","ping":65},{"user_id":376,"name":"BigMan","steam_id":76561198277150955,"connected_time":1184000000000,"state":"active","ping":50},{"user_id":361,"name":"wearing my sunday pants","steam_id":76561198834106533,"connected_time":1481000000000,"state":"active","ping":65},{"user_id":362,"name":"franky","steam_id":76561198070903328,"connected_time":1476000000000,"state":"active","ping":59},{"user_id":363,"name":"SolmonFish","steam_id":76561198942169006,"connected_time":1474000000000,"state":"active","ping":55},{"user_id":365,"name":"Minty","steam_id":76561198050714055,"connected_time":1463000000000,"state":"active","ping":71},{"user_id":366,"name":"Wagemage","steam_id":76561198013625580,"connected_time":1452000000000,"state":"active","ping":67},{"user_id":380,"name":"Apetometrist","steam_id":76561198045391635,"connected_time":1002000000000,"state":"active","ping":71},{"user_id":387,"name":"Waltz Leafington","steam_id":76561198055277053,"connected_time":566000000000,"state":"active","ping":49},{"user_id":395,"name":"booty, penis suckah!! (Steve)","steam_id":76561198104086771,"connected_time":183000000000,"state":"active","ping":104},{"user_id":390,"name":"the_willy12","steam_id":76561199145029672,"connected_time":519000000000,"state":"active","ping":73},{"user_id":371,"name":"Aerobro","steam_id":76561198033530996,"connected_time":1340000000000,"state":"active","ping":100},{"user_id":396,"name":"Mr_Frosty","steam_id":76561199380389079,"connected_time":58000000000,"state":"active","ping":74},{"user_id":384,"name":"mkhcroy","steam_id":76561198125448762,"connected_time":941000000000,"state":"active","ping":78},{"user_id":303,"name":"GaiBerd","steam_id":76561198177100634,"connected_time":5756000000000,"state":"active","ping":49},{"user_id":391,"name":"the meat man","steam_id":76561198037921140,"connected_time":513000000000,"state":"active","ping":102},{"user_id":385,"name":"Don't Fuckle with Shuckle","steam_id":76561199020102367,"connected_time":901000000000,"state":"active","ping":84},{"user_id":347,"name":"D.E.O","steam_id":76561198096992957,"connected_time":2228000000000,"state":"active","ping":126}]},{"server_id":15,"name":"Uncletopia | New York City | 3 | Stopwatch Beta","name_short":"nyc-3","host":"nyc-1.us.uncletopia.com","port":27035,"enabled":true,"region":"us-east","cc":"us","latitude":40.73061,"longitude":-73.93524,"reserved":0,"last_update":"0001-01-01T00:00:00Z","name_a2s":"Uncletopia | New York City | 3 | Stopwatch Beta","protocol":17,"map":"koth_lakeside_final","folder":"tf","game":"Team Fortress","app_id":440,"player_count":1,"max_players":24,"Bots":0,"server_type":"Dedicated","server_os":"Linux","password":true,"vac":true,"version":"7961495","steam_id":85568392924742820,"keywords":["cp","nocrits","nodmgspread","uncletopia"],"game_id":440,"stv_port":27036,"stv_name":"Uncletopia | New York City | 3 | Stopwatch Beta | STV","players":[{"user_id":6,"name":"Grid","steam_id":76561199184417585,"connected_time":183000000000,"state":"active","ping":46}]},{"server_id":16,"name":"Uncletopia | New York City | 4 | Community","name_short":"nyc-4","host":"nyc-1.us.uncletopia.com","port":27045,"enabled":true,"region":"us-east","cc":"us","latitude":40.73061,"longitude":-73.93524,"reserved":0,"last_update":"0001-01-01T00:00:00Z","name_a2s":"Uncletopia | New York City | 4 | Community","protocol":17,"map":"pl_frontier_final","folder":"tf","game":"Team Fortress","app_id":440,"player_count":0,"max_players":24,"Bots":0,"server_type":"Dedicated","server_os":"Linux","password":true,"vac":true,"version":"7961495","steam_id":85568392924742821,"keywords":["nocrits","nodmgspread","payload","uncletopia"],"game_id":440,"stv_port":27046,"stv_name":"Uncletopia | New York City | 4 | Community | STV","players":null},{"server_id":142,"name":"Uncletopia | S√£o Paulo | 1 | All Maps","name_short":"sao-1","host":"sao-1.br.uncletopia.com","port":27015,"enabled":true,"region":"sa","cc":"br","latitude":-23.533773,"longitude":-46.62529,"reserved":0,"last_update":"0001-01-01T00:00:00Z","name_a2s":"Uncletopia | S√£o Paulo | 1 | All Maps","protocol":17,"map":"koth_highpass","folder":"tf","game":"Team Fortress","app_id":440,"player_count":0,"max_players":24,"Bots":0,"server_type":"Dedicated","server_os":"Linux","password":true,"vac":true,"version":"7961495","steam_id":85568392924469996,"keywords":["cp","nocrits","nodmgspread","uncletopia"],"game_id":440,"stv_port":27016,"stv_name":"Uncletopia | S√£o Paulo | 1 | All Maps | STV","players":null},{"server_id":143,"name":"Uncletopia | S√£o Paulo | 2 | All Maps","name_short":"sao-2","host":"sao-2.br.uncletopia.com","port":27015,"enabled":true,"region":"sa","cc":"br","latitude":-23.533773,"longitude":-46.62529,"reserved":0,"last_update":"0001-01-01T00:00:00Z","name_a2s":"Uncletopia | S√£o Paulo | 2 | All Maps","protocol":17,"map":"cp_sunshine","folder":"tf","game":"Team Fortress","app_id":440,"player_count":0,"max_players":24,"Bots":0,"server_type":"Dedicated","server_os":"Linux","password":true,"vac":true,"version":"7961495","steam_id":85568392924485349,"keywords":["cp","nocrits","nodmgspread","uncletopia"],"game_id":440,"stv_port":27016,"stv_name":"Uncletopia | S√£o Paulo | 2 | All Maps | STV","players":null},{"server_id":7,"name":"Uncletopia | Seattle | 1 | All Maps","name_short":"sea-1","host":"sea-1.us.uncletopia.com","port":27015,"enabled":true,"region":"us-west","cc":"us","latitude":47.608013,"longitude":-122.33517,"reserved":0,"last_update":"0001-01-01T00:00:00Z","name_a2s":"Uncletopia | Seattle | 1 | All Maps","protocol":17,"map":"pl_pier","folder":"tf","game":"Team Fortress","app_id":440,"player_count":24,"max_players":24,"Bots":0,"server_type":"Dedicated","server_os":"Linux","password":true,"vac":true,"version":"7961495","steam_id":85568392924469997,"keywords":["nocrits","nodmgspread","payload","uncletopia"],"game_id":440,"stv_port":27016,"stv_name":"Uncletopia | Seattle | 1 | All Maps | STV","players":[{"user_id":26,"name":"dust | she/it","steam_id":76561198045218909,"connected_time":12403000000000,"state":"active","ping":44},{"user_id":191,"name":"pimpmykek","steam_id":76561198271911317,"connected_time":1260000000000,"state":"active","ping":106},{"user_id":195,"name":"yawn","steam_id":76561198067753179,"connected_time":465000000000,"state":"active","ping":62},{"user_id":189,"name":"Walrus King","steam_id":76561199112727345,"connected_time":1372000000000,"state":"active","ping":83},{"user_id":138,"name":"Yurei","steam_id":76561198088750661,"connected_time":5503000000000,"state":"active","ping":73},{"user_id":203,"name":"It's a Doggydog World","steam_id":76561198018232414,"connected_time":74000000000,"state":"active","ping":82},{"user_id":196,"name":"SneakyJayMLP","steam_id":76561198969565685,"connected_time":449000000000,"state":"active","ping":128},{"user_id":197,"name":"TrixieHap","steam_id":76561198728548389,"connected_time":441000000000,"state":"active","ping":61},{"user_id":198,"name":"Dr. PP","steam_id":76561199018184096,"connected_time":437000000000,"state":"active","ping":121},{"user_id":177,"name":"Strikerbolt","steam_id":76561199095622897,"connected_time":2082000000000,"state":"active","ping":79},{"user_id":180,"name":"zinnk","steam_id":76561198092081825,"connected_time":1958000000000,"state":"active","ping":86},{"user_id":175,"name":"Yoyo-Wo","steam_id":76561198880520205,"connected_time":2225000000000,"state":"active","ping":97},{"user_id":182,"name":"2Fort Cactus","steam_id":76561199273395913,"connected_time":1848000000000,"state":"active","ping":50},{"user_id":199,"name":"oil","steam_id":76561198099980149,"connected_time":408000000000,"state":"active","ping":80},{"user_id":181,"name":"Happy TDOV","steam_id":76561198085813708,"connected_time":1885000000000,"state":"active","ping":114},{"user_id":168,"name":"frick off law enforcement","steam_id":76561198255022731,"connected_time":2396000000000,"state":"active","ping":79},{"user_id":186,"name":"Coowil","steam_id":76561198070985437,"connected_time":1517000000000,"state":"active","ping":44},{"user_id":179,"name":"1st year at kindergarden","steam_id":76561199100342013,"connected_time":2020000000000,"state":"active","ping":71},{"user_id":187,"name":"Vincent Van Bro","steam_id":76561197966919802,"connected_time":1468000000000,"state":"active","ping":58},{"user_id":162,"name":"Muralo","steam_id":76561198202160268,"connected_time":3399000000000,"state":"active","ping":43},{"user_id":200,"name":"Radio","steam_id":76561198194821053,"connected_time":370000000000,"state":"active","ping":53},{"user_id":193,"name":"Ôº£Ôº®Ôº°Ôº≠Ôº∞Ôº©ÔºØÔºÆ","steam_id":76561198883157736,"connected_time":830000000000,"state":"active","ping":66},{"user_id":201,"name":"Freedy","steam_id":76561199115274103,"connected_time":359000000000,"state":"active","ping":95},{"user_id":202,"name":"izzydex","steam_id":76561199101531034,"connected_time":358000000000,"state":"active","ping":117}]},{"server_id":119,"name":"Uncletopia | Seattle | 2 | All Maps","name_short":"sea-2","host":"sea-1.us.uncletopia.com","port":27025,"enabled":true,"region":"us-west","cc":"us","latitude":47.608013,"longitude":-122.33517,"reserved":0,"last_update":"0001-01-01T00:00:00Z","name_a2s":"Uncletopia | Seattle | 2 | All Maps","protocol":17,"map":"koth_highpass","folder":"tf","game":"Team Fortress","app_id":440,"player_count":0,"max_players":24,"Bots":0,"server_type":"Dedicated","server_os":"Linux","password":true,"vac":true,"version":"7961495","steam_id":85568392924469998,"keywords":["cp","nocrits","nodmgspread","uncletopia"],"game_id":440,"stv_port":27026,"stv_name":"Uncletopia | Seattle | 2 | All Maps | STV","players":null},{"server_id":406,"name":"Uncletopia | Seattle | 3 | Stopwatch Beta","name_short":"sea-3","host":"sea-1.us.uncletopia.com","port":27035,"enabled":true,"region":"us-west","cc":"us","latitude":47.608013,"longitude":-122.33517,"reserved":0,"last_update":"0001-01-01T00:00:00Z","name_a2s":"Uncletopia | Seattle | 3 | Stopwatch Beta","protocol":17,"map":"cp_mountainlab","folder":"tf","game":"Team Fortress","app_id":440,"player_count":0,"max_players":24,"Bots":0,"server_type":"Dedicated","server_os":"Linux","password":true,"vac":true,"version":"7961495","steam_id":85568392924515217,"keywords":["cp","nocrits","nodmgspread","uncletopia"],"game_id":440,"stv_port":27036,"stv_name":"Uncletopia | Seattle | 3 | Stopwatch Beta | STV","players":null},{"server_id":17,"name":"Uncletopia | San Francisco | 1 | All Maps","name_short":"sfo-1","host":"sfo-1.us.uncletopia.com","port":27015,"enabled":true,"region":"us-west","cc":"us","latitude":37.77397,"longitude":-122.4313,"reserved":0,"last_update":"0001-01-01T00:00:00Z","name_a2s":"Uncletopia | San Francisco | 1 | All Maps","protocol":17,"map":"pl_frontier_final","folder":"tf","game":"Team Fortress","app_id":440,"player_count":0,"max_players":24,"Bots":0,"server_type":"Dedicated","server_os":"Linux","password":true,"vac":true,"version":"7932396","steam_id":85568392924469999,"keywords":["nocrits","nodmgspread","payload","uncletopia"],"game_id":440,"stv_port":27016,"stv_name":"Uncletopia | San Francisco | 1 | All Maps | STV","players":null},{"server_id":18,"name":"Uncletopia | San Francisco | 2 | All Maps","name_short":"sfo-2","host":"sfo-1.us.uncletopia.com","port":27025,"enabled":true,"region":"us-west","cc":"us","latitude":37.77397,"longitude":-122.4313,"reserved":0,"last_update":"0001-01-01T00:00:00Z","name_a2s":"Uncletopia | San Francisco | 2 | All Maps","protocol":17,"map":"cp_snakewater_final1","folder":"tf","game":"Team Fortress","app_id":440,"player_count":0,"max_players":24,"Bots":0,"server_type":"Dedicated","server_os":"Linux","password":true,"vac":true,"version":"7932396","steam_id":85568392924470000,"keywords":["cp","nocrits","nodmgspread","uncletopia"],"game_id":440,"stv_port":27026,"stv_name":"Uncletopia | San Francisco | 2 | All Maps | STV","players":null},{"server_id":19,"name":"Uncletopia | San Francisco | 3 | Stopwatch Beta","name_short":"sfo-3","host":"sfo-1.us.uncletopia.com","port":27035,"enabled":true,"region":"us-west","cc":"us","latitude":37.77397,"longitude":-122.4313,"reserved":0,"last_update":"0001-01-01T00:00:00Z","name_a2s":"Uncletopia | San Francisco | 3 | Stopwatch Beta","protocol":17,"map":"koth_lakeside_final","folder":"tf","game":"Team Fortress","app_id":440,"player_count":0,"max_players":24,"Bots":0,"server_type":"Dedicated","server_os":"Linux","password":true,"vac":true,"version":"7932396","steam_id":85568392924742824,"keywords":["cp","nocrits","nodmgspread","uncletopia"],"game_id":440,"stv_port":27036,"stv_name":"Uncletopia | San Francisco | 3 | Stopwatch Beta | STV","players":null},{"server_id":20,"name":"Uncletopia | San Francisco | 4 | Community","name_short":"sfo-4","host":"sfo-1.us.uncletopia.com","port":27045,"enabled":true,"region":"us-west","cc":"us","latitude":37.77397,"longitude":-122.4313,"reserved":0,"last_update":"0001-01-01T00:00:00Z","name_a2s":"Uncletopia | San Francisco | 4 | Community","protocol":17,"map":"pl_borneo","folder":"tf","game":"Team Fortress","app_id":440,"player_count":0,"max_players":24,"Bots":0,"server_type":"Dedicated","server_os":"Linux","password":true,"vac":true,"version":"7932396","steam_id":85568392924742826,"keywords":["nocrits","nodmgspread","payload","uncletopia"],"game_id":440,"stv_port":27046,"stv_name":"Uncletopia | San Francisco | 4 | Community | STV","players":null},{"server_id":141,"name":"Uncletopia | Sydney | 1 | All Maps","name_short":"syd-1","host":"syd-1.au.uncletopia.com","port":27015,"enabled":true,"region":"au","cc":"au","latitude":-33.865143,"longitude":151.2099,"reserved":0,"last_update":"0001-01-01T00:00:00Z","name_a2s":"Uncletopia | Sydney | 1 | All Maps","protocol":17,"map":"koth_highpass","folder":"tf","game":"Team Fortress","app_id":440,"player_count":1,"max_players":24,"Bots":0,"server_type":"Dedicated","server_os":"Linux","password":true,"vac":true,"version":"7961495","steam_id":85568392924470001,"keywords":["cp","nocrits","nodmgspread","uncletopia"],"game_id":440,"stv_port":27016,"stv_name":"Uncletopia | Sydney | 1 | All Maps | STV","players":[{"user_id":7,"name":"pepsi_bottle","steam_id":76561199123087971,"connected_time":639000000000,"state":"active","ping":70}]},{"server_id":123,"name":"Uncletopia | Sydney | 2 | All Maps","name_short":"syd-2","host":"syd-1.au.uncletopia.com","port":27025,"enabled":true,"region":"au","cc":"au","latitude":-33.865143,"longitude":151.2099,"reserved":0,"last_update":"0001-01-01T00:00:00Z","name_a2s":"Uncletopia | Sydney | 2 | All Maps","protocol":17,"map":"koth_viaduct","folder":"tf","game":"Team Fortress","app_id":440,"player_count":0,"max_players":24,"Bots":0,"server_type":"Dedicated","server_os":"Linux","password":true,"vac":true,"version":"7961495","steam_id":85568392924470002,"keywords":["cp","nocrits","nodmgspread","uncletopia"],"game_id":440,"stv_port":27026,"stv_name":"Uncletopia | Sydney | 2 | All Maps | STV","players":null},{"server_id":395,"name":"Uncletopia | Sydney | 3 | All Maps","name_short":"syd-3","host":"syd-1.au.uncletopia.com","port":27035,"enabled":true,"region":"au","cc":"au","latitude":-33.865143,"longitude":151.2099,"reserved":0,"last_update":"0001-01-01T00:00:00Z","name_a2s":"Uncletopia | Sydney | 3 | All Maps","protocol":17,"map":"koth_viaduct","folder":"tf","game":"Team Fortress","app_id":440,"player_count":7,"max_players":24,"Bots":0,"server_type":"Dedicated","server_os":"Linux","password":true,"vac":true,"version":"7961495","steam_id":85568392925194467,"keywords":["cp","nocrits","nodmgspread","uncletopia"],"game_id":440,"stv_port":27036,"stv_name":"Uncletopia | Sydney | 3 | All Maps | STV","players":[{"user_id":16,"name":"doris","steam_id":76561198985688207,"connected_time":1433000000000,"state":"active","ping":53},{"user_id":20,"name":"Wackydavo","steam_id":76561197990094209,"connected_time":1154000000000,"state":"active","ping":205},{"user_id":21,"name":"No Scrubs","steam_id":76561197969619053,"connected_time":955000000000,"state":"active","ping":80},{"user_id":17,"name":"Raiden00","steam_id":76561197994078111,"connected_time":1406000000000,"state":"active","ping":128},{"user_id":12,"name":"ComputerINYear","steam_id":76561199124853355,"connected_time":2950000000000,"state":"active","ping":78},{"user_id":18,"name":"Madeline","steam_id":76561198365426742,"connected_time":1345000000000,"state":"active","ping":60},{"user_id":22,"name":"bla","steam_id":76561198119397414,"connected_time":768000000000,"state":"active","ping":43}]},{"server_id":396,"name":"Uncletopia | Sydney | 4 | All Maps","name_short":"syd-4","host":"syd-1.au.uncletopia.com","port":27045,"enabled":true,"region":"au","cc":"au","latitude":-33.865143,"longitude":151.2099,"reserved":0,"last_update":"0001-01-01T00:00:00Z","name_a2s":"Uncletopia | Sydney | 4 | All Maps","protocol":17,"map":"koth_cascade","folder":"tf","game":"Team Fortress","app_id":440,"player_count":0,"max_players":24,"Bots":0,"server_type":"Dedicated","server_os":"Linux","password":true,"vac":true,"version":"7961495","steam_id":85568392925397958,"keywords":["cp","nocrits","nodmgspread","uncletopia"],"game_id":440,"stv_port":27046,"stv_name":"Uncletopia | Sydney | 4 | All Maps | STV","players":null},{"server_id":58,"name":"Uncletopia | Sydney | 5 | Stopwatch Beta","name_short":"syd-5","host":"syd-1.au.uncletopia.com","port":27055,"enabled":true,"region":"au","cc":"au","latitude":-33.865143,"longitude":151.2099,"reserved":0,"last_update":"0001-01-01T00:00:00Z","name_a2s":"Uncletopia | Sydney | 5 | Stopwatch Beta","protocol":17,"map":"koth_viaduct","folder":"tf","game":"Team Fortress","app_id":440,"player_count":0,"max_players":24,"Bots":0,"server_type":"Dedicated","server_os":"Linux","password":true,"vac":true,"version":"7961495","steam_id":85568392925397959,"keywords":["cp","nocrits","nodmgspread","uncletopia"],"game_id":440,"stv_port":27056,"stv_name":"Uncletopia | Sydney | 5 | Stopwatch Beta | STV","players":null},{"server_id":59,"name":"Uncletopia | Sydney | 6 | Community","name_short":"syd-6","host":"syd-1.au.uncletopia.com","port":27065,"enabled":true,"region":"au","cc":"au","latitude":-33.865143,"longitude":151.2099,"reserved":0,"last_update":"0001-01-01T00:00:00Z","name_a2s":"Uncletopia | Sydney | 6 | Community","protocol":17,"map":"pl_barnblitz","folder":"tf","game":"Team Fortress","app_id":440,"player_count":0,"max_players":24,"Bots":0,"server_type":"Dedicated","server_os":"Linux","password":true,"vac":true,"version":"7961495","steam_id":85568392925397960,"keywords":["nocrits","nodmgspread","payload","uncletopia"],"game_id":440,"stv_port":27066,"stv_name":"Uncletopia | Sydney | 6 | Community | STV","players":null},{"server_id":49,"name":"Uncletopia | Warsaw | 1 | All Maps","name_short":"waw-1","host":"waw-1.pl.uncletopia.com","port":27015,"enabled":true,"region":"eu","cc":"pl","latitude":52.2297,"longitude":21.017532,"reserved":0,"last_update":"0001-01-01T00:00:00Z","name_a2s":"","protocol":0,"map":"","folder":"","game":"","app_id":0,"player_count":0,"max_players":0,"Bots":0,"server_type":"","server_os":"","password":false,"vac":false,"version":"","steam_id":0,"keywords":null,"game_id":0,"stv_port":0,"stv_name":"","players":null},{"server_id":50,"name":"Uncletopia | Warsaw | 2 | All Maps","name_short":"waw-2","host":"waw-1.pl.uncletopia.com","port":27025,"enabled":true,"region":"eu","cc":"pl","latitude":52.2297,"longitude":21.017532,"reserved":0,"last_update":"0001-01-01T00:00:00Z","name_a2s":"Uncletopia | Warsaw | 2 | All Maps","protocol":17,"map":"koth_lakeside_final","folder":"tf","game":"Team Fortress","app_id":440,"player_count":0,"max_players":24,"Bots":0,"server_type":"Dedicated","server_os":"Linux","password":true,"vac":true,"version":"7961495","steam_id":85568392925397851,"keywords":["cp","nocrits","nodmgspread","uncletopia"],"game_id":440,"stv_port":27026,"stv_name":"Uncletopia | Warsaw | 2 | All Maps | STV","players":null},{"server_id":51,"name":"Uncletopia | Warsaw | 3 | All Maps","name_short":"waw-3","host":"waw-1.pl.uncletopia.com","port":27035,"enabled":true,"region":"eu","cc":"pl","latitude":52.2297,"longitude":21.017532,"reserved":0,"last_update":"0001-01-01T00:00:00Z","name_a2s":"Uncletopia | Warsaw | 3 | All Maps","protocol":17,"map":"cp_snakewater_final1","folder":"tf","game":"Team Fortress","app_id":440,"player_count":0,"max_players":24,"Bots":0,"server_type":"Dedicated","server_os":"Linux","password":true,"vac":true,"version":"7961495","steam_id":85568392925397852,"keywords":["cp","nocrits","nodmgspread","uncletopia"],"game_id":440,"stv_port":27036,"stv_name":"Uncletopia | Warsaw | 3 | All Maps | STV","players":null},{"server_id":52,"name":"Uncletopia | Warsaw | 4 | All Maps","name_short":"waw-4","host":"waw-1.pl.uncletopia.com","port":27045,"enabled":true,"region":"eu","cc":"pl","latitude":52.2297,"longitude":21.017532,"reserved":0,"last_update":"0001-01-01T00:00:00Z","name_a2s":"Uncletopia | Warsaw | 4 | All Maps","protocol":17,"map":"koth_cascade","folder":"tf","game":"Team Fortress","app_id":440,"player_count":2,"max_players":24,"Bots":0,"server_type":"Dedicated","server_os":"Linux","password":true,"vac":true,"version":"7961495","steam_id":85568392925397853,"keywords":["cp","nocrits","nodmgspread","uncletopia"],"game_id":440,"stv_port":27046,"stv_name":"Uncletopia | Warsaw | 4 | All Maps | STV","players":[{"user_id":130,"name":"barabasz641","steam_id":76561199017540620,"connected_time":159000000000,"state":"active","ping":52},{"user_id":131,"name":"GummiMis","steam_id":76561199008569437,"connected_time":99000000000,"state":"active","ping":54}]},{"server_id":53,"name":"Uncletopia | Warsaw | 5 | Stopwatch Beta","name_short":"waw-5","host":"waw-1.pl.uncletopia.com","port":27055,"enabled":true,"region":"eu","cc":"pl","latitude":52.2297,"longitude":21.017532,"reserved":0,"last_update":"0001-01-01T00:00:00Z","name_a2s":"Uncletopia | Warsaw | 5 | Stopwatch Beta","protocol":17,"map":"workshop/pl_summercoast_rc8e.ugc1761528829","folder":"tf","game":"Team Fortress","app_id":440,"player_count":0,"max_players":24,"Bots":0,"server_type":"Dedicated","server_os":"Linux","password":true,"vac":true,"version":"7961495","steam_id":85568392925397854,"keywords":["nocrits","nodmgspread","payload","uncletopia"],"game_id":440,"stv_port":27056,"stv_name":"Uncletopia | Warsaw | 5 | Stopwatch Beta | STV","players":null},{"server_id":54,"name":"Uncletopia | Warsaw | 6 | Community","name_short":"waw-6","host":"waw-1.pl.uncletopia.com","port":27065,"enabled":true,"region":"eu","cc":"pl","latitude":52.2297,"longitude":21.017532,"reserved":0,"last_update":"0001-01-01T00:00:00Z","name_a2s":"Uncletopia | Warsaw | 6 | Community","protocol":17,"map":"workshop/cp_reckoner_rc6.ugc674719999","folder":"tf","game":"Team Fortress","app_id":440,"player_count":0,"max_players":24,"Bots":0,"server_type":"Dedicated","server_os":"Linux","password":true,"vac":true,"version":"7961495","steam_id":85568392925397856,"keywords":["cp","nocrits","nodmgspread","uncletopia"],"game_id":440,"stv_port":27066,"stv_name":"Uncletopia | Warsaw | 6 | Community | STV","players":null}]}