{"status":true,"message":"","result":[{"server_id":9,"name":"Uncletopia | Atlanta | 1 | All Maps","name_short":"atl-1","host":"atl-1.us.uncletopia.com","port":27015,"enabled":true,"region":"us-east","cc":"us","latitude":33.753746,"longitude":-84.38633,"reserved":0,"last_update":"0001-01-01T00:00:00Z","name_a2s":"Uncletopia | Atlanta | 1 | All Maps","protocol":17,"map":"pl_snowycoast","folder":"tf","game":"Team Fortress","app_id":440,"player_count":24,"max_players":24,"Bots":0,"server_type":"Dedicated","server_os":"Linux","password":true,"vac":true,"version":"7961495","steam_id":85568392924469982,"keywords":["nocrits","nodmgspread","payload","uncletopia"],"game_id":440,"stv_port":27016,"stv_name":"Uncletopia | Atlanta | 1 | All Maps | STV","players":null},{"server_id":104,"name":"Uncletopia | Atlanta | 2 | All Maps","name_short":"atl-2","host":"atl-1.us.uncletopia.com","port":27025,"enabled":true,"region":"us-east","cc":"us","latitude":33.753746,"longitude":-84.38633,"reserved":0,"last_update":"0001-01-01T00:00:00Z","name_a2s":"Uncletopia | Atlanta | 2 | All Maps","protocol":17,"map":"cp_altitude","folder":"tf","game":"Team Fortress","app_id":440,"player_count":24,"max_players":24,"Bots":0,"server_type":"Dedicated","server_os":"Linux","password":true,"vac":true,"version":"7961495","steam_id":85568392924469983,"keywords":["cp","nocrits","nodmgspread","uncletopia"],"game_id":440,"stv_port":27026,"stv_name":"Uncletopia | Atlanta | 2 | All Maps | STV","players":null},{"server_id":400,"name":"Uncletopia | Atlanta | 3 | Stopwatch","name_short":"atl-3","host":"atl-1.us.uncletopia.com","port":27035,"enabled":true,"region":"us-east","cc":"us","latitude":33.753746,"longitude":-84.38633,"reserved":0,"last_update":"0001-01-01T00:00:00Z","name_a2s":"Uncletopia | Atlanta | 3 | Stopwatch","protocol":17,"map":"koth_product_final","folder":"tf","game":"Team Fortress","app_id":440,"player_count":0,"max_players":24,"Bots":0,"server_type":"Dedicated","server_os":"Linux","password":true,"vac":true,"version":"7961495","steam_id":85568392924515187,"keywords":["cp","nocrits","nodmgspread","uncletopia"],"game_id":440,"stv_port":27036,"stv_name":"Uncletopia | Atlanta | 3 | Stopwatch | STV","players":null},{"server_id":401,"name":"Uncletopia | Atlanta | 4 | Community","name_short":"atl-4","host":"atl-1.us.uncletopia.com","port":27045,"enabled":true,"region":"us-east","cc":"us","latitude":33.753746,"longitude":-84.38633,"reserved":0,"last_update":"0001-01-01T00:00:00Z","name_a2s":"Uncletopia | Atlanta | 4 | Community","protocol":17,"map":"cp_glacier_rc6","folder":"tf","game":"Team Fortress","app_id":440,"player_count":0,"max_players":24,"Bots":0,"server_type":"Dedicated","server_os":"Linux","password":true,"vac":true,"version":"7961495","steam_id":85568392924515188,"keywords":["cp","nocrits","nodmgspread","uncletopia"],"game_id":440,"stv_port":27046,"stv_name":"Uncletopia | Atlanta | 4 | Community | STV","players":null},{"server_id":2,"name":"Uncletopia | Chicago | 1 | All Maps","name_short":"chi-1","host":"chi-1.us.uncletopia.com","port":27015,"enabled":true,"region":"us-central","cc":"us","latitude":41.881832,"longitude":-87.62318,"reserved":0,"last_update":"0001-01-01T00:00:00Z","name_a2s":"Uncletopia | Chicago | 1 | All Maps","protocol":17,"map":"pl_badwater","folder":"tf","game":"Team Fortress","app_id":440,"player_count":0,"max_players":24,"Bots":0,"server_type":"Dedicated","server_os":"Linux","password":true,"vac":true,"version":"7961495","steam_id":85568392924469984,"keywords":["nocrits","nodmgspread","payload","uncletopia"],"game_id":440,"stv_port":27016,"stv_name":"Uncletopia | Chicago | 1 | All Maps | STV","players":null},{"server_id":106,"name":"Uncletopia | Chicago | 2 | All Maps","name_short":"chi-2","host":"chi-1.us.uncletopia.com","port":27025,"enabled":true,"region":"us-central","cc":"us","latitude":41.881832,"longitude":-87.62318,"reserved":0,"last_update":"0001-01-01T00:00:00Z","name_a2s":"Uncletopia | Chicago | 2 | All Maps","protocol":17,"map":"pl_pier","folder":"tf","game":"Team Fortress","app_id":440,"player_count":23,"max_players":24,"Bots":0,"server_type":"Dedicated","server_os":"Linux","password":true,"vac":true,"version":"7961495","steam_id":85568392924469985,"keywords":["nocrits","nodmgspread","payload","uncletopia"],"game_id":440,"stv_port":27026,"stv_name":"Uncletopia | Chicago | 2 | All Maps | STV","players":[{"user_id":738,"name":"deez ratz","steam_id":76561198864572366,"connected_time":276000000000,"state":"active","ping":90},{"user_id":710,"name":"chesterwnimitz","steam_id":76561198062664377,"connected_time":4019000000000,"state":"active","ping":91},{"user_id":739,"name":"badboy6996","steam_id":76561197969386201,"connected_time":268000000000,"state":"active","ping":47},{"user_id":740,"name":"Jelqing Table","steam_id":76561198051373750,"connected_time":265000000000,"state":"active","ping":71},{"user_id":741,"name":"Kiril","steam_id":76561198051433762,"connected_time":220000000000,"state":"active","ping":149},{"user_id":696,"name":"firstlastmcgee","steam_id":76561198170187989,"connected_time":4349000000000,"state":"active","ping":62},{"user_id":731,"name":"LVL","steam_id":76561198334403617,"connected_time":631000000000,"state":"active","ping":59},{"user_id":728,"name":"Drapph","steam_id":76561199384213314,"connected_time":930000000000,"state":"active","ping":56},{"user_id":744,"name":"Ôº≤Ôº•Ôº§","steam_id":76561198030282308,"connected_time":46000000000,"state":"active","ping":98},{"user_id":674,"name":"carson kannot","steam_id":76561198819733507,"connected_time":6227000000000,"state":"active","ping":103},{"user_id":700,"name":"Ikanboken","steam_id":76561198026926934,"connected_time":4296000000000,"state":"active","ping":69},{"user_id":725,"name":"4 life","steam_id":76561198175961598,"connected_time":1818000000000,"state":"active","ping":113},{"user_id":742,"name":"SleezusKryst","steam_id":76561198135644937,"connected_time":178000000000,"state":"active","ping":69},{"user_id":734,"name":"Let Œµ \u003e 0","steam_id":76561198111790388,"connected_time":468000000000,"state":"active","ping":93},{"user_id":743,"name":"Lore","steam_id":76561198098407538,"connected_time":134000000000,"state":"active","ping":54},{"user_id":717,"name":"Smug Corvo","steam_id":76561198159509389,"connected_time":3336000000000,"state":"active","ping":83},{"user_id":723,"name":"HeathcliffReader12","steam_id":76561198180840049,"connected_time":2010000000000,"state":"active","ping":81},{"user_id":735,"name":"ExpTurkeys","steam_id":76561198377223554,"connected_time":403000000000,"state":"active","ping":82},{"user_id":671,"name":"Feathers! üûß","steam_id":76561198812663884,"connected_time":6285000000000,"state":"active","ping":85},{"user_id":736,"name":"my friend can take 5guys anyday","steam_id":76561198144766439,"connected_time":347000000000,"state":"active","ping":44},{"user_id":673,"name":"dsstroi lognley..","steam_id":76561199102391736,"connected_time":6252000000000,"state":"active","ping":104},{"user_id":730,"name":"njokuani","steam_id":76561199061380038,"connected_time":799000000000,"state":"active","ping":68}]},{"server_id":402,"name":"Uncletopia | Chicago | 3 | All Maps","name_short":"chi-3","host":"chi-1.us.uncletopia.com","port":27035,"enabled":true,"region":"us-central","cc":"us","latitude":41.881832,"longitude":-87.62318,"reserved":0,"last_update":"0001-01-01T00:00:00Z","name_a2s":"Uncletopia | Chicago | 3 | All Maps","protocol":17,"map":"pl_frontier_final","folder":"tf","game":"Team Fortress","app_id":440,"player_count":0,"max_players":24,"Bots":0,"server_type":"Dedicated","server_os":"Linux","password":true,"vac":true,"version":"7961495","steam_id":85568392924515191,"keywords":["nocrits","nodmgspread","payload","uncletopia"],"game_id":440,"stv_port":27036,"stv_name":"Uncletopia | Chicago | 3 | All Maps | STV","players":null},{"server_id":403,"name":"Uncletopia | Chicago | 4 | All Maps","name_short":"chi-4","host":"chi-1.us.uncletopia.com","port":27045,"enabled":true,"region":"us-central","cc":"us","latitude":41.881832,"longitude":-87.62318,"reserved":0,"last_update":"0001-01-01T00:00:00Z","name_a2s":"Uncletopia | Chicago | 4 | All Maps","protocol":17,"map":"pl_upward","folder":"tf","game":"Team Fortress","app_id":440,"player_count":24,"max_players":24,"Bots":0,"server_type":"Dedicated","server_os":"Linux","password":true,"vac":true,"version":"7961495","steam_id":85568392924515193,"keywords":["nocrits","nodmgspread","payload","uncletopia"],"game_id":440,"stv_port":27046,"stv_name":"Uncletopia | Chicago | 4 | All Maps | STV","players":[{"user_id":767,"name":"The Great Eagle Scourge of 1822","steam_id":76561198325086209,"connected_time":442000000000,"state":"active","ping":116},{"user_id":729,"name":"Yuri Practioner \u0026 Expert Online","steam_id":76561198029274581,"connected_time":3847000000000,"state":"active","ping":64},{"user_id":757,"name":"CoziestGlobe","steam_id":76561198199237735,"connected_time":1339000000000,"state":"active","ping":75},{"user_id":756,"name":"ELONMUSK IS DEAD","steam_id":76561198042259533,"connected_time":1353000000000,"state":"active","ping":72},{"user_id":758,"name":"rf","steam_id":76561198195359229,"connected_time":1257000000000,"state":"active","ping":83},{"user_id":750,"name":"Reality Loser","steam_id":76561198001541433,"connected_time":1925000000000,"state":"active","ping":59},{"user_id":739,"name":"I'm using a drawing tablet","steam_id":76561198986639507,"connected_time":2793000000000,"state":"active","ping":105},{"user_id":754,"name":"oof aim small brain","steam_id":76561198079925551,"connected_time":1745000000000,"state":"active","ping":63},{"user_id":764,"name":"BL√òRG","steam_id":76561198036126673,"connected_time":568000000000,"state":"active","ping":82},{"user_id":759,"name":"Goose","steam_id":76561198084166129,"connected_time":1255000000000,"state":"active","ping":68},{"user_id":718,"name":"legalize nuclear bombs","steam_id":76561198072789439,"connected_time":4865000000000,"state":"active","ping":88},{"user_id":760,"name":"Girthworm Jim","steam_id":76561198007433376,"connected_time":1248000000000,"state":"active","ping":73},{"user_id":722,"name":"only a spoonful","steam_id":76561198113180616,"connected_time":4671000000000,"state":"active","ping":69},{"user_id":746,"name":"jimmyfnaf172198yay","steam_id":76561198311446636,"connected_time":2382000000000,"state":"active","ping":60},{"user_id":734,"name":"Vladikr1","steam_id":76561198401495362,"connected_time":2881000000000,"state":"active","ping":74},{"user_id":714,"name":"Strange Festive Femboy","steam_id":76561198050385093,"connected_time":4973000000000,"state":"active","ping":86},{"user_id":765,"name":"Jeff Bridge's Yee-Haw Voice","steam_id":76561198011675372,"connected_time":550000000000,"state":"active","ping":111},{"user_id":720,"name":"my house burned down","steam_id":76561198058890821,"connected_time":4855000000000,"state":"active","ping":48},{"user_id":769,"name":"III","steam_id":76561198093829623,"connected_time":272000000000,"state":"active","ping":90},{"user_id":766,"name":"Kuchio","steam_id":76561198161218914,"connected_time":546000000000,"state":"active","ping":97},{"user_id":763,"name":"Raccoon Wizard","steam_id":76561198072562591,"connected_time":786000000000,"state":"active","ping":77},{"user_id":742,"name":"kiseek","steam_id":76561198075474088,"connected_time":2696000000000,"state":"active","ping":84},{"user_id":753,"name":"wintermint","steam_id":76561198013735714,"connected_time":1772000000000,"state":"active","ping":79},{"user_id":732,"name":"Sporp","steam_id":76561197987957133,"connected_time":3599000000000,"state":"active","ping":85}]},{"server_id":36,"name":"Uncletopia | Chicago | 5 | All Maps","name_short":"chi-5","host":"chi-2.us.uncletopia.com","port":27015,"enabled":true,"region":"us-central","cc":"us","latitude":41.881832,"longitude":-87.62318,"reserved":0,"last_update":"0001-01-01T00:00:00Z","name_a2s":"Uncletopia | Chicago | 5 | All Maps","protocol":17,"map":"pl_upward","folder":"tf","game":"Team Fortress","app_id":440,"player_count":16,"max_players":24,"Bots":0,"server_type":"Dedicated","server_os":"Linux","password":true,"vac":true,"version":"7961495","steam_id":85568392924866362,"keywords":["nocrits","nodmgspread","payload","uncletopia"],"game_id":440,"stv_port":27016,"stv_name":"Uncletopia | Chicago | 5 | All Maps | STV","players":[{"user_id":533,"name":"45Amazing","steam_id":76561198303081758,"connected_time":63000000000,"state":"active","ping":86},{"user_id":532,"name":"Kopfjager","steam_id":76561198086397482,"connected_time":338000000000,"state":"active","ping":148},{"user_id":527,"name":"Chimp of the year","steam_id":76561198114676855,"connected_time":1126000000000,"state":"active","ping":60},{"user_id":451,"name":"Yellow","steam_id":76561199226953022,"connected_time":6164000000000,"state":"active","ping":132},{"user_id":534,"name":"dyyd7706","steam_id":76561199230461523,"connected_time":41000000000,"state":"active","ping":80},{"user_id":528,"name":"fiend","steam_id":76561198122159645,"connected_time":1095000000000,"state":"active","ping":60},{"user_id":535,"name":"bungfao","steam_id":76561198401236682,"connected_time":37000000000,"state":"active","ping":47},{"user_id":529,"name":"Funky the Fungus Monkey","steam_id":76561198140894890,"connected_time":1084000000000,"state":"active","ping":84},{"user_id":509,"name":"Bucket Hat Trick","steam_id":76561198381785132,"connected_time":3334000000000,"state":"active","ping":92},{"user_id":530,"name":"elf tragedy","steam_id":76561198049223356,"connected_time":1084000000000,"state":"active","ping":60},{"user_id":517,"name":"Bren20225","steam_id":76561198174421550,"connected_time":2639000000000,"state":"active","ping":61},{"user_id":536,"name":"Worm","steam_id":76561198296497176,"connected_time":14000000000,"state":"active","ping":131},{"user_id":452,"name":"frank","steam_id":76561198137777483,"connected_time":6153000000000,"state":"active","ping":70},{"user_id":537,"name":"DavisE","steam_id":76561198075504309,"connected_time":10000000000,"state":"spawning","ping":110},{"user_id":473,"name":"Salixiola","steam_id":76561198042177809,"connected_time":5202000000000,"state":"active","ping":62},{"user_id":440,"name":"Jag","steam_id":76561198001220471,"connected_time":6953000000000,"state":"active","ping":60}]},{"server_id":37,"name":"Uncletopia | Chicago | 6 | All Maps","name_short":"chi-6","host":"chi-2.us.uncletopia.com","port":27025,"enabled":true,"region":"us-central","cc":"us","latitude":41.881832,"longitude":-87.62318,"reserved":0,"last_update":"0001-01-01T00:00:00Z","name_a2s":"Uncletopia | Chicago | 6 | All Maps","protocol":17,"map":"koth_lakeside_final","folder":"tf","game":"Team Fortress","app_id":440,"player_count":24,"max_players":24,"Bots":0,"server_type":"Dedicated","server_os":"Linux","password":true,"vac":true,"version":"7961495","steam_id":85568392924866363,"keywords":["cp","nocrits","nodmgspread","uncletopia"],"game_id":440,"stv_port":27026,"stv_name":"Uncletopia | Chicago | 6 | All Maps | STV","players":[{"user_id":881,"name":"‚Ü±yate‚Ü≤","steam_id":76561198311004039,"connected_time":272000000000,"state":"active","ping":90},{"user_id":883,"name":"PlanktonTheWayiCumBuckets","steam_id":76561198074678273,"connected_time":243000000000,"state":"active","ping":60},{"user_id":838,"name":"turbo","steam_id":76561198066434187,"connected_time":3118000000000,"state":"active","ping":74},{"user_id":820,"name":"AzuriousAlex","steam_id":76561198158026405,"connected_time":4281000000000,"state":"active","ping":82},{"user_id":866,"name":"Toffee Hognose","steam_id":76561198202177000,"connected_time":1152000000000,"state":"active","ping":79},{"user_id":877,"name":"COMRADE DIMITRI","steam_id":76561198125466163,"connected_time":778000000000,"state":"active","ping":74},{"user_id":830,"name":"MAN I CAN'T COMPLAIN","steam_id":76561198111925708,"connected_time":3549000000000,"state":"active","ping":75},{"user_id":831,"name":"Willy","steam_id":76561198046508940,"connected_time":3548000000000,"state":"active","ping":63},{"user_id":879,"name":"staks","steam_id":76561198059570070,"connected_time":417000000000,"state":"active","ping":45},{"user_id":834,"name":"displace","steam_id":76561198068492903,"connected_time":3539000000000,"state":"active","ping":59},{"user_id":860,"name":"M249 | Spectre","steam_id":76561198118334485,"connected_time":2085000000000,"state":"active","ping":75},{"user_id":867,"name":"Neo","steam_id":76561198112618713,"connected_time":1148000000000,"state":"active","ping":87},{"user_id":869,"name":"Red Charge","steam_id":76561198084465764,"connected_time":1101000000000,"state":"active","ping":60},{"user_id":870,"name":"cipE","steam_id":76561198300412740,"connected_time":1097000000000,"state":"active","ping":63},{"user_id":863,"name":"Snoot Boi 69","steam_id":76561198087698630,"connected_time":1477000000000,"state":"active","ping":71},{"user_id":837,"name":"yall got a chevy back there?","steam_id":76561198043766401,"connected_time":3296000000000,"state":"active","ping":78},{"user_id":876,"name":"peee pee man","steam_id":76561198044979205,"connected_time":882000000000,"state":"active","ping":63},{"user_id":847,"name":"crispylego_","steam_id":76561199453679719,"connected_time":2645000000000,"state":"active","ping":112},{"user_id":853,"name":"Donut?","steam_id":76561199122315920,"connected_time":2434000000000,"state":"active","ping":63},{"user_id":880,"name":"Shrebbie","steam_id":76561198875230824,"connected_time":329000000000,"state":"active","ping":58},{"user_id":873,"name":"Fitz","steam_id":76561198092027330,"connected_time":1022000000000,"state":"active","ping":76},{"user_id":874,"name":"Trumpetspyman59","steam_id":76561198048989561,"connected_time":1011000000000,"state":"active","ping":70},{"user_id":875,"name":"Block O' Chedda","steam_id":76561198262385709,"connected_time":1005000000000,"state":"active","ping":85},{"user_id":878,"name":"Beepleton The 3rd","steam_id":76561198081466207,"connected_time":749000000000,"state":"active","ping":84}]},{"server_id":38,"name":"Uncletopia | Chicago | 7 | Stopwatch","name_short":"chi-7","host":"chi-2.us.uncletopia.com","port":27035,"enabled":true,"region":"us-central","cc":"us","latitude":41.881832,"longitude":-87.62318,"reserved":0,"last_update":"0001-01-01T00:00:00Z","name_a2s":"Uncletopia | Chicago | 7 | Stopwatch","protocol":17,"map":"pl_badwater","folder":"tf","game":"Team Fortress","app_id":440,"player_count":0,"max_players":24,"Bots":0,"server_type":"Dedicated","server_os":"Linux","password":true,"vac":true,"version":"7961495","steam_id":85568392924866364,"keywords":["nocrits","nodmgspread","payload","uncletopia"],"game_id":440,"stv_port":27036,"stv_name":"Uncletopia | Chicago | 7 | Stopwatch | STV","players":null},{"server_id":39,"name":"Uncletopia | Chicago | 8 | Community","name_short":"chi-8","host":"chi-2.us.uncletopia.com","port":27045,"enabled":true,"region":"us-central","cc":"us","latitude":41.881832,"longitude":-87.62318,"reserved":0,"last_update":"0001-01-01T00:00:00Z","name_a2s":"Uncletopia | Chicago | 8 | Community","protocol":17,"map":"workshop/cp_snowbase_b18.ugc2081770490","folder":"tf","game":"Team Fortress","app_id":440,"player_count":21,"max_players":24,"Bots":0,"server_type":"Dedicated","server_os":"Linux","password":true,"vac":true,"version":"7961495","steam_id":85568392924866365,"keywords":["cp","nocrits","nodmgspread","uncletopia"],"game_id":440,"stv_port":27046,"stv_name":"Uncletopia | Chicago | 8 | Community | STV","players":[{"user_id":137,"name":"There is a hot muffler up my as","steam_id":76561198213863907,"connected_time":2013000000000,"state":"active","ping":120},{"user_id":151,"name":"caca sniffer","steam_id":76561199099914725,"connected_time":661000000000,"state":"active","ping":98},{"user_id":138,"name":"JC The Dumb","steam_id":76561199186185567,"connected_time":1997000000000,"state":"active","ping":114},{"user_id":139,"name":"pill","steam_id":76561198051310816,"connected_time":1698000000000,"state":"active","ping":69},{"user_id":143,"name":"Captain Chicken","steam_id":76561198047767530,"connected_time":1137000000000,"state":"active","ping":108},{"user_id":122,"name":"Bestmaster202","steam_id":76561198235282680,"connected_time":4724000000000,"state":"active","ping":105},{"user_id":116,"name":"Man Man","steam_id":76561199068338634,"connected_time":4889000000000,"state":"active","ping":82},{"user_id":126,"name":"kaputon","steam_id":76561198146299782,"connected_time":4476000000000,"state":"active","ping":60},{"user_id":118,"name":"social distance warrior","steam_id":76561198128992994,"connected_time":4826000000000,"state":"active","ping":90},{"user_id":159,"name":"Barn","steam_id":76561198037219525,"connected_time":386000000000,"state":"active","ping":73},{"user_id":145,"name":"Chap","steam_id":76561198294226443,"connected_time":965000000000,"state":"active","ping":107},{"user_id":157,"name":"Gaming","steam_id":76561198107080532,"connected_time":411000000000,"state":"active","ping":65},{"user_id":160,"name":"Rick Sanchez","steam_id":76561198046134333,"connected_time":218000000000,"state":"active","ping":191},{"user_id":119,"name":"Chiaki Nanami","steam_id":76561198164782653,"connected_time":4823000000000,"state":"active","ping":70},{"user_id":136,"name":"Hellbound","steam_id":76561198319648930,"connected_time":2529000000000,"state":"active","ping":58},{"user_id":120,"name":"gerg","steam_id":76561197997127387,"connected_time":4812000000000,"state":"active","ping":100},{"user_id":147,"name":"One Horned Bitch Destroyer","steam_id":76561198045810191,"connected_time":865000000000,"state":"active","ping":91},{"user_id":121,"name":"Ocean Man","steam_id":76561198294511218,"connected_time":4801000000000,"state":"active","ping":117},{"user_id":154,"name":"Child Devourer","steam_id":76561198218558897,"connected_time":567000000000,"state":"active","ping":100},{"user_id":105,"name":"Skeleton Hotel","steam_id":76561198041704727,"connected_time":5804000000000,"state":"active","ping":60},{"user_id":149,"name":"Dr. Pleasant","steam_id":76561198111945101,"connected_time":851000000000,"state":"active","ping":70}]},{"server_id":8,"name":"Uncletopia | Dallas | 1 | All Maps","name_short":"dal-1","host":"dal-1.us.uncletopia.com","port":27015,"enabled":true,"region":"us-central","cc":"us","latitude":32.779167,"longitude":-96.80889,"reserved":0,"last_update":"0001-01-01T00:00:00Z","name_a2s":"Uncletopia | Dallas | 1 | All Maps","protocol":17,"map":"pl_borneo","folder":"tf","game":"Team Fortress","app_id":440,"player_count":22,"max_players":24,"Bots":0,"server_type":"Dedicated","server_os":"Linux","password":true,"vac":true,"version":"7961495","steam_id":85568392924469986,"keywords":["nocrits","nodmgspread","payload","uncletopia"],"game_id":440,"stv_port":27016,"stv_name":"Uncletopia | Dallas | 1 | All Maps | STV","players":[{"user_id":757,"name":"Shisho","steam_id":76561198800199201,"connected_time":3181000000000,"state":"active","ping":63},{"user_id":772,"name":"Homewrecker Bill","steam_id":76561198120379171,"connected_time":1553000000000,"state":"active","ping":115},{"user_id":773,"name":"The Apoleon","steam_id":76561198870709855,"connected_time":1468000000000,"state":"active","ping":82},{"user_id":756,"name":"‚ô†Silver‚ô†","steam_id":76561198206109224,"connected_time":3467000000000,"state":"active","ping":137},{"user_id":799,"name":"corrupted spy","steam_id":76561198018689620,"connected_time":19000000000,"state":"active","ping":91},{"user_id":768,"name":"kreeper700","steam_id":76561199495556056,"connected_time":2069000000000,"state":"active","ping":258},{"user_id":798,"name":"Zorospo","steam_id":76561198369967690,"connected_time":39000000000,"state":"active","ping":58},{"user_id":770,"name":"Randy \"the Man\" Johnson","steam_id":76561198039124445,"connected_time":1619000000000,"state":"active","ping":108},{"user_id":734,"name":"Tommy Provolone","steam_id":76561198170062377,"connected_time":5971000000000,"state":"active","ping":67},{"user_id":775,"name":"AffirmedDrip13","steam_id":76561198241951532,"connected_time":1363000000000,"state":"active","ping":72},{"user_id":784,"name":"Username","steam_id":76561198198918781,"connected_time":808000000000,"state":"active","ping":102},{"user_id":783,"name":"Siev","steam_id":76561198000518937,"connected_time":887000000000,"state":"active","ping":67},{"user_id":782,"name":"Basement Creep","steam_id":76561198127730236,"connected_time":945000000000,"state":"active","ping":87},{"user_id":785,"name":"Seskova","steam_id":76561198090207032,"connected_time":720000000000,"state":"active","ping":102},{"user_id":797,"name":"ZILICON","steam_id":76561199044705592,"connected_time":130000000000,"state":"active","ping":108},{"user_id":796,"name":"Vero","steam_id":76561198183369559,"connected_time":446000000000,"state":"active","ping":67},{"user_id":787,"name":"JoeyX","steam_id":76561198022449835,"connected_time":682000000000,"state":"active","ping":46},{"user_id":788,"name":"CAPN YO HO","steam_id":76561198261749130,"connected_time":677000000000,"state":"active","ping":77},{"user_id":789,"name":"Rudy","steam_id":76561198013456828,"connected_time":664000000000,"state":"active","ping":78},{"user_id":790,"name":"Lycan","steam_id":76561198151499868,"connected_time":655000000000,"state":"active","ping":61},{"user_id":795,"name":"KevilPo","steam_id":76561199244507267,"connected_time":536000000000,"state":"active","ping":92},{"user_id":793,"name":"Calryan","steam_id":76561198060080966,"connected_time":598000000000,"state":"active","ping":89}]},{"server_id":108,"name":"Uncletopia | Dallas | 2 | All Maps","name_short":"dal-2","host":"dal-1.us.uncletopia.com","port":27025,"enabled":true,"region":"us-central","cc":"us","latitude":32.779167,"longitude":-96.80889,"reserved":0,"last_update":"0001-01-01T00:00:00Z","name_a2s":"Uncletopia | Dallas | 2 | All Maps","protocol":17,"map":"cp_snakewater_final1","folder":"tf","game":"Team Fortress","app_id":440,"player_count":23,"max_players":24,"Bots":0,"server_type":"Dedicated","server_os":"Linux","password":true,"vac":true,"version":"7961495","steam_id":85568392924469988,"keywords":["cp","nocrits","nodmgspread","uncletopia"],"game_id":440,"stv_port":27026,"stv_name":"Uncletopia | Dallas | 2 | All Maps | STV","players":[{"user_id":736,"name":"Auxientios","steam_id":76561198232952908,"connected_time":964000000000,"state":"active","ping":62},{"user_id":737,"name":"D3M0N R0KKSTAR","steam_id":76561198206177593,"connected_time":855000000000,"state":"active","ping":70},{"user_id":734,"name":"H2OBourne","steam_id":76561198396293109,"connected_time":1026000000000,"state":"active","ping":64},{"user_id":739,"name":"St. Michael","steam_id":76561198037611052,"connected_time":593000000000,"state":"active","ping":45},{"user_id":735,"name":"U œâ U","steam_id":76561198118802562,"connected_time":1018000000000,"state":"active","ping":92},{"user_id":740,"name":"1000 Ping","steam_id":76561198098330939,"connected_time":565000000000,"state":"active","ping":100},{"user_id":741,"name":"Blue Foot","steam_id":76561198351997202,"connected_time":529000000000,"state":"active","ping":83},{"user_id":752,"name":"Lugi","steam_id":76561198873757026,"connected_time":156000000000,"state":"active","ping":48},{"user_id":742,"name":"Kermuffin","steam_id":76561198005318371,"connected_time":514000000000,"state":"active","ping":61},{"user_id":743,"name":"cilo","steam_id":76561198046163502,"connected_time":481000000000,"state":"active","ping":61},{"user_id":717,"name":"La Bomba","steam_id":76561198069948353,"connected_time":1700000000000,"state":"active","ping":61},{"user_id":744,"name":"313","steam_id":76561198152773225,"connected_time":481000000000,"state":"active","ping":84},{"user_id":745,"name":"sibling wile üü† „ÉÑ","steam_id":76561198125261443,"connected_time":397000000000,"state":"active","ping":113},{"user_id":746,"name":"Myra1090","steam_id":76561198060917191,"connected_time":312000000000,"state":"active","ping":91},{"user_id":747,"name":"Princess Bloom","steam_id":76561198107492237,"connected_time":308000000000,"state":"active","ping":100},{"user_id":512,"name":"Clockey","steam_id":76561198386319583,"connected_time":10089000000000,"state":"active","ping":55},{"user_id":748,"name":"gup","steam_id":76561198095055487,"connected_time":284000000000,"state":"active","ping":68},{"user_id":728,"name":"Anomalocaris Gay Ming","steam_id":76561198257921898,"connected_time":1215000000000,"state":"active","ping":114},{"user_id":731,"name":"{ST} Oxythemoron","steam_id":76561198060089965,"connected_time":1154000000000,"state":"active","ping":54},{"user_id":556,"name":"D0nutSlayer","steam_id":76561198143123007,"connected_time":6793000000000,"state":"active","ping":68},{"user_id":726,"name":"bulbasaur890","steam_id":76561198093443639,"connected_time":1287000000000,"state":"active","ping":69},{"user_id":704,"name":"DankeyDang","steam_id":76561198299798796,"connected_time":2352000000000,"state":"active","ping":85},{"user_id":707,"name":"YoteDab McFapDab.jpg","steam_id":76561197984870380,"connected_time":2180000000000,"state":"active","ping":96}]},{"server_id":404,"name":"Uncletopia | Dallas | 3 | All Maps","name_short":"dal-3","host":"dal-1.us.uncletopia.com","port":27035,"enabled":true,"region":"us-central","cc":"us","latitude":32.779167,"longitude":-96.80889,"reserved":0,"last_update":"0001-01-01T00:00:00Z","name_a2s":"Uncletopia | Dallas | 3 | All Maps","protocol":17,"map":"koth_cascade","folder":"tf","game":"Team Fortress","app_id":440,"player_count":0,"max_players":24,"Bots":0,"server_type":"Dedicated","server_os":"Linux","password":true,"vac":true,"version":"7961495","steam_id":85568392924515219,"keywords":["cp","nocrits","nodmgspread","uncletopia"],"game_id":440,"stv_port":27036,"stv_name":"Uncletopia | Dallas | 3 | All Maps | STV","players":null},{"server_id":405,"name":"Uncletopia | Dallas | 4 | Community","name_short":"dal-4","host":"dal-1.us.uncletopia.com","port":27045,"enabled":true,"region":"us-central","cc":"us","latitude":32.779167,"longitude":-96.80889,"reserved":0,"last_update":"0001-01-01T00:00:00Z","name_a2s":"Uncletopia | Dallas | 4 | Community","protocol":17,"map":"workshop/koth_ashville_final.ugc2130459942","folder":"tf","game":"Team Fortress","app_id":440,"player_count":0,"max_players":24,"Bots":0,"server_type":"Dedicated","server_os":"Linux","password":true,"vac":true,"version":"7961495","steam_id":85568392924515220,"keywords":["cp","nocrits","nodmgspread","uncletopia"],"game_id":440,"stv_port":27046,"stv_name":"Uncletopia | Dallas | 4 | Community | STV","players":null},{"server_id":5,"name":"Uncletopia | Frankfurt | 1 | All Maps","name_short":"frk-1","host":"frk-1.de.uncletopia.com","port":27015,"enabled":true,"region":"eu","cc":"de","latitude":50.110924,"longitude":8.682127,"reserved":0,"last_update":"0001-01-01T00:00:00Z","name_a2s":"Uncletopia | Frankfurt | 1 | All Maps","protocol":17,"map":"koth_highpass","folder":"tf","game":"Team Fortress","app_id":440,"player_count":0,"max_players":24,"Bots":0,"server_type":"Dedicated","server_os":"Linux","password":true,"vac":true,"version":"7961495","steam_id":85568392924469989,"keywords":["cp","nocrits","nodmgspread","uncletopia"],"game_id":440,"stv_port":27016,"stv_name":"Uncletopia | Frankfurt | 1 | All Maps | STV","players":null},{"server_id":110,"name":"Uncletopia | Frankfurt | 2 | All Maps","name_short":"frk-2","host":"frk-1.de.uncletopia.com","port":27025,"enabled":true,"region":"eu","cc":"de","latitude":50.110924,"longitude":8.682127,"reserved":0,"last_update":"0001-01-01T00:00:00Z","name_a2s":"Uncletopia | Frankfurt | 2 | All Maps","protocol":17,"map":"cp_dustbowl","folder":"tf","game":"Team Fortress","app_id":440,"player_count":0,"max_players":24,"Bots":0,"server_type":"Dedicated","server_os":"Linux","password":true,"vac":true,"version":"7961495","steam_id":85568392924469990,"keywords":["cp","nocrits","nodmgspread","uncletopia"],"game_id":440,"stv_port":27026,"stv_name":"Uncletopia | Frankfurt | 2 | All Maps | STV","players":null},{"server_id":308,"name":"Uncletopia | Frankfurt | 3 | All Maps","name_short":"frk-3","host":"frk-1.de.uncletopia.com","port":27035,"enabled":true,"region":"eu","cc":"de","latitude":50.110924,"longitude":8.682127,"reserved":0,"last_update":"0001-01-01T00:00:00Z","name_a2s":"Uncletopia | Frankfurt | 3 | All Maps","protocol":17,"map":"koth_cascade","folder":"tf","game":"Team Fortress","app_id":440,"player_count":0,"max_players":24,"Bots":0,"server_type":"Dedicated","server_os":"Linux","password":true,"vac":true,"version":"7961495","steam_id":85568392924504274,"keywords":["cp","nocrits","nodmgspread","uncletopia"],"game_id":440,"stv_port":27036,"stv_name":"Uncletopia | Frankfurt | 3 | All Maps | STV","players":null},{"server_id":309,"name":"Uncletopia | Frankfurt | 4 | All Maps","name_short":"frk-4","host":"frk-1.de.uncletopia.com","port":27045,"enabled":true,"region":"eu","cc":"de","latitude":50.110924,"longitude":8.682127,"reserved":0,"last_update":"0001-01-01T00:00:00Z","name_a2s":"Uncletopia | Frankfurt | 4 | All Maps","protocol":17,"map":"koth_highpass","folder":"tf","game":"Team Fortress","app_id":440,"player_count":0,"max_players":24,"Bots":0,"server_type":"Dedicated","server_os":"Linux","password":true,"vac":true,"version":"7961495","steam_id":85568392924504275,"keywords":["cp","nocrits","nodmgspread","uncletopia"],"game_id":440,"stv_port":27046,"stv_name":"Uncletopia | Frankfurt | 4 | All Maps | STV","players":null},{"server_id":310,"name":"Uncletopia | Frankfurt | 5 | All Maps","name_short":"frk-5","host":"frk-1.de.uncletopia.com","port":27055,"enabled":true,"region":"eu","cc":"de","latitude":50.110924,"longitude":8.682127,"reserved":0,"last_update":"0001-01-01T00:00:00Z","name_a2s":"Uncletopia | Frankfurt | 5 | All Maps","protocol":17,"map":"pl_badwater","folder":"tf","game":"Team Fortress","app_id":440,"player_count":0,"max_players":24,"Bots":0,"server_type":"Dedicated","server_os":"Linux","password":true,"vac":true,"version":"7961495","steam_id":85568392924504277,"keywords":["nocrits","nodmgspread","payload","uncletopia"],"game_id":440,"stv_port":27056,"stv_name":"Uncletopia | Frankfurt | 5 | All Maps | STV","players":null},{"server_id":311,"name":"Uncletopia | Frankfurt | 6 | All Maps","name_short":"frk-6","host":"frk-1.de.uncletopia.com","port":27065,"enabled":true,"region":"eu","cc":"de","latitude":50.110924,"longitude":8.682127,"reserved":0,"last_update":"0001-01-01T00:00:00Z","name_a2s":"Uncletopia | Frankfurt | 6 | All Maps","protocol":17,"map":"cp_altitude","folder":"tf","game":"Team Fortress","app_id":440,"player_count":0,"max_players":24,"Bots":0,"server_type":"Dedicated","server_os":"Linux","password":true,"vac":true,"version":"7961495","steam_id":85568392924504278,"keywords":["cp","nocrits","nodmgspread","uncletopia"],"game_id":440,"stv_port":27066,"stv_name":"Uncletopia | Frankfurt | 6 | All Maps | STV","players":null},{"server_id":23,"name":"Uncletopia | Frankfurt | 7 | Stopwatch","name_short":"frk-7","host":"frk-1.de.uncletopia.com","port":27075,"enabled":true,"region":"eu","cc":"de","latitude":50.110924,"longitude":8.682127,"reserved":0,"last_update":"0001-01-01T00:00:00Z","name_a2s":"Uncletopia | Frankfurt | 7 | Stopwatch","protocol":17,"map":"workshop/cp_process_f12.ugc2302948105","folder":"tf","game":"Team Fortress","app_id":440,"player_count":0,"max_players":24,"Bots":0,"server_type":"Dedicated","server_os":"Linux","password":true,"vac":true,"version":"7961495","steam_id":85568392924742827,"keywords":["cp","nocrits","nodmgspread","uncletopia"],"game_id":440,"stv_port":27076,"stv_name":"Uncletopia | Frankfurt | 7 | Stopwatch | STV","players":null},{"server_id":24,"name":"Uncletopia | Frankfurt | 8 | Community","name_short":"frk-8","host":"frk-1.de.uncletopia.com","port":27085,"enabled":true,"region":"eu","cc":"de","latitude":50.110924,"longitude":8.682127,"reserved":0,"last_update":"0001-01-01T00:00:00Z","name_a2s":"Uncletopia | Frankfurt | 8 | Community","protocol":17,"map":"cp_mountainlab","folder":"tf","game":"Team Fortress","app_id":440,"player_count":0,"max_players":24,"Bots":0,"server_type":"Dedicated","server_os":"Linux","password":true,"vac":true,"version":"7961495","steam_id":85568392924742828,"keywords":["cp","nocrits","nodmgspread","uncletopia"],"game_id":440,"stv_port":27086,"stv_name":"Uncletopia | Frankfurt | 8 | Community | STV","players":null},{"server_id":202,"name":"Uncletopia | Hong Kong | 1 | All Maps","name_short":"hgk-1","host":"hgk-1.hk.uncletopia.com","port":27015,"enabled":true,"region":"asia","cc":"hk","latitude":22.302711,"longitude":114.177216,"reserved":0,"last_update":"0001-01-01T00:00:00Z","name_a2s":"Uncletopia | Hong Kong | 1 | All Maps","protocol":17,"map":"koth_highpass","folder":"tf","game":"Team Fortress","app_id":440,"player_count":17,"max_players":24,"Bots":0,"server_type":"Dedicated","server_os":"Linux","password":true,"vac":true,"version":"7961495","steam_id":85568392924494504,"keywords":["cp","nocrits","nodmgspread","uncletopia"],"game_id":440,"stv_port":27016,"stv_name":"Uncletopia | Hong Kong | 1 | All Maps | STV","players":[{"user_id":247,"name":"Scrappy","steam_id":76561198970038475,"connected_time":2340000000000,"state":"active","ping":144},{"user_id":225,"name":"churropan","steam_id":76561199258385450,"connected_time":3539000000000,"state":"active","ping":93},{"user_id":270,"name":"junbi OK","steam_id":76561198116387218,"connected_time":112000000000,"state":"active","ping":86},{"user_id":176,"name":"vintage","steam_id":76561198230213828,"connected_time":6405000000000,"state":"active","ping":60},{"user_id":258,"name":"Nephew Nate","steam_id":76561199137872034,"connected_time":1093000000000,"state":"spawning","ping":349},{"user_id":233,"name":"Ë∂ôÂñúÂ®ú","steam_id":76561198061628689,"connected_time":3334000000000,"state":"active","ping":51},{"user_id":250,"name":"Lu","steam_id":76561198320532821,"connected_time":2213000000000,"state":"active","ping":52},{"user_id":232,"name":"SunShine","steam_id":76561198323642446,"connected_time":3348000000000,"state":"active","ping":93},{"user_id":254,"name":"komaki","steam_id":76561198989168133,"connected_time":1138000000000,"state":"active","ping":84},{"user_id":246,"name":"twentyfourseven","steam_id":76561198339641444,"connected_time":2444000000000,"state":"active","ping":78},{"user_id":219,"name":"nyakky","steam_id":76561198927779787,"connected_time":4033000000000,"state":"active","ping":90},{"user_id":265,"name":"screaming sniper","steam_id":76561199085568674,"connected_time":640000000000,"state":"active","ping":60},{"user_id":252,"name":"Darknight","steam_id":76561199090139287,"connected_time":1986000000000,"state":"active","ping":78},{"user_id":260,"name":"1803097987","steam_id":76561198846939339,"connected_time":1070000000000,"state":"active","ping":84},{"user_id":267,"name":"niceguy6785","steam_id":76561199442589750,"connected_time":369000000000,"state":"active","ping":46},{"user_id":255,"name":"2746","steam_id":76561199390507975,"connected_time":1120000000000,"state":"active","ping":55},{"user_id":261,"name":"Gaz","steam_id":76561199081356069,"connected_time":1058000000000,"state":"active","ping":132}]},{"server_id":1,"name":"Uncletopia | Los Angeles | 1 | All Maps","name_short":"lax-1","host":"lax-1.us.uncletopia.com","port":27015,"enabled":true,"region":"us-west","cc":"us","latitude":33.94279,"longitude":-118.41004,"reserved":0,"last_update":"0001-01-01T00:00:00Z","name_a2s":"Uncletopia | Los Angeles | 1 | All Maps","protocol":17,"map":"koth_viaduct","folder":"tf","game":"Team Fortress","app_id":440,"player_count":24,"max_players":24,"Bots":0,"server_type":"Dedicated","server_os":"Linux","password":true,"vac":true,"version":"7961495","steam_id":85568392924469991,"keywords":["cp","nocrits","nodmgspread","uncletopia"],"game_id":440,"stv_port":27016,"stv_name":"Uncletopia | Los Angeles | 1 | All Maps | STV","players":[{"user_id":599,"name":"Punished Jeff #NeverSimpAgain","steam_id":76561198304252584,"connected_time":839000000000,"state":"connecting","ping":69},{"user_id":590,"name":"i cant aim","steam_id":76561198065873462,"connected_time":1896000000000,"state":"connecting","ping":50},{"user_id":592,"name":"the slay queen of yassville","steam_id":76561198049258493,"connected_time":1829000000000,"state":"connecting","ping":122},{"user_id":587,"name":"(TPT) Ghost","steam_id":76561198123262873,"connected_time":2761000000000,"state":"connecting","ping":62},{"user_id":603,"name":"remanedur","steam_id":76561198059459507,"connected_time":24000000000,"state":"connecting","ping":111},{"user_id":560,"name":"coffee veins","steam_id":76561198044004639,"connected_time":4744000000000,"state":"connecting","ping":102},{"user_id":597,"name":"Miro","steam_id":76561198936412406,"connected_time":1689000000000,"state":"connecting","ping":135},{"user_id":568,"name":"Gawin Goodman","steam_id":76561198192661585,"connected_time":4175000000000,"state":"connecting","ping":94},{"user_id":584,"name":"Meso","steam_id":76561199088153190,"connected_time":2816000000000,"state":"connecting","ping":101},{"user_id":604,"name":"roach","steam_id":76561198354811369,"connected_time":22000000000,"state":"connecting","ping":55},{"user_id":602,"name":"Arrythmia","steam_id":76561198093748123,"connected_time":391000000000,"state":"connecting","ping":94},{"user_id":601,"name":"Abril","steam_id":76561199496059845,"connected_time":473000000000,"state":"connecting","ping":127},{"user_id":593,"name":"-L","steam_id":76561198046074220,"connected_time":1813000000000,"state":"connecting","ping":39},{"user_id":588,"name":"‚ô•‚ô°‚àûiMaCH‚àû‚ô°‚ô•","steam_id":76561198820527565,"connected_time":2694000000000,"state":"connecting","ping":93},{"user_id":594,"name":"Pyrotek‚Å¥","steam_id":76561198072747672,"connected_time":1812000000000,"state":"connecting","ping":56},{"user_id":583,"name":"blinker foo","steam_id":76561198105374054,"connected_time":2817000000000,"state":"connecting","ping":78},{"user_id":595,"name":"Platinum Chain","steam_id":76561198129935351,"connected_time":1810000000000,"state":"connecting","ping":94},{"user_id":600,"name":"b","steam_id":76561198156336213,"connected_time":513000000000,"state":"connecting","ping":75},{"user_id":530,"name":"Anon","steam_id":76561198109740776,"connected_time":6235000000000,"state":"connecting","ping":53},{"user_id":577,"name":"Cricket","steam_id":76561198200037217,"connected_time":3353000000000,"state":"connecting","ping":123},{"user_id":562,"name":"Livin' Like Larry","steam_id":76561198313360974,"connected_time":4695000000000,"state":"connecting","ping":58},{"user_id":596,"name":"Uluyo","steam_id":76561198065857148,"connected_time":1735000000000,"state":"connecting","ping":79}]},{"server_id":112,"name":"Uncletopia | Los Angeles | 2 | All Maps","name_short":"lax-2","host":"lax-1.us.uncletopia.com","port":27025,"enabled":true,"region":"us-west","cc":"us","latitude":33.94279,"longitude":-118.41004,"reserved":0,"last_update":"0001-01-01T00:00:00Z","name_a2s":"Uncletopia | Los Angeles | 2 | All Maps","protocol":17,"map":"cp_dustbowl","folder":"tf","game":"Team Fortress","app_id":440,"player_count":23,"max_players":24,"Bots":0,"server_type":"Dedicated","server_os":"Linux","password":true,"vac":true,"version":"7961495","steam_id":85568392924469992,"keywords":["cp","nocrits","nodmgspread","uncletopia"],"game_id":440,"stv_port":27026,"stv_name":"Uncletopia | Los Angeles | 2 | All Maps | STV","players":[{"user_id":916,"name":"walrooos #hotlinebling","steam_id":76561198024521839,"connected_time":4226000000000,"state":"active","ping":46},{"user_id":917,"name":"Tubit","steam_id":76561198135810557,"connected_time":4205000000000,"state":"active","ping":95},{"user_id":934,"name":"Thunder","steam_id":76561198097721532,"connected_time":2990000000000,"state":"active","ping":49},{"user_id":932,"name":"SanitysEdge","steam_id":76561198130732813,"connected_time":3191000000000,"state":"active","ping":45},{"user_id":926,"name":"Mocha Josie","steam_id":76561198066452726,"connected_time":3629000000000,"state":"active","ping":49},{"user_id":961,"name":"Arcane Flame","steam_id":76561198360024422,"connected_time":630000000000,"state":"active","ping":58},{"user_id":960,"name":"DesertFroggo","steam_id":76561198015607829,"connected_time":662000000000,"state":"active","ping":114},{"user_id":957,"name":"Silvermace","steam_id":76561198090696843,"connected_time":902000000000,"state":"active","ping":49},{"user_id":894,"name":"Seriously Bruh","steam_id":76561198070408485,"connected_time":5650000000000,"state":"active","ping":75},{"user_id":955,"name":"Metalogic","steam_id":76561198049469629,"connected_time":1437000000000,"state":"active","ping":87},{"user_id":896,"name":"SmallErection","steam_id":76561198071770147,"connected_time":5637000000000,"state":"active","ping":118},{"user_id":948,"name":"Super Saiyan Bear","steam_id":76561198063118280,"connected_time":1648000000000,"state":"active","ping":57},{"user_id":965,"name":"lil uzi squirt","steam_id":76561198045926594,"connected_time":288000000000,"state":"active","ping":68},{"user_id":963,"name":"Alf Creepypasta","steam_id":76561198841844093,"connected_time":607000000000,"state":"active","ping":47},{"user_id":933,"name":"sola venereum","steam_id":76561198368179166,"connected_time":3172000000000,"state":"active","ping":42},{"user_id":939,"name":"CantaloupeKing","steam_id":76561198041949472,"connected_time":2609000000000,"state":"active","ping":71},{"user_id":954,"name":"CLB","steam_id":76561198057971005,"connected_time":1458000000000,"state":"active","ping":71},{"user_id":958,"name":"CheeseCake488","steam_id":76561199407617942,"connected_time":805000000000,"state":"active","ping":84},{"user_id":956,"name":"Your Dinosaurs","steam_id":76561198392670237,"connected_time":1346000000000,"state":"active","ping":59},{"user_id":937,"name":"2","steam_id":76561198037332418,"connected_time":2797000000000,"state":"active","ping":74},{"user_id":928,"name":"thom yorke official","steam_id":76561198361382279,"connected_time":3578000000000,"state":"active","ping":79},{"user_id":968,"name":"An00bis","steam_id":76561198044084508,"connected_time":81000000000,"state":"active","ping":47},{"user_id":923,"name":"PillCosby","steam_id":76561199396184696,"connected_time":3932000000000,"state":"active","ping":79}]},{"server_id":324,"name":"Uncletopia | Los Angeles | 3 | All Maps","name_short":"lax-3","host":"lax-1.us.uncletopia.com","port":27035,"enabled":true,"region":"us-west","cc":"us","latitude":33.94279,"longitude":-118.41004,"reserved":0,"last_update":"0001-01-01T00:00:00Z","name_a2s":"Uncletopia | Los Angeles | 3 | All Maps","protocol":17,"map":"pl_pier","folder":"tf","game":"Team Fortress","app_id":440,"player_count":1,"max_players":24,"Bots":0,"server_type":"Dedicated","server_os":"Linux","password":true,"vac":true,"version":"7961495","steam_id":85568392924510198,"keywords":["nocrits","nodmgspread","payload","uncletopia"],"game_id":440,"stv_port":27036,"stv_name":"Uncletopia | Los Angeles | 3 | All Maps | STV","players":[{"user_id":280,"name":"mr_pringles_sour_cream","steam_id":76561198335433236,"connected_time":76000000000,"state":"active","ping":34}]},{"server_id":25,"name":"Uncletopia | Los Angeles | 4 | Stopwatch","name_short":"lax-4","host":"lax-1.us.uncletopia.com","port":27045,"enabled":true,"region":"us-west","cc":"us","latitude":33.94279,"longitude":-118.41004,"reserved":0,"last_update":"0001-01-01T00:00:00Z","name_a2s":"Uncletopia | Los Angeles | 4 | Stopwatch","protocol":17,"map":"workshop/cp_process_f12.ugc2302948105","folder":"tf","game":"Team Fortress","app_id":440,"player_count":0,"max_players":24,"Bots":0,"server_type":"Dedicated","server_os":"Linux","password":true,"vac":true,"version":"7961495","steam_id":85568392924510199,"keywords":["cp","nocrits","nodmgspread","uncletopia"],"game_id":440,"stv_port":27046,"stv_name":"Uncletopia | Los Angeles | 4 | Stopwatch | STV","players":null},{"server_id":11,"name":"Uncletopia | London | 1 | All Maps","name_short":"lon-1","host":"lon-1.uk.uncletopia.com","port":27015,"enabled":true,"region":"eu","cc":"gb","latitude":51.509865,"longitude":-0.118092,"reserved":0,"last_update":"0001-01-01T00:00:00Z","name_a2s":"Uncletopia | London | 1 | All Maps","protocol":17,"map":"pl_badwater","folder":"tf","game":"Team Fortress","app_id":440,"player_count":25,"max_players":24,"Bots":0,"server_type":"Dedicated","server_os":"Linux","password":true,"vac":true,"version":"7961495","steam_id":85568392924367362,"keywords":["nocrits","nodmgspread","payload","uncletopia"],"game_id":440,"stv_port":27016,"stv_name":"Uncletopia | London | 1 | All Maps | STV","players":[{"user_id":42,"name":"build","steam_id":76561198818037965,"connected_time":2605000000000,"state":"active","ping":105},{"user_id":81,"name":"rets_","steam_id":76561198061551392,"connected_time":194000000000,"state":"active","ping":56},{"user_id":57,"name":"noseb","steam_id":76561199480942903,"connected_time":1293000000000,"state":"active","ping":75},{"user_id":72,"name":"tlm","steam_id":76561198178457461,"connected_time":758000000000,"state":"active","ping":150},{"user_id":82,"name":"S√¥l","steam_id":76561199082309685,"connected_time":21000000000,"state":"active","ping":80},{"user_id":54,"name":"N√∫√∫b","steam_id":76561198111933414,"connected_time":1560000000000,"state":"active","ping":74},{"user_id":46,"name":"Chiabuvis","steam_id":76561198450037172,"connected_time":2203000000000,"state":"active","ping":72},{"user_id":10,"name":"Splendorous","steam_id":76561198880320499,"connected_time":6388000000000,"state":"active","ping":51},{"user_id":35,"name":"Rin-Nakaret","steam_id":76561197971051188,"connected_time":2904000000000,"state":"active","ping":60},{"user_id":83,"name":"Lewylow","steam_id":76561198005425686,"connected_time":1000000000,"state":"spawning","ping":81},{"user_id":31,"name":"Jebediah Kerman","steam_id":76561198173846714,"connected_time":3437000000000,"state":"active","ping":58},{"user_id":37,"name":"Neimon","steam_id":76561198343485710,"connected_time":2866000000000,"state":"active","ping":130},{"user_id":59,"name":"Meow","steam_id":76561198062433153,"connected_time":1249000000000,"state":"active","ping":120},{"user_id":70,"name":"Chicken Fillet","steam_id":76561198062267267,"connected_time":868000000000,"state":"active","ping":115},{"user_id":61,"name":"Astolfo","steam_id":76561198354584982,"connected_time":1215000000000,"state":"active","ping":64},{"user_id":51,"name":"UglyTwinYgor","steam_id":76561198132718039,"connected_time":1666000000000,"state":"active","ping":86},{"user_id":55,"name":"Buddyram5","steam_id":76561198409858620,"connected_time":1400000000000,"state":"active","ping":127},{"user_id":62,"name":"night.s","steam_id":76561198326287823,"connected_time":1153000000000,"state":"active","ping":88},{"user_id":64,"name":"Avon","steam_id":76561199021652529,"connected_time":1081000000000,"state":"active","ping":117},{"user_id":66,"name":"Dry","steam_id":76561198027164095,"connected_time":984000000000,"state":"active","ping":131},{"user_id":67,"name":"throne","steam_id":76561198059723960,"connected_time":973000000000,"state":"active","ping":51},{"user_id":74,"name":"jonbob","steam_id":76561197963506620,"connected_time":582000000000,"state":"active","ping":55},{"user_id":75,"name":"SAMURAI_T7C","steam_id":76561198071226377,"connected_time":483000000000,"state":"active","ping":84},{"user_id":76,"name":"andrew","steam_id":76561198372019033,"connected_time":474000000000,"state":"active","ping":87},{"user_id":80,"name":"Rocket Queen's husbik","steam_id":76561198092995429,"connected_time":214000000000,"state":"active","ping":142}]},{"server_id":114,"name":"Uncletopia | London | 2 | All Maps","name_short":"lon-2","host":"lon-1.uk.uncletopia.com","port":27025,"enabled":true,"region":"eu","cc":"gb","latitude":51.509865,"longitude":-0.118092,"reserved":0,"last_update":"0001-01-01T00:00:00Z","name_a2s":"Uncletopia | London | 2 | All Maps","protocol":17,"map":"koth_lakeside_final","folder":"tf","game":"Team Fortress","app_id":440,"player_count":0,"max_players":24,"Bots":0,"server_type":"Dedicated","server_os":"Linux","password":true,"vac":true,"version":"7961495","steam_id":85568392924470941,"keywords":["cp","nocrits","nodmgspread","uncletopia"],"game_id":440,"stv_port":27026,"stv_name":"Uncletopia | London | 2 | All Maps | STV","players":null},{"server_id":320,"name":"Uncletopia | London | 3 | All Maps","name_short":"lon-3","host":"lon-1.uk.uncletopia.com","port":27035,"enabled":true,"region":"eu","cc":"gb","latitude":51.509865,"longitude":-0.118092,"reserved":0,"last_update":"0001-01-01T00:00:00Z","name_a2s":"Uncletopia | London | 3 | All Maps","protocol":17,"map":"cp_process_final","folder":"tf","game":"Team Fortress","app_id":440,"player_count":0,"max_players":24,"Bots":0,"server_type":"Dedicated","server_os":"Linux","password":true,"vac":true,"version":"7961495","steam_id":85568392924510192,"keywords":["cp","nocrits","nodmgspread","uncletopia"],"game_id":440,"stv_port":27036,"stv_name":"Uncletopia | London | 3 | All Maps | STV","players":null},{"server_id":321,"name":"Uncletopia | London | 4 | All Maps","name_short":"lon-4","host":"lon-1.uk.uncletopia.com","port":27045,"enabled":true,"region":"eu","cc":"gb","latitude":51.509865,"longitude":-0.118092,"reserved":0,"last_update":"0001-01-01T00:00:00Z","name_a2s":"Uncletopia | London | 4 | All Maps","protocol":17,"map":"koth_cascade","folder":"tf","game":"Team Fortress","app_id":440,"player_count":0,"max_players":24,"Bots":0,"server_type":"Dedicated","server_os":"Linux","password":true,"vac":true,"version":"7961495","steam_id":85568392924510193,"keywords":["cp","nocrits","nodmgspread","uncletopia"],"game_id":440,"stv_port":27046,"stv_name":"Uncletopia | London | 4 | All Maps | STV","players":null},{"server_id":21,"name":"Uncletopia | London | 5 | All Maps","name_short":"lon-5","host":"lon-1.uk.uncletopia.com","port":27055,"enabled":true,"region":"eu","cc":"gb","latitude":51.509865,"longitude":-0.118092,"reserved":0,"last_update":"0001-01-01T00:00:00Z","name_a2s":"Uncletopia | London | 5 | All Maps","protocol":17,"map":"koth_lakeside_final","folder":"tf","game":"Team Fortress","app_id":440,"player_count":0,"max_players":24,"Bots":0,"server_type":"Dedicated","server_os":"Linux","password":true,"vac":true,"version":"7961495","steam_id":85568392924742829,"keywords":["cp","nocrits","nodmgspread","uncletopia"],"game_id":440,"stv_port":27056,"stv_name":"Uncletopia | London | 5 | All Maps | STV","players":null},{"server_id":22,"name":"Uncletopia | London | 6 | All Maps","name_short":"lon-6","host":"lon-1.uk.uncletopia.com","port":27065,"enabled":true,"region":"eu","cc":"gb","latitude":51.509865,"longitude":-0.118092,"reserved":0,"last_update":"0001-01-01T00:00:00Z","name_a2s":"Uncletopia | London | 6 | All Maps","protocol":17,"map":"cp_dustbowl","folder":"tf","game":"Team Fortress","app_id":440,"player_count":0,"max_players":24,"Bots":0,"server_type":"Dedicated","server_os":"Linux","password":true,"vac":true,"version":"7961495","steam_id":85568392924742830,"keywords":["cp","nocrits","nodmgspread","uncletopia"],"game_id":440,"stv_port":27066,"stv_name":"Uncletopia | London | 6 | All Maps | STV","players":null},{"server_id":40,"name":"Uncletopia | London | 7 | Stopwatch","name_short":"lon-7","host":"lon-1.uk.uncletopia.com","port":27075,"enabled":true,"region":"eu","cc":"gb","latitude":51.509865,"longitude":-0.118092,"reserved":0,"last_update":"0001-01-01T00:00:00Z","name_a2s":"Uncletopia | London | 7 | Stopwatch","protocol":17,"map":"koth_lakeside_final","folder":"tf","game":"Team Fortress","app_id":440,"player_count":0,"max_players":24,"Bots":0,"server_type":"Dedicated","server_os":"Linux","password":true,"vac":true,"version":"7961495","steam_id":85568392924964314,"keywords":["cp","nocrits","nodmgspread","uncletopia"],"game_id":440,"stv_port":27076,"stv_name":"Uncletopia | London | 7 | Stopwatch | STV","players":null},{"server_id":41,"name":"Uncletopia | London | 8 | Community","name_short":"lon-8","host":"lon-1.uk.uncletopia.com","port":27085,"enabled":true,"region":"eu","cc":"gb","latitude":51.509865,"longitude":-0.118092,"reserved":0,"last_update":"0001-01-01T00:00:00Z","name_a2s":"Uncletopia | London | 8 | Community","protocol":17,"map":"cp_snakewater_final1","folder":"tf","game":"Team Fortress","app_id":440,"player_count":0,"max_players":24,"Bots":0,"server_type":"Dedicated","server_os":"Linux","password":true,"vac":true,"version":"7961495","steam_id":85568392924964315,"keywords":["cp","nocrits","nodmgspread","uncletopia"],"game_id":440,"stv_port":27086,"stv_name":"Uncletopia | London | 8 | Community | STV","players":null},{"server_id":300,"name":"Uncletopia | Montr√©al | 1 | All Maps","name_short":"mtl-1","host":"mtl-1.ca.uncletopia.com","port":27015,"enabled":true,"region":"us-east","cc":"ca","latitude":45.50889,"longitude":-73.56167,"reserved":0,"last_update":"0001-01-01T00:00:00Z","name_a2s":"","protocol":0,"map":"","folder":"","game":"","app_id":0,"player_count":0,"max_players":0,"Bots":0,"server_type":"","server_os":"","password":false,"vac":false,"version":"","steam_id":0,"keywords":null,"game_id":0,"stv_port":0,"stv_name":"","players":null},{"server_id":301,"name":"Uncletopia | Montr√©al | 2 | ???","name_short":"mtl-2","host":"mtl-1.ca.uncletopia.com","port":27025,"enabled":true,"region":"us-east","cc":"ca","latitude":45.50889,"longitude":-73.56167,"reserved":0,"last_update":"0001-01-01T00:00:00Z","name_a2s":"","protocol":0,"map":"","folder":"","game":"","app_id":0,"player_count":0,"max_players":0,"Bots":0,"server_type":"","server_os":"","password":false,"vac":false,"version":"","steam_id":0,"keywords":null,"game_id":0,"stv_port":0,"stv_name":"","players":null},{"server_id":13,"name":"Uncletopia | New York City | 1 | All Maps","name_short":"nyc-1","host":"nyc-1.us.uncletopia.com","port":27015,"enabled":true,"region":"us-east","cc":"us","latitude":40.73061,"longitude":-73.93524,"reserved":0,"last_update":"0001-01-01T00:00:00Z","name_a2s":"Uncletopia | New York City | 1 | All Maps","protocol":17,"map":"koth_viaduct","folder":"tf","game":"Team Fortress","app_id":440,"player_count":0,"max_players":24,"Bots":0,"server_type":"Dedicated","server_os":"Linux","password":true,"vac":true,"version":"7961495","steam_id":85568392924469993,"keywords":["cp","nocrits","nodmgspread","uncletopia"],"game_id":440,"stv_port":27016,"stv_name":"Uncletopia | New York City | 1 | All Maps | STV","players":null},{"server_id":14,"name":"Uncletopia | New York City | 2 | All Maps","name_short":"nyc-2","host":"nyc-1.us.uncletopia.com","port":27025,"enabled":true,"region":"us-east","cc":"us","latitude":40.73061,"longitude":-73.93524,"reserved":0,"last_update":"0001-01-01T00:00:00Z","name_a2s":"Uncletopia | New York City | 2 | All Maps","protocol":17,"map":"pl_badwater","folder":"tf","game":"Team Fortress","app_id":440,"player_count":24,"max_players":24,"Bots":0,"server_type":"Dedicated","server_os":"Linux","password":true,"vac":true,"version":"7961495","steam_id":85568392924469994,"keywords":["nocrits","nodmgspread","payload","uncletopia"],"game_id":440,"stv_port":27026,"stv_name":"Uncletopia | New York City | 2 | All Maps | STV","players":[{"user_id":634,"name":"toasty weber","steam_id":76561198037746805,"connected_time":367000000000,"state":"active","ping":65},{"user_id":631,"name":"minecrafterking8","steam_id":76561198366299848,"connected_time":641000000000,"state":"active","ping":68},{"user_id":624,"name":"It's FoolMoon","steam_id":76561198153344375,"connected_time":1484000000000,"state":"active","ping":45},{"user_id":618,"name":"Kipados","steam_id":76561197997147319,"connected_time":1810000000000,"state":"active","ping":57},{"user_id":593,"name":"Broadway Rose","steam_id":76561198046083342,"connected_time":4305000000000,"state":"active","ping":44},{"user_id":617,"name":"Truffleoil","steam_id":76561198114689041,"connected_time":2084000000000,"state":"active","ping":97},{"user_id":635,"name":"Artic_Ryuu","steam_id":76561198182194918,"connected_time":278000000000,"state":"active","ping":104},{"user_id":636,"name":"Who shit my pants?","steam_id":76561198056590708,"connected_time":209000000000,"state":"active","ping":51},{"user_id":626,"name":"slurpee #„Å´„ÇÉ","steam_id":76561197990257202,"connected_time":1438000000000,"state":"active","ping":97},{"user_id":632,"name":"Volkan, Pervert Extraordinaire","steam_id":76561198004569575,"connected_time":581000000000,"state":"active","ping":58},{"user_id":627,"name":"Rodrick Knee","steam_id":76561198283021062,"connected_time":1406000000000,"state":"active","ping":73},{"user_id":572,"name":"Obsurd Sasayaka","steam_id":76561198037080979,"connected_time":6730000000000,"state":"active","ping":74},{"user_id":633,"name":"Mighty","steam_id":76561198096569755,"connected_time":491000000000,"state":"active","ping":125},{"user_id":628,"name":"yamme","steam_id":76561198117849124,"connected_time":1336000000000,"state":"active","ping":115},{"user_id":609,"name":"ndvr","steam_id":76561199379200102,"connected_time":3419000000000,"state":"active","ping":56},{"user_id":563,"name":"The Deer Consumer","steam_id":76561198812026312,"connected_time":7729000000000,"state":"active","ping":65},{"user_id":622,"name":"Lunar Lepidoptera","steam_id":76561198014593467,"connected_time":1660000000000,"state":"active","ping":63},{"user_id":551,"name":"Lane","steam_id":76561197965828506,"connected_time":8662000000000,"state":"active","ping":59},{"user_id":561,"name":"Hideo Kojima","steam_id":76561198082582335,"connected_time":7877000000000,"state":"active","ping":55},{"user_id":611,"name":"xFactr","steam_id":76561198129007422,"connected_time":3402000000000,"state":"active","ping":44},{"user_id":614,"name":"d1pp_","steam_id":76561198395577807,"connected_time":3095000000000,"state":"active","ping":65},{"user_id":637,"name":"ShermanTonk","steam_id":76561199081522846,"connected_time":150000000000,"state":"active","ping":149},{"user_id":638,"name":":3","steam_id":76561198881665250,"connected_time":105000000000,"state":"active","ping":115},{"user_id":591,"name":"retinz","steam_id":76561198135563495,"connected_time":4919000000000,"state":"active","ping":58}]},{"server_id":15,"name":"Uncletopia | New York City | 3 | Stopwatch","name_short":"nyc-3","host":"nyc-1.us.uncletopia.com","port":27035,"enabled":true,"region":"us-east","cc":"us","latitude":40.73061,"longitude":-73.93524,"reserved":0,"last_update":"0001-01-01T00:00:00Z","name_a2s":"Uncletopia | New York City | 3 | Stopwatch","protocol":17,"map":"workshop/pl_badwater_pro_v12.ugc2142942074","folder":"tf","game":"Team Fortress","app_id":440,"player_count":0,"max_players":24,"Bots":0,"server_type":"Dedicated","server_os":"Linux","password":true,"vac":true,"version":"7961495","steam_id":85568392924742820,"keywords":["nocrits","nodmgspread","payload","uncletopia"],"game_id":440,"stv_port":27036,"stv_name":"Uncletopia | New York City | 3 | Stopwatch | STV","players":null},{"server_id":16,"name":"Uncletopia | New York City | 4 | Community","name_short":"nyc-4","host":"nyc-1.us.uncletopia.com","port":27045,"enabled":true,"region":"us-east","cc":"us","latitude":40.73061,"longitude":-73.93524,"reserved":0,"last_update":"0001-01-01T00:00:00Z","name_a2s":"Uncletopia | New York City | 4 | Community","protocol":17,"map":"workshop/pl_corrode_rc2.ugc546577989","folder":"tf","game":"Team Fortress","app_id":440,"player_count":0,"max_players":24,"Bots":0,"server_type":"Dedicated","server_os":"Linux","password":true,"vac":true,"version":"7961495","steam_id":85568392924742821,"keywords":["nocrits","nodmgspread","payload","uncletopia"],"game_id":440,"stv_port":27046,"stv_name":"Uncletopia | New York City | 4 | Community | STV","players":null},{"server_id":142,"name":"Uncletopia | S√£o Paulo | 1 | All Maps","name_short":"sao-1","host":"sao-1.br.uncletopia.com","port":27015,"enabled":true,"region":"sa","cc":"br","latitude":-23.533773,"longitude":-46.62529,"reserved":0,"last_update":"0001-01-01T00:00:00Z","name_a2s":"Uncletopia | S√£o Paulo | 1 | All Maps","protocol":17,"map":"koth_highpass","folder":"tf","game":"Team Fortress","app_id":440,"player_count":0,"max_players":24,"Bots":0,"server_type":"Dedicated","server_os":"Linux","password":true,"vac":true,"version":"7961495","steam_id":85568392924469996,"keywords":["cp","nocrits","nodmgspread","uncletopia"],"game_id":440,"stv_port":27016,"stv_name":"Uncletopia | S√£o Paulo | 1 | All Maps | STV","players":null},{"server_id":143,"name":"Uncletopia | S√£o Paulo | 2 | Community","name_short":"sao-2","host":"sao-2.br.uncletopia.com","port":27015,"enabled":true,"region":"sa","cc":"br","latitude":-23.533773,"longitude":-46.62529,"reserved":0,"last_update":"0001-01-01T00:00:00Z","name_a2s":"Uncletopia | S√£o Paulo | 2 | Community","protocol":17,"map":"workshop/cp_reckoner_rc6.ugc674719999","folder":"tf","game":"Team Fortress","app_id":440,"player_count":0,"max_players":24,"Bots":0,"server_type":"Dedicated","server_os":"Linux","password":true,"vac":true,"version":"7961495","steam_id":85568392924485349,"keywords":["cp","nocrits","nodmgspread","uncletopia"],"game_id":440,"stv_port":27016,"stv_name":"Uncletopia | S√£o Paulo | 2 | Community | STV","players":null},{"server_id":7,"name":"Uncletopia | Seattle | 1 | All Maps","name_short":"sea-1","host":"sea-1.us.uncletopia.com","port":27015,"enabled":true,"region":"us-west","cc":"us","latitude":47.608013,"longitude":-122.33517,"reserved":0,"last_update":"0001-01-01T00:00:00Z","name_a2s":"Uncletopia | Seattle | 1 | All Maps","protocol":17,"map":"pl_upward","folder":"tf","game":"Team Fortress","app_id":440,"player_count":24,"max_players":24,"Bots":0,"server_type":"Dedicated","server_os":"Linux","password":true,"vac":true,"version":"7961495","steam_id":85568392924469997,"keywords":["nocrits","nodmgspread","payload","uncletopia"],"game_id":440,"stv_port":27016,"stv_name":"Uncletopia | Seattle | 1 | All Maps | STV","players":[{"user_id":555,"name":"mega","steam_id":76561198089520959,"connected_time":2779000000000,"state":"spawning","ping":132},{"user_id":565,"name":"Donny Q","steam_id":76561198020901703,"connected_time":1662000000000,"state":"spawning","ping":30},{"user_id":572,"name":"mn","steam_id":76561198042357436,"connected_time":926000000000,"state":"spawning","ping":32},{"user_id":534,"name":"NEBULA","steam_id":76561198086878595,"connected_time":3872000000000,"state":"spawning","ping":74},{"user_id":567,"name":"Elfy","steam_id":76561199166448617,"connected_time":1617000000000,"state":"spawning","ping":55},{"user_id":575,"name":"[TrC] Dackstrus","steam_id":76561197973518509,"connected_time":798000000000,"state":"spawning","ping":59},{"user_id":578,"name":"oil","steam_id":76561198099980149,"connected_time":91000000000,"state":"spawning","ping":79},{"user_id":464,"name":"Cheezbeargur","steam_id":76561198164702899,"connected_time":11710000000000,"state":"spawning","ping":74},{"user_id":558,"name":"SHADOW WIZARD MONEY GANG","steam_id":76561198097178599,"connected_time":2767000000000,"state":"spawning","ping":45},{"user_id":579,"name":"ed","steam_id":76561198080475712,"connected_time":83000000000,"state":"spawning","ping":234},{"user_id":577,"name":"[TrC] Nosy","steam_id":76561197978859310,"connected_time":194000000000,"state":"spawning","ping":50},{"user_id":504,"name":"Octopus","steam_id":76561198114639980,"connected_time":7947000000000,"state":"spawning","ping":65},{"user_id":569,"name":"jorts","steam_id":76561199041179985,"connected_time":1582000000000,"state":"spawning","ping":54},{"user_id":571,"name":"resh","steam_id":76561198239598834,"connected_time":1016000000000,"state":"spawning","ping":128},{"user_id":574,"name":"Spread Joy, Not Hate","steam_id":76561198053117503,"connected_time":855000000000,"state":"spawning","ping":65},{"user_id":516,"name":"gorlab","steam_id":76561198025089694,"connected_time":6422000000000,"state":"spawning","ping":45},{"user_id":448,"name":"‚ù§ Ashley ‚ù§","steam_id":76561198056428303,"connected_time":13284000000000,"state":"spawning","ping":67},{"user_id":525,"name":"fungi","steam_id":76561198169755734,"connected_time":6044000000000,"state":"spawning","ping":65},{"user_id":554,"name":"high elo sexworker","steam_id":76561197980280272,"connected_time":2782000000000,"state":"spawning","ping":46},{"user_id":524,"name":"Zee‚úû","steam_id":76561198274550638,"connected_time":6048000000000,"state":"spawning","ping":97},{"user_id":559,"name":"Ayayayayayahuasca","steam_id":76561199002906056,"connected_time":2765000000000,"state":"spawning","ping":42},{"user_id":449,"name":"self sufficient kitten","steam_id":76561197960592612,"connected_time":13277000000000,"state":"spawning","ping":190},{"user_id":530,"name":"Arsonist Goose","steam_id":76561198147441830,"connected_time":5388000000000,"state":"spawning","ping":64},{"user_id":513,"name":"Lord Hater","steam_id":76561199158148782,"connected_time":7106000000000,"state":"spawning","ping":79}]},{"server_id":119,"name":"Uncletopia | Seattle | 2 | All Maps","name_short":"sea-2","host":"sea-1.us.uncletopia.com","port":27025,"enabled":true,"region":"us-west","cc":"us","latitude":47.608013,"longitude":-122.33517,"reserved":0,"last_update":"0001-01-01T00:00:00Z","name_a2s":"Uncletopia | Seattle | 2 | All Maps","protocol":17,"map":"koth_harvest_final","folder":"tf","game":"Team Fortress","app_id":440,"player_count":24,"max_players":24,"Bots":0,"server_type":"Dedicated","server_os":"Linux","password":true,"vac":true,"version":"7961495","steam_id":85568392924469998,"keywords":["cp","nocrits","nodmgspread","uncletopia"],"game_id":440,"stv_port":27026,"stv_name":"Uncletopia | Seattle | 2 | All Maps | STV","players":[{"user_id":514,"name":"jeffus","steam_id":76561199347238848,"connected_time":382000000000,"state":"active","ping":41},{"user_id":393,"name":"Gm_Trash","steam_id":76561199445091548,"connected_time":10529000000000,"state":"active","ping":59},{"user_id":477,"name":"gugcat","steam_id":76561198129822860,"connected_time":932000000000,"state":"active","ping":45},{"user_id":435,"name":"Tripll-L","steam_id":76561197998077437,"connected_time":5541000000000,"state":"active","ping":49},{"user_id":444,"name":"Finkly","steam_id":76561198049828110,"connected_time":4770000000000,"state":"active","ping":42},{"user_id":466,"name":"Zero 007","steam_id":76561198027776317,"connected_time":1886000000000,"state":"active","ping":138},{"user_id":378,"name":"slushy :))","steam_id":76561198135281802,"connected_time":11793000000000,"state":"active","ping":30},{"user_id":470,"name":"Strikerbolt","steam_id":76561199095622897,"connected_time":1359000000000,"state":"active","ping":77},{"user_id":471,"name":"Patio","steam_id":76561197986082608,"connected_time":1257000000000,"state":"active","ping":45},{"user_id":508,"name":"SnoDot","steam_id":76561198062209970,"connected_time":483000000000,"state":"active","ping":36},{"user_id":433,"name":"T√ºCold","steam_id":76561198111278197,"connected_time":5840000000000,"state":"active","ping":58},{"user_id":416,"name":"cat woman yuri","steam_id":76561198004916219,"connected_time":7297000000000,"state":"active","ping":72},{"user_id":462,"name":"ma≈Çiƒô","steam_id":76561198337705174,"connected_time":2521000000000,"state":"active","ping":74},{"user_id":421,"name":"Lili Winters","steam_id":76561199391478575,"connected_time":6457000000000,"state":"active","ping":46},{"user_id":458,"name":"old woman yuri","steam_id":76561198111844236,"connected_time":2745000000000,"state":"active","ping":125},{"user_id":472,"name":"[Bandit]","steam_id":76561197986919852,"connected_time":1221000000000,"state":"active","ping":45},{"user_id":441,"name":"Melly","steam_id":76561198045867175,"connected_time":5056000000000,"state":"active","ping":75},{"user_id":436,"name":"mub","steam_id":76561197961943948,"connected_time":5395000000000,"state":"active","ping":46},{"user_id":464,"name":"Kris-The Moss Eater","steam_id":76561198060061139,"connected_time":2391000000000,"state":"active","ping":60},{"user_id":454,"name":"death snail","steam_id":76561198093053238,"connected_time":3202000000000,"state":"active","ping":34},{"user_id":467,"name":"rocks","steam_id":76561198058619465,"connected_time":1730000000000,"state":"active","ping":38},{"user_id":474,"name":"Keamy","steam_id":76561199471434875,"connected_time":1188000000000,"state":"active","ping":40},{"user_id":479,"name":"sex haver","steam_id":76561198256575672,"connected_time":878000000000,"state":"active","ping":49},{"user_id":451,"name":"rushy :))","steam_id":76561198065825165,"connected_time":3660000000000,"state":"active","ping":131}]},{"server_id":406,"name":"Uncletopia | Seattle | 3 | Stopwatch","name_short":"sea-3","host":"sea-1.us.uncletopia.com","port":27035,"enabled":true,"region":"us-west","cc":"us","latitude":47.608013,"longitude":-122.33517,"reserved":0,"last_update":"0001-01-01T00:00:00Z","name_a2s":"Uncletopia | Seattle | 3 | Stopwatch","protocol":17,"map":"koth_lakeside_final","folder":"tf","game":"Team Fortress","app_id":440,"player_count":0,"max_players":24,"Bots":0,"server_type":"Dedicated","server_os":"Linux","password":true,"vac":true,"version":"7961495","steam_id":85568392924515217,"keywords":["cp","nocrits","nodmgspread","uncletopia"],"game_id":440,"stv_port":27036,"stv_name":"Uncletopia | Seattle | 3 | Stopwatch | STV","players":null},{"server_id":17,"name":"Uncletopia | San Francisco | 1 | All Maps","name_short":"sfo-1","host":"sfo-1.us.uncletopia.com","port":27015,"enabled":true,"region":"us-west","cc":"us","latitude":37.77397,"longitude":-122.4313,"reserved":0,"last_update":"0001-01-01T00:00:00Z","name_a2s":"Uncletopia | San Francisco | 1 | All Maps","protocol":17,"map":"pl_badwater","folder":"tf","game":"Team Fortress","app_id":440,"player_count":24,"max_players":24,"Bots":0,"server_type":"Dedicated","server_os":"Linux","password":true,"vac":true,"version":"7961495","steam_id":85568392924469999,"keywords":["nocrits","nodmgspread","payload","uncletopia"],"game_id":440,"stv_port":27016,"stv_name":"Uncletopia | San Francisco | 1 | All Maps | STV","players":[{"user_id":313,"name":"toxic mental instability","steam_id":76561198161760556,"connected_time":1588000000000,"state":"active","ping":76},{"user_id":320,"name":"IonicMist","steam_id":76561198047105563,"connected_time":557000000000,"state":"active","ping":77},{"user_id":209,"name":"eBay","steam_id":76561198061214569,"connected_time":9933000000000,"state":"active","ping":85},{"user_id":305,"name":"Norville \"Shaggy\" Rogers","steam_id":76561198309272858,"connected_time":2552000000000,"state":"active","ping":87},{"user_id":321,"name":"Moonman327","steam_id":76561197992616059,"connected_time":525000000000,"state":"active","ping":104},{"user_id":258,"name":"worker","steam_id":76561198039608940,"connected_time":6785000000000,"state":"active","ping":90},{"user_id":277,"name":"lker","steam_id":76561197976975075,"connected_time":5066000000000,"state":"active","ping":95},{"user_id":315,"name":"OzzyAkiro47","steam_id":76561199076449499,"connected_time":1201000000000,"state":"active","ping":66},{"user_id":322,"name":"Jezzus","steam_id":76561199289676387,"connected_time":524000000000,"state":"active","ping":102},{"user_id":300,"name":"‚òÖSuperBurgerBoy‚òÖ","steam_id":76561198856387197,"connected_time":3077000000000,"state":"active","ping":59},{"user_id":318,"name":"card carrying member","steam_id":76561198043558709,"connected_time":606000000000,"state":"active","ping":61},{"user_id":312,"name":"Higuma","steam_id":76561198375229012,"connected_time":1964000000000,"state":"active","ping":61},{"user_id":272,"name":"El Gato Paranoico","steam_id":76561198116567116,"connected_time":5590000000000,"state":"active","ping":104},{"user_id":279,"name":"Mr defrost","steam_id":76561198322125657,"connected_time":4943000000000,"state":"active","ping":85},{"user_id":316,"name":"Scrampled Aigs","steam_id":76561198014526583,"connected_time":1180000000000,"state":"active","ping":104},{"user_id":303,"name":"shitass (Reaping and Sowing)","steam_id":76561198210572481,"connected_time":2782000000000,"state":"active","ping":51},{"user_id":317,"name":"Randle of John","steam_id":76561198328210524,"connected_time":1079000000000,"state":"active","ping":60},{"user_id":327,"name":"shreklover69","steam_id":76561198054070811,"connected_time":282000000000,"state":"active","ping":58},{"user_id":323,"name":"......","steam_id":76561198067612741,"connected_time":514000000000,"state":"active","ping":65},{"user_id":310,"name":"pills here","steam_id":76561198080790447,"connected_time":2285000000000,"state":"active","ping":55},{"user_id":326,"name":"iggybones (girl with balls)","steam_id":76561198101610291,"connected_time":449000000000,"state":"active","ping":66},{"user_id":304,"name":"doro","steam_id":76561198099041747,"connected_time":2627000000000,"state":"active","ping":60},{"user_id":224,"name":"Poofy Doofy","steam_id":76561198448224519,"connected_time":8909000000000,"state":"active","ping":103},{"user_id":325,"name":"BlueberryScones","steam_id":76561199423641132,"connected_time":488000000000,"state":"active","ping":70}]},{"server_id":18,"name":"Uncletopia | San Francisco | 2 | All Maps","name_short":"sfo-2","host":"sfo-1.us.uncletopia.com","port":27025,"enabled":true,"region":"us-west","cc":"us","latitude":37.77397,"longitude":-122.4313,"reserved":0,"last_update":"0001-01-01T00:00:00Z","name_a2s":"Uncletopia | San Francisco | 2 | All Maps","protocol":17,"map":"pl_badwater","folder":"tf","game":"Team Fortress","app_id":440,"player_count":24,"max_players":24,"Bots":0,"server_type":"Dedicated","server_os":"Linux","password":true,"vac":true,"version":"7961495","steam_id":85568392924470000,"keywords":["nocrits","nodmgspread","payload","uncletopia"],"game_id":440,"stv_port":27026,"stv_name":"Uncletopia | San Francisco | 2 | All Maps | STV","players":[{"user_id":318,"name":"itz_yoboi_tree","steam_id":76561199016657010,"connected_time":5484000000000,"state":"active","ping":77},{"user_id":261,"name":"Hitomi's Tanakas","steam_id":76561198165364766,"connected_time":9633000000000,"state":"active","ping":91},{"user_id":362,"name":"Chills","steam_id":76561198086144555,"connected_time":1814000000000,"state":"active","ping":73},{"user_id":375,"name":"Rommel2007","steam_id":76561198041744631,"connected_time":918000000000,"state":"active","ping":60},{"user_id":364,"name":"El pipe","steam_id":76561198008053387,"connected_time":1751000000000,"state":"active","ping":79},{"user_id":377,"name":"I.AM.THE.DOCTOR","steam_id":76561198040178538,"connected_time":311000000000,"state":"active","ping":67},{"user_id":378,"name":"knatspray","steam_id":76561198832507482,"connected_time":252000000000,"state":"active","ping":84},{"user_id":260,"name":"Minty","steam_id":76561198045890570,"connected_time":9659000000000,"state":"active","ping":93},{"user_id":296,"name":"cool beans","steam_id":76561198045758072,"connected_time":7556000000000,"state":"active","ping":46},{"user_id":339,"name":"bluetacos","steam_id":76561198880622349,"connected_time":3839000000000,"state":"active","ping":69},{"user_id":353,"name":"Happy Chaos","steam_id":76561198194248527,"connected_time":1937000000000,"state":"active","ping":61},{"user_id":354,"name":"run fast fall dopwn","steam_id":76561198048925904,"connected_time":1890000000000,"state":"active","ping":74},{"user_id":360,"name":"Hello Citizen","steam_id":76561198055522364,"connected_time":1832000000000,"state":"active","ping":65},{"user_id":361,"name":"Dr. Bob","steam_id":76561198020215410,"connected_time":1829000000000,"state":"active","ping":50},{"user_id":379,"name":"Pop_Tarts","steam_id":76561199037187808,"connected_time":240000000000,"state":"active","ping":93},{"user_id":359,"name":"Sleepy Bunny","steam_id":76561198069870490,"connected_time":1839000000000,"state":"active","ping":65},{"user_id":366,"name":"VanWic","steam_id":76561198094537538,"connected_time":1703000000000,"state":"active","ping":57},{"user_id":273,"name":"CatLike Pigeon","steam_id":76561198171716030,"connected_time":9514000000000,"state":"active","ping":85},{"user_id":374,"name":"Many Bees' Chilling","steam_id":76561198079641282,"connected_time":992000000000,"state":"active","ping":78},{"user_id":344,"name":"Ralph Kramden (Slim Charles)","steam_id":76561197981687895,"connected_time":3446000000000,"state":"active","ping":68},{"user_id":376,"name":"UÃÅntermensch","steam_id":76561198149634242,"connected_time":318000000000,"state":"active","ping":86},{"user_id":380,"name":"KrylonHeretic","steam_id":76561198139811459,"connected_time":189000000000,"state":"active","ping":71},{"user_id":347,"name":"thebeast","steam_id":76561198255963049,"connected_time":2884000000000,"state":"active","ping":82},{"user_id":371,"name":"yaoipilled","steam_id":76561198055486814,"connected_time":1557000000000,"state":"active","ping":74}]},{"server_id":19,"name":"Uncletopia | San Francisco | 3 | Stopwatch","name_short":"sfo-3","host":"sfo-1.us.uncletopia.com","port":27035,"enabled":true,"region":"us-west","cc":"us","latitude":37.77397,"longitude":-122.4313,"reserved":0,"last_update":"0001-01-01T00:00:00Z","name_a2s":"Uncletopia | San Francisco | 3 | Stopwatch","protocol":17,"map":"koth_lakeside_final","folder":"tf","game":"Team Fortress","app_id":440,"player_count":4,"max_players":24,"Bots":0,"server_type":"Dedicated","server_os":"Linux","password":true,"vac":true,"version":"7961495","steam_id":85568392924742824,"keywords":["cp","nocrits","nodmgspread","uncletopia"],"game_id":440,"stv_port":27036,"stv_name":"Uncletopia | San Francisco | 3 | Stopwatch | STV","players":[{"user_id":13,"name":"50,372 european wheat farmers","steam_id":76561198297326065,"connected_time":1480000000000,"state":"active","ping":47},{"user_id":19,"name":"Arbiter","steam_id":76561198079723399,"connected_time":1095000000000,"state":"active","ping":67},{"user_id":18,"name":"Carpalini","steam_id":76561198419296396,"connected_time":1263000000000,"state":"active","ping":72},{"user_id":16,"name":"LloydingTime","steam_id":76561198831731176,"connected_time":1337000000000,"state":"active","ping":70}]},{"server_id":20,"name":"Uncletopia | San Francisco | 4 | Community","name_short":"sfo-4","host":"sfo-1.us.uncletopia.com","port":27045,"enabled":true,"region":"us-west","cc":"us","latitude":37.77397,"longitude":-122.4313,"reserved":0,"last_update":"0001-01-01T00:00:00Z","name_a2s":"Uncletopia | San Francisco | 4 | Community","protocol":17,"map":"workshop/koth_slaughter_rc1.ugc1712845210","folder":"tf","game":"Team Fortress","app_id":440,"player_count":0,"max_players":24,"Bots":0,"server_type":"Dedicated","server_os":"Linux","password":true,"vac":true,"version":"7961495","steam_id":85568392924742826,"keywords":["cp","nocrits","nodmgspread","uncletopia"],"game_id":440,"stv_port":27046,"stv_name":"Uncletopia | San Francisco | 4 | Community | STV","players":null},{"server_id":141,"name":"Uncletopia | Sydney | 1 | All Maps","name_short":"syd-1","host":"syd-1.au.uncletopia.com","port":27015,"enabled":true,"region":"au","cc":"au","latitude":-33.865143,"longitude":151.2099,"reserved":0,"last_update":"0001-01-01T00:00:00Z","name_a2s":"Uncletopia | Sydney | 1 | All Maps","protocol":17,"map":"pl_frontier_final","folder":"tf","game":"Team Fortress","app_id":440,"player_count":25,"max_players":24,"Bots":0,"server_type":"Dedicated","server_os":"Linux","password":true,"vac":true,"version":"7961495","steam_id":85568392924470001,"keywords":["nocrits","nodmgspread","payload","uncletopia"],"game_id":440,"stv_port":27016,"stv_name":"Uncletopia | Sydney | 1 | All Maps | STV","players":[{"user_id":116,"name":"Deadly guy","steam_id":76561199001145026,"connected_time":1291000000000,"state":"active","ping":53},{"user_id":79,"name":"Aquila","steam_id":76561198042520637,"connected_time":4165000000000,"state":"active","ping":44},{"user_id":114,"name":"hired goon","steam_id":76561198048064049,"connected_time":1895000000000,"state":"active","ping":79},{"user_id":48,"name":"Â¢≥È†≠ÂêÉËëóÁâÜÈ†≠Ëçâ","steam_id":76561199169553351,"connected_time":5822000000000,"state":"active","ping":177},{"user_id":49,"name":"Lord Head ass","steam_id":76561199018321560,"connected_time":5822000000000,"state":"active","ping":98},{"user_id":84,"name":"swag messiah","steam_id":76561198380839792,"connected_time":4063000000000,"state":"active","ping":45},{"user_id":53,"name":"Don't.","steam_id":76561198069626429,"connected_time":5543000000000,"state":"active","ping":90},{"user_id":54,"name":"True God","steam_id":76561198047632259,"connected_time":5527000000000,"state":"active","ping":73},{"user_id":117,"name":"Coffee","steam_id":76561198008865459,"connected_time":858000000000,"state":"active","ping":65},{"user_id":68,"name":"Marzell","steam_id":76561198151276153,"connected_time":5233000000000,"state":"active","ping":93},{"user_id":111,"name":"LeoJoeD","steam_id":76561198161848749,"connected_time":1930000000000,"state":"active","ping":44},{"user_id":77,"name":"Devious Scoundrel","steam_id":76561198055404248,"connected_time":4722000000000,"state":"active","ping":55},{"user_id":102,"name":"Chooka","steam_id":76561197992307814,"connected_time":3317000000000,"state":"active","ping":74},{"user_id":118,"name":"sabeuo","steam_id":76561198288259746,"connected_time":857000000000,"state":"active","ping":54},{"user_id":108,"name":"Warren","steam_id":76561198120350917,"connected_time":2024000000000,"state":"active","ping":40},{"user_id":109,"name":"Ben is mightier than the sword","steam_id":76561198301282416,"connected_time":1939000000000,"state":"active","ping":52},{"user_id":115,"name":"Medieval Cucumber Sorcerer","steam_id":76561198972095766,"connected_time":1894000000000,"state":"active","ping":38},{"user_id":104,"name":"funGus","steam_id":76561198799796200,"connected_time":2947000000000,"state":"active","ping":65},{"user_id":120,"name":"Cabanela","steam_id":76561198305342025,"connected_time":92000000000,"state":"spawning","ping":52},{"user_id":71,"name":"Serceina","steam_id":76561197993240474,"connected_time":4992000000000,"state":"active","ping":52},{"user_id":110,"name":"Citizen Dan","steam_id":76561197970496955,"connected_time":1935000000000,"state":"active","ping":72},{"user_id":101,"name":"mini john.feels","steam_id":76561198075745774,"connected_time":3353000000000,"state":"active","ping":52},{"user_id":112,"name":"Rashid Of The Dank Memes","steam_id":76561198281398078,"connected_time":1926000000000,"state":"active","ping":68},{"user_id":113,"name":"OllyDaGreat","steam_id":76561198420634375,"connected_time":1926000000000,"state":"active","ping":68},{"user_id":90,"name":"soupy","steam_id":76561198073734936,"connected_time":3952000000000,"state":"active","ping":90}]},{"server_id":123,"name":"Uncletopia | Sydney | 2 | All Maps","name_short":"syd-2","host":"syd-1.au.uncletopia.com","port":27025,"enabled":true,"region":"au","cc":"au","latitude":-33.865143,"longitude":151.2099,"reserved":0,"last_update":"0001-01-01T00:00:00Z","name_a2s":"Uncletopia | Sydney | 2 | All Maps","protocol":17,"map":"pl_borneo","folder":"tf","game":"Team Fortress","app_id":440,"player_count":17,"max_players":24,"Bots":0,"server_type":"Dedicated","server_os":"Linux","password":true,"vac":true,"version":"7961495","steam_id":85568392924470002,"keywords":["nocrits","nodmgspread","payload","uncletopia"],"game_id":440,"stv_port":27026,"stv_name":"Uncletopia | Sydney | 2 | All Maps | STV","players":[{"user_id":9,"name":"Giant Rat","steam_id":76561198110170714,"connected_time":3938000000000,"state":"active","ping":66},{"user_id":12,"name":"militarywombat","steam_id":76561198798651633,"connected_time":3084000000000,"state":"active","ping":76},{"user_id":50,"name":"durcy","steam_id":76561198049037327,"connected_time":52000000000,"state":"active","ping":102},{"user_id":36,"name":"Nero","steam_id":76561198449565973,"connected_time":1163000000000,"state":"active","ping":320},{"user_id":30,"name":"Master LitFam","steam_id":76561199056106183,"connected_time":1627000000000,"state":"active","ping":63},{"user_id":27,"name":"quite","steam_id":76561199085719869,"connected_time":1927000000000,"state":"active","ping":69},{"user_id":25,"name":"dizzy","steam_id":76561198102953163,"connected_time":2056000000000,"state":"active","ping":60},{"user_id":48,"name":"Sinister80s","steam_id":76561198343540472,"connected_time":449000000000,"state":"active","ping":63},{"user_id":49,"name":"HeaT","steam_id":76561198089227368,"connected_time":348000000000,"state":"active","ping":249},{"user_id":32,"name":"Dave","steam_id":76561197994203216,"connected_time":1359000000000,"state":"active","ping":57},{"user_id":40,"name":"mywither","steam_id":76561199057425346,"connected_time":1087000000000,"state":"active","ping":181},{"user_id":42,"name":"Sover blw.tf","steam_id":76561198136347837,"connected_time":1024000000000,"state":"active","ping":134},{"user_id":45,"name":"SaltierThanYou","steam_id":76561198444395188,"connected_time":771000000000,"state":"active","ping":77},{"user_id":46,"name":"UrAvgDMG","steam_id":76561199214859141,"connected_time":685000000000,"state":"active","ping":130},{"user_id":47,"name":"Trotter","steam_id":76561198343965263,"connected_time":641000000000,"state":"active","ping":44},{"user_id":51,"name":"stamm","steam_id":76561198041993019,"connected_time":33000000000,"state":"active","ping":61},{"user_id":52,"name":"foot","steam_id":76561199400676469,"connected_time":30000000000,"state":"spawning","ping":85}]},{"server_id":395,"name":"Uncletopia | Sydney | 3 | All Maps","name_short":"syd-3","host":"syd-1.au.uncletopia.com","port":27035,"enabled":true,"region":"au","cc":"au","latitude":-33.865143,"longitude":151.2099,"reserved":0,"last_update":"0001-01-01T00:00:00Z","name_a2s":"Uncletopia | Sydney | 3 | All Maps","protocol":17,"map":"cp_gullywash_final1","folder":"tf","game":"Team Fortress","app_id":440,"player_count":0,"max_players":24,"Bots":0,"server_type":"Dedicated","server_os":"Linux","password":true,"vac":true,"version":"7961495","steam_id":85568392925194467,"keywords":["cp","nocrits","nodmgspread","uncletopia"],"game_id":440,"stv_port":27036,"stv_name":"Uncletopia | Sydney | 3 | All Maps | STV","players":null},{"server_id":396,"name":"Uncletopia | Sydney | 4 | All Maps","name_short":"syd-4","host":"syd-1.au.uncletopia.com","port":27045,"enabled":true,"region":"au","cc":"au","latitude":-33.865143,"longitude":151.2099,"reserved":0,"last_update":"0001-01-01T00:00:00Z","name_a2s":"Uncletopia | Sydney | 4 | All Maps","protocol":17,"map":"cp_process_final","folder":"tf","game":"Team Fortress","app_id":440,"player_count":0,"max_players":24,"Bots":0,"server_type":"Dedicated","server_os":"Linux","password":true,"vac":true,"version":"7961495","steam_id":85568392925397958,"keywords":["cp","nocrits","nodmgspread","uncletopia"],"game_id":440,"stv_port":27046,"stv_name":"Uncletopia | Sydney | 4 | All Maps | STV","players":null},{"server_id":58,"name":"Uncletopia | Sydney | 5 | Stopwatch","name_short":"syd-5","host":"syd-1.au.uncletopia.com","port":27055,"enabled":true,"region":"au","cc":"au","latitude":-33.865143,"longitude":151.2099,"reserved":0,"last_update":"0001-01-01T00:00:00Z","name_a2s":"Uncletopia | Sydney | 5 | Stopwatch","protocol":17,"map":"workshop/koth_clearcut_b15.ugc2107050255","folder":"tf","game":"Team Fortress","app_id":440,"player_count":0,"max_players":24,"Bots":0,"server_type":"Dedicated","server_os":"Linux","password":true,"vac":true,"version":"7961495","steam_id":85568392925397959,"keywords":["cp","nocrits","nodmgspread","uncletopia"],"game_id":440,"stv_port":27056,"stv_name":"Uncletopia | Sydney | 5 | Stopwatch | STV","players":null},{"server_id":59,"name":"Uncletopia | Sydney | 6 | Community","name_short":"syd-6","host":"syd-1.au.uncletopia.com","port":27065,"enabled":true,"region":"au","cc":"au","latitude":-33.865143,"longitude":151.2099,"reserved":0,"last_update":"0001-01-01T00:00:00Z","name_a2s":"Uncletopia | Sydney | 6 | Community","protocol":17,"map":"workshop/koth_kemptown_rc1.ugc767410655","folder":"tf","game":"Team Fortress","app_id":440,"player_count":5,"max_players":24,"Bots":0,"server_type":"Dedicated","server_os":"Linux","password":true,"vac":true,"version":"7961495","steam_id":85568392925397960,"keywords":["cp","nocrits","nodmgspread","uncletopia"],"game_id":440,"stv_port":27066,"stv_name":"Uncletopia | Sydney | 6 | Community | STV","players":[{"user_id":4,"name":"Shienn__","steam_id":76561199174019837,"connected_time":2958000000000,"state":"active","ping":151},{"user_id":5,"name":"inverse_pie","steam_id":76561199135459870,"connected_time":2882000000000,"state":"active","ping":180},{"user_id":6,"name":"YonGG_","steam_id":76561198976488488,"connected_time":2859000000000,"state":"active","ping":177},{"user_id":7,"name":"SirDan711","steam_id":76561198057703301,"connected_time":781000000000,"state":"active","ping":58},{"user_id":8,"name":"crazynoob458","steam_id":76561198979471765,"connected_time":411000000000,"state":"active","ping":42}]},{"server_id":49,"name":"Uncletopia | Warsaw | 1 | All Maps","name_short":"waw-1","host":"waw-1.pl.uncletopia.com","port":27015,"enabled":true,"region":"eu","cc":"pl","latitude":52.2297,"longitude":21.017532,"reserved":0,"last_update":"0001-01-01T00:00:00Z","name_a2s":"Uncletopia | Warsaw | 1 | All Maps","protocol":17,"map":"koth_lakeside_final","folder":"tf","game":"Team Fortress","app_id":440,"player_count":0,"max_players":24,"Bots":0,"server_type":"Dedicated","server_os":"Linux","password":true,"vac":true,"version":"7961495","steam_id":85568392925397850,"keywords":["cp","nocrits","nodmgspread","uncletopia"],"game_id":440,"stv_port":27016,"stv_name":"Uncletopia | Warsaw | 1 | All Maps | STV","players":null},{"server_id":50,"name":"Uncletopia | Warsaw | 2 | All Maps","name_short":"waw-2","host":"waw-1.pl.uncletopia.com","port":27025,"enabled":true,"region":"eu","cc":"pl","latitude":52.2297,"longitude":21.017532,"reserved":0,"last_update":"0001-01-01T00:00:00Z","name_a2s":"Uncletopia | Warsaw | 2 | All Maps","protocol":17,"map":"pl_borneo","folder":"tf","game":"Team Fortress","app_id":440,"player_count":0,"max_players":24,"Bots":0,"server_type":"Dedicated","server_os":"Linux","password":true,"vac":true,"version":"7961495","steam_id":85568392925397851,"keywords":["nocrits","nodmgspread","payload","uncletopia"],"game_id":440,"stv_port":27026,"stv_name":"Uncletopia | Warsaw | 2 | All Maps | STV","players":null},{"server_id":51,"name":"Uncletopia | Warsaw | 3 | All Maps","name_short":"waw-3","host":"waw-1.pl.uncletopia.com","port":27035,"enabled":true,"region":"eu","cc":"pl","latitude":52.2297,"longitude":21.017532,"reserved":0,"last_update":"0001-01-01T00:00:00Z","name_a2s":"Uncletopia | Warsaw | 3 | All Maps","protocol":17,"map":"pl_barnblitz","folder":"tf","game":"Team Fortress","app_id":440,"player_count":0,"max_players":24,"Bots":0,"server_type":"Dedicated","server_os":"Linux","password":true,"vac":true,"version":"7961495","steam_id":85568392925397852,"keywords":["nocrits","nodmgspread","payload","uncletopia"],"game_id":440,"stv_port":27036,"stv_name":"Uncletopia | Warsaw | 3 | All Maps | STV","players":null},{"server_id":52,"name":"Uncletopia | Warsaw | 4 | All Maps","name_short":"waw-4","host":"waw-1.pl.uncletopia.com","port":27045,"enabled":true,"region":"eu","cc":"pl","latitude":52.2297,"longitude":21.017532,"reserved":0,"last_update":"0001-01-01T00:00:00Z","name_a2s":"Uncletopia | Warsaw | 4 | All Maps","protocol":17,"map":"pl_borneo","folder":"tf","game":"Team Fortress","app_id":440,"player_count":0,"max_players":24,"Bots":0,"server_type":"Dedicated","server_os":"Linux","password":true,"vac":true,"version":"7961495","steam_id":85568392925397853,"keywords":["nocrits","nodmgspread","payload","uncletopia"],"game_id":440,"stv_port":27046,"stv_name":"Uncletopia | Warsaw | 4 | All Maps | STV","players":null},{"server_id":53,"name":"Uncletopia | Warsaw | 5 | Stopwatch","name_short":"waw-5","host":"waw-1.pl.uncletopia.com","port":27055,"enabled":true,"region":"eu","cc":"pl","latitude":52.2297,"longitude":21.017532,"reserved":0,"last_update":"0001-01-01T00:00:00Z","name_a2s":"Uncletopia | Warsaw | 5 | Stopwatch","protocol":17,"map":"pl_barnblitz","folder":"tf","game":"Team Fortress","app_id":440,"player_count":0,"max_players":24,"Bots":0,"server_type":"Dedicated","server_os":"Linux","password":true,"vac":true,"version":"7961495","steam_id":85568392925397854,"keywords":["nocrits","nodmgspread","payload","uncletopia"],"game_id":440,"stv_port":27056,"stv_name":"Uncletopia | Warsaw | 5 | Stopwatch | STV","players":null},{"server_id":54,"name":"Uncletopia | Warsaw | 6 | Community","name_short":"waw-6","host":"waw-1.pl.uncletopia.com","port":27065,"enabled":true,"region":"eu","cc":"pl","latitude":52.2297,"longitude":21.017532,"reserved":0,"last_update":"0001-01-01T00:00:00Z","name_a2s":"Uncletopia | Warsaw | 6 | Community","protocol":17,"map":"cp_altitude","folder":"tf","game":"Team Fortress","app_id":440,"player_count":0,"max_players":24,"Bots":0,"server_type":"Dedicated","server_os":"Linux","password":true,"vac":true,"version":"7961495","steam_id":85568392925397856,"keywords":["cp","nocrits","nodmgspread","uncletopia"],"game_id":440,"stv_port":27066,"stv_name":"Uncletopia | Warsaw | 6 | Community | STV","players":null}]}