{"status":true,"message":"","result":[{"server_id":9,"name":"Uncletopia | Atlanta | 1 | All Maps","name_short":"atl-1","host":"atl-1.us.uncletopia.com","port":27015,"enabled":true,"region":"us-east","cc":"us","latitude":33.753746,"longitude":-84.38633,"reserved":0,"last_update":"0001-01-01T00:00:00Z","name_a2s":"Uncletopia | Atlanta | 1 | All Maps","protocol":17,"map":"koth_harvest_final","folder":"tf","game":"Team Fortress","app_id":440,"player_count":24,"max_players":24,"Bots":0,"server_type":"Dedicated","server_os":"Linux","password":true,"vac":true,"version":"7742253","steam_id":85568392924469982,"keywords":["cp","nocrits","nodmgspread","uncletopia"],"game_id":440,"stv_port":27016,"stv_name":"Uncletopia | Atlanta | 1 | All Maps | STV","players":[{"user_id":521,"name":"Jin","steam_id":76561198119873148,"connected_time":665000000000,"state":"active","ping":75},{"user_id":346,"name":"Mad Cow‚Äª","steam_id":76561198132498594,"connected_time":14535000000000,"state":"active","ping":65},{"user_id":510,"name":"sircat","steam_id":76561198255825452,"connected_time":1275000000000,"state":"active","ping":74},{"user_id":288,"name":"800,000 rabid monkeys in Ohio","steam_id":76561198130772096,"connected_time":20087000000000,"state":"active","ping":69},{"user_id":511,"name":"pepsibobby","steam_id":76561198853864511,"connected_time":1271000000000,"state":"active","ping":67},{"user_id":482,"name":"Daniel","steam_id":76561199086060699,"connected_time":3089000000000,"state":"active","ping":41},{"user_id":472,"name":"Inky (Coolest)","steam_id":76561198968337022,"connected_time":4427000000000,"state":"active","ping":58},{"user_id":480,"name":"indi","steam_id":76561198045917538,"connected_time":3122000000000,"state":"active","ping":72},{"user_id":508,"name":"legalizme223","steam_id":76561198051698391,"connected_time":1398000000000,"state":"active","ping":84},{"user_id":528,"name":"ATL1 | to4st","steam_id":76561198981009008,"connected_time":201000000000,"state":"active","ping":73},{"user_id":527,"name":"Mike Ehrmantraut","steam_id":76561198082446459,"connected_time":224000000000,"state":"active","ping":68},{"user_id":515,"name":"the \"prawn\" bay","steam_id":76561198075544930,"connected_time":1148000000000,"state":"active","ping":106},{"user_id":512,"name":"Snoball","steam_id":76561198205838372,"connected_time":1265000000000,"state":"active","ping":52},{"user_id":520,"name":"chexo4","steam_id":76561198150532531,"connected_time":666000000000,"state":"active","ping":54},{"user_id":513,"name":"Timmy","steam_id":76561198971354161,"connected_time":1256000000000,"state":"active","ping":52},{"user_id":525,"name":"dirty dank","steam_id":76561198360904432,"connected_time":473000000000,"state":"active","ping":61},{"user_id":445,"name":"mge me you coward","steam_id":76561198337692867,"connected_time":6706000000000,"state":"active","ping":88},{"user_id":514,"name":"MOGGGGG","steam_id":76561199108860327,"connected_time":1240000000000,"state":"active","ping":75},{"user_id":489,"name":"Regi","steam_id":76561198271508598,"connected_time":2914000000000,"state":"active","ping":81},{"user_id":524,"name":"hi","steam_id":76561199441787165,"connected_time":544000000000,"state":"active","ping":86},{"user_id":518,"name":"PanPanPan111","steam_id":76561198197070906,"connected_time":1020000000000,"state":"active","ping":84},{"user_id":522,"name":"yomokha lft","steam_id":76561198063175935,"connected_time":610000000000,"state":"active","ping":61},{"user_id":501,"name":"Scott","steam_id":76561198090949228,"connected_time":2514000000000,"state":"active","ping":73},{"user_id":372,"name":"ShiYor","steam_id":76561199117260032,"connected_time":13513000000000,"state":"active","ping":122}]},{"server_id":400,"name":"Uncletopia | Atlanta | 3 | Stopwatch Beta","name_short":"atl-3","host":"atl-1.us.uncletopia.com","port":27035,"enabled":true,"region":"us-east","cc":"us","latitude":33.753746,"longitude":-84.38633,"reserved":0,"last_update":"0001-01-01T00:00:00Z","name_a2s":"Uncletopia | Atlanta | 3 | Stopwatch Beta","protocol":17,"map":"pl_upward","folder":"tf","game":"Team Fortress","app_id":440,"player_count":0,"max_players":24,"Bots":0,"server_type":"Dedicated","server_os":"Linux","password":true,"vac":true,"version":"7742253","steam_id":85568392924515187,"keywords":["nocrits","nodmgspread","payload","uncletopia"],"game_id":440,"stv_port":27036,"stv_name":"Uncletopia | Atlanta | 3 | Stopwatch Beta | STV","players":null},{"server_id":401,"name":"Uncletopia | Atlanta | 4 | No Payload","name_short":"atl-4","host":"atl-1.us.uncletopia.com","port":27045,"enabled":true,"region":"us-east","cc":"us","latitude":33.753746,"longitude":-84.38633,"reserved":0,"last_update":"0001-01-01T00:00:00Z","name_a2s":"Uncletopia | Atlanta | 4 | No Payload","protocol":17,"map":"pl_pier","folder":"tf","game":"Team Fortress","app_id":440,"player_count":0,"max_players":24,"Bots":0,"server_type":"Dedicated","server_os":"Linux","password":true,"vac":true,"version":"7723704","steam_id":85568392924515188,"keywords":["nocrits","nodmgspread","payload","uncletopia"],"game_id":440,"stv_port":27046,"stv_name":"Uncletopia | Atlanta | 4 | No Payload | STV","players":null},{"server_id":2,"name":"Uncletopia | Chicago | 1 | All Maps","name_short":"chi-1","host":"chi-1.us.uncletopia.com","port":27015,"enabled":true,"region":"us-central","cc":"us","latitude":41.881832,"longitude":-87.62318,"reserved":0,"last_update":"0001-01-01T00:00:00Z","name_a2s":"Uncletopia | Chicago | 1 | All Maps","protocol":17,"map":"pl_upward","folder":"tf","game":"Team Fortress","app_id":440,"player_count":24,"max_players":24,"Bots":0,"server_type":"Dedicated","server_os":"Linux","password":true,"vac":true,"version":"7742253","steam_id":85568392924469984,"keywords":["nocrits","nodmgspread","payload","uncletopia"],"game_id":440,"stv_port":27016,"stv_name":"Uncletopia | Chicago | 1 | All Maps | STV","players":[{"user_id":364,"name":"hedahman","steam_id":76561198052398134,"connected_time":441000000000,"state":"active","ping":86},{"user_id":370,"name":"smart smella","steam_id":76561198157983180,"connected_time":220000000000,"state":"active","ping":62},{"user_id":365,"name":"[TSG] Fine Arabica Beans","steam_id":76561198049775637,"connected_time":408000000000,"state":"active","ping":63},{"user_id":373,"name":"DuckKey","steam_id":76561198904477889,"connected_time":150000000000,"state":"active","ping":58},{"user_id":351,"name":"Bee_Pirate","steam_id":76561199000599111,"connected_time":895000000000,"state":"active","ping":73},{"user_id":367,"name":"orangj","steam_id":76561198026604607,"connected_time":404000000000,"state":"active","ping":58},{"user_id":371,"name":"golia","steam_id":76561198000264266,"connected_time":201000000000,"state":"active","ping":111},{"user_id":342,"name":"Lawrence Pemberton","steam_id":76561198180863090,"connected_time":1419000000000,"state":"active","ping":76},{"user_id":361,"name":"kebo","steam_id":76561198237159430,"connected_time":663000000000,"state":"active","ping":110},{"user_id":339,"name":"Tyco","steam_id":76561197978414167,"connected_time":1503000000000,"state":"active","ping":75},{"user_id":363,"name":"ChefMike","steam_id":76561198414034069,"connected_time":472000000000,"state":"active","ping":61},{"user_id":306,"name":"Digit","steam_id":76561198156589157,"connected_time":3635000000000,"state":"active","ping":78},{"user_id":344,"name":"lapi","steam_id":76561198302976864,"connected_time":1386000000000,"state":"active","ping":76},{"user_id":288,"name":"blob","steam_id":76561198122375328,"connected_time":4263000000000,"state":"active","ping":61},{"user_id":334,"name":"goober","steam_id":76561198943598378,"connected_time":2115000000000,"state":"active","ping":53},{"user_id":327,"name":"stop","steam_id":76561198268686419,"connected_time":2499000000000,"state":"active","ping":51},{"user_id":355,"name":"papers","steam_id":76561198438982539,"connected_time":788000000000,"state":"active","ping":95},{"user_id":356,"name":"Smokinaiden","steam_id":76561198035250129,"connected_time":782000000000,"state":"active","ping":120},{"user_id":372,"name":"Rin \"Hindwing\" Redtail","steam_id":76561199074865638,"connected_time":181000000000,"state":"active","ping":77},{"user_id":358,"name":"CRAZY FROG ISNT THE SONG","steam_id":76561198046705420,"connected_time":772000000000,"state":"active","ping":60},{"user_id":375,"name":"putz","steam_id":76561198100601393,"connected_time":106000000000,"state":"active","ping":65},{"user_id":346,"name":"Bigtimefan5","steam_id":76561199047490167,"connected_time":1325000000000,"state":"active","ping":80},{"user_id":359,"name":"treemonkey","steam_id":76561198088171353,"connected_time":757000000000,"state":"active","ping":63},{"user_id":360,"name":"shinon","steam_id":76561198373626848,"connected_time":729000000000,"state":"active","ping":81}]},{"server_id":106,"name":"Uncletopia | Chicago | 2 | All Maps","name_short":"chi-2","host":"chi-1.us.uncletopia.com","port":27025,"enabled":true,"region":"us-central","cc":"us","latitude":41.881832,"longitude":-87.62318,"reserved":0,"last_update":"0001-01-01T00:00:00Z","name_a2s":"Uncletopia | Chicago | 2 | All Maps","protocol":17,"map":"pl_frontier_final","folder":"tf","game":"Team Fortress","app_id":440,"player_count":24,"max_players":24,"Bots":0,"server_type":"Dedicated","server_os":"Linux","password":true,"vac":true,"version":"7742253","steam_id":85568392924469985,"keywords":["nocrits","nodmgspread","payload","uncletopia"],"game_id":440,"stv_port":27026,"stv_name":"Uncletopia | Chicago | 2 | All Maps | STV","players":[{"user_id":166,"name":"Kiwi","steam_id":76561198324117986,"connected_time":936000000000,"state":"active","ping":83},{"user_id":165,"name":"Password is Taco","steam_id":76561198026092945,"connected_time":1049000000000,"state":"active","ping":86},{"user_id":167,"name":"zoiboi","steam_id":76561198069598590,"connected_time":877000000000,"state":"active","ping":107},{"user_id":160,"name":"GuyGoom","steam_id":76561198254522178,"connected_time":1891000000000,"state":"active","ping":59},{"user_id":94,"name":"Yaogwai","steam_id":76561198274501963,"connected_time":6646000000000,"state":"active","ping":128},{"user_id":168,"name":"wenki","steam_id":76561198108172060,"connected_time":817000000000,"state":"active","ping":76},{"user_id":169,"name":"SlooperSoaker","steam_id":76561198121050895,"connected_time":779000000000,"state":"active","ping":79},{"user_id":175,"name":"la loveiathenne","steam_id":76561198046394237,"connected_time":500000000000,"state":"active","ping":85},{"user_id":157,"name":"Silverio","steam_id":76561197999425381,"connected_time":2156000000000,"state":"active","ping":72},{"user_id":170,"name":"Fabydoi","steam_id":76561199146674144,"connected_time":688000000000,"state":"active","ping":75},{"user_id":171,"name":"A Fruit","steam_id":76561198951830050,"connected_time":663000000000,"state":"active","ping":63},{"user_id":172,"name":"Fish","steam_id":76561198986516474,"connected_time":632000000000,"state":"active","ping":87},{"user_id":68,"name":"jingle shitmouth","steam_id":76561198055109192,"connected_time":8666000000000,"state":"active","ping":72},{"user_id":183,"name":"Moist Marauder","steam_id":76561198127097781,"connected_time":376000000000,"state":"active","ping":46},{"user_id":174,"name":"Mr.Pan","steam_id":76561198069030613,"connected_time":564000000000,"state":"active","ping":68},{"user_id":164,"name":"the.land.of.avalon","steam_id":76561198245431668,"connected_time":1134000000000,"state":"active","ping":66},{"user_id":87,"name":"Yukon Cornelius","steam_id":76561198261512781,"connected_time":7457000000000,"state":"active","ping":75},{"user_id":155,"name":"IamLightning","steam_id":76561198193881559,"connected_time":2277000000000,"state":"active","ping":66},{"user_id":186,"name":"pigswill","steam_id":76561197999081865,"connected_time":216000000000,"state":"active","ping":89},{"user_id":184,"name":"Sentry Down!","steam_id":76561198965340653,"connected_time":299000000000,"state":"active","ping":59},{"user_id":178,"name":"walito12","steam_id":76561198244902626,"connected_time":454000000000,"state":"active","ping":107},{"user_id":180,"name":"Predicta","steam_id":76561198017630616,"connected_time":444000000000,"state":"active","ping":66},{"user_id":64,"name":"‚í∑‚ì™‚ì™‚ì£‚ì®‚ìí‚ìê‚ìö‚ìî‚ì¢","steam_id":76561198088776421,"connected_time":8901000000000,"state":"active","ping":67},{"user_id":181,"name":"Chuckled","steam_id":76561198217425919,"connected_time":439000000000,"state":"active","ping":83}]},{"server_id":402,"name":"Uncletopia | Chicago | 3 | All Maps","name_short":"chi-3","host":"chi-1.us.uncletopia.com","port":27035,"enabled":true,"region":"us-central","cc":"us","latitude":41.881832,"longitude":-87.62318,"reserved":0,"last_update":"0001-01-01T00:00:00Z","name_a2s":"Uncletopia | Chicago | 3 | All Maps","protocol":17,"map":"pl_swiftwater_final1","folder":"tf","game":"Team Fortress","app_id":440,"player_count":21,"max_players":24,"Bots":0,"server_type":"Dedicated","server_os":"Linux","password":true,"vac":true,"version":"7742253","steam_id":85568392924515191,"keywords":["nocrits","nodmgspread","payload","uncletopia"],"game_id":440,"stv_port":27036,"stv_name":"Uncletopia | Chicago | 3 | All Maps | STV","players":[{"user_id":451,"name":"BurnN8or101","steam_id":76561198132668224,"connected_time":27000000000,"state":"active","ping":63},{"user_id":440,"name":"Hasty","steam_id":76561198416281710,"connected_time":711000000000,"state":"active","ping":46},{"user_id":446,"name":"uppercase thing","steam_id":76561199238480644,"connected_time":73000000000,"state":"active","ping":67},{"user_id":429,"name":"BillButtLicker69","steam_id":76561198070119268,"connected_time":1113000000000,"state":"active","ping":116},{"user_id":448,"name":"paper","steam_id":76561199075241499,"connected_time":42000000000,"state":"active","ping":79},{"user_id":447,"name":"The Team From Team Fortress","steam_id":76561198021447709,"connected_time":44000000000,"state":"active","ping":53},{"user_id":449,"name":"sam1521","steam_id":76561198027264163,"connected_time":38000000000,"state":"active","ping":72},{"user_id":450,"name":"RyanDCB [Real]","steam_id":76561198040138739,"connected_time":35000000000,"state":"spawning","ping":87},{"user_id":452,"name":"Dinosaur","steam_id":76561198854695804,"connected_time":26000000000,"state":"active","ping":65},{"user_id":444,"name":"Buddybudman","steam_id":76561198144316911,"connected_time":100000000000,"state":"active","ping":64},{"user_id":441,"name":"Adawnby","steam_id":76561198103057295,"connected_time":703000000000,"state":"active","ping":76},{"user_id":439,"name":"kohi","steam_id":76561198319990195,"connected_time":770000000000,"state":"active","ping":83},{"user_id":399,"name":"kritik","steam_id":76561198075216115,"connected_time":2450000000000,"state":"active","ping":149},{"user_id":432,"name":"Lich Gaming","steam_id":76561198299094088,"connected_time":1005000000000,"state":"active","ping":62},{"user_id":445,"name":"Crayfry","steam_id":76561198146525237,"connected_time":95000000000,"state":"active","ping":45},{"user_id":427,"name":"caption cool","steam_id":76561197990612056,"connected_time":1181000000000,"state":"active","ping":31},{"user_id":453,"name":"Slick","steam_id":76561198278426554,"connected_time":20000000000,"state":"active","ping":84},{"user_id":420,"name":"Gaming","steam_id":76561198327632113,"connected_time":1325000000000,"state":"active","ping":86},{"user_id":436,"name":"sansa musa","steam_id":76561198163723555,"connected_time":848000000000,"state":"active","ping":74},{"user_id":437,"name":"lost in the sauce","steam_id":76561199043827112,"connected_time":835000000000,"state":"active","ping":50},{"user_id":454,"name":"tequila sunset","steam_id":76561198336981035,"connected_time":11000000000,"state":"spawning","ping":92}]},{"server_id":403,"name":"Uncletopia | Chicago | 4 | All Maps","name_short":"chi-4","host":"chi-1.us.uncletopia.com","port":27045,"enabled":true,"region":"us-central","cc":"us","latitude":41.881832,"longitude":-87.62318,"reserved":0,"last_update":"0001-01-01T00:00:00Z","name_a2s":"Uncletopia | Chicago | 4 | All Maps","protocol":17,"map":"koth_highpass","folder":"tf","game":"Team Fortress","app_id":440,"player_count":0,"max_players":24,"Bots":0,"server_type":"Dedicated","server_os":"Linux","password":true,"vac":true,"version":"7742253","steam_id":85568392924515193,"keywords":["cp","nocrits","nodmgspread","uncletopia"],"game_id":440,"stv_port":27046,"stv_name":"Uncletopia | Chicago | 4 | All Maps | STV","players":null},{"server_id":36,"name":"Uncletopia | Chicago | 5 | All Maps","name_short":"chi-5","host":"chi-2.us.uncletopia.com","port":27015,"enabled":true,"region":"us-central","cc":"us","latitude":41.881832,"longitude":-87.62318,"reserved":0,"last_update":"0001-01-01T00:00:00Z","name_a2s":"Uncletopia | Chicago | 5 | All Maps","protocol":17,"map":"pl_pier","folder":"tf","game":"Team Fortress","app_id":440,"player_count":24,"max_players":24,"Bots":0,"server_type":"Dedicated","server_os":"Linux","password":true,"vac":true,"version":"7742253","steam_id":85568392924866362,"keywords":["nocrits","nodmgspread","payload","uncletopia"],"game_id":440,"stv_port":27016,"stv_name":"Uncletopia | Chicago | 5 | All Maps | STV","players":[{"user_id":105,"name":"Cosmosis Jones","steam_id":76561198970097093,"connected_time":1234000000000,"state":"active","ping":92},{"user_id":102,"name":"weeb_whacker #Jenius","steam_id":76561198187098041,"connected_time":1293000000000,"state":"active","ping":51},{"user_id":117,"name":"Crustation Crusader","steam_id":76561198281974391,"connected_time":491000000000,"state":"active","ping":58},{"user_id":118,"name":"Funny Skeleton Man","steam_id":76561198264262564,"connected_time":292000000000,"state":"active","ping":67},{"user_id":106,"name":"Chuburn","steam_id":76561199078803862,"connected_time":1210000000000,"state":"active","ping":66},{"user_id":111,"name":"Rhutebeer","steam_id":76561198018302761,"connected_time":1052000000000,"state":"active","ping":96},{"user_id":99,"name":"SquirrelAway‚Ñ¢","steam_id":76561197998828619,"connected_time":1945000000000,"state":"active","ping":76},{"user_id":91,"name":"Billosky Time Lord","steam_id":76561199159626560,"connected_time":2872000000000,"state":"active","ping":150},{"user_id":88,"name":"Super Gay Homo Thug","steam_id":76561198355094896,"connected_time":2955000000000,"state":"active","ping":70},{"user_id":81,"name":"SomeCozyKid","steam_id":76561198086113234,"connected_time":3460000000000,"state":"active","ping":65},{"user_id":98,"name":"MjrMovnTARGET","steam_id":76561199125908849,"connected_time":2064000000000,"state":"active","ping":75},{"user_id":120,"name":"Owl Pacino","steam_id":76561197979970666,"connected_time":112000000000,"state":"active","ping":57},{"user_id":112,"name":"Stagred","steam_id":76561198055973266,"connected_time":972000000000,"state":"active","ping":81},{"user_id":115,"name":"All 24 Pok√©mon movies at once","steam_id":76561198164738311,"connected_time":686000000000,"state":"active","ping":55},{"user_id":109,"name":"TheFlyingTortis","steam_id":76561198071576016,"connected_time":1193000000000,"state":"active","ping":60},{"user_id":38,"name":"comet sooicidy","steam_id":76561198025173479,"connected_time":6858000000000,"state":"active","ping":88},{"user_id":71,"name":"least homicidal police officer","steam_id":76561198354284591,"connected_time":3754000000000,"state":"active","ping":101},{"user_id":113,"name":"Kindagoodplayer","steam_id":76561198814625843,"connected_time":969000000000,"state":"active","ping":65},{"user_id":114,"name":"Try Gardening","steam_id":76561198120311340,"connected_time":963000000000,"state":"active","ping":44},{"user_id":119,"name":"BOR XOR","steam_id":76561198063294776,"connected_time":180000000000,"state":"active","ping":88},{"user_id":85,"name":"Ferxxo","steam_id":76561198820199000,"connected_time":3017000000000,"state":"active","ping":84},{"user_id":87,"name":"Poop Deck Joe","steam_id":76561198271397568,"connected_time":2978000000000,"state":"active","ping":89},{"user_id":116,"name":"Surinferior","steam_id":76561198008953177,"connected_time":627000000000,"state":"active","ping":76},{"user_id":79,"name":"backflipping trans woman","steam_id":76561198100189571,"connected_time":3509000000000,"state":"active","ping":55}]},{"server_id":37,"name":"Uncletopia | Chicago | 6 | All Maps","name_short":"chi-6","host":"chi-2.us.uncletopia.com","port":27025,"enabled":true,"region":"us-central","cc":"us","latitude":41.881832,"longitude":-87.62318,"reserved":0,"last_update":"0001-01-01T00:00:00Z","name_a2s":"Uncletopia | Chicago | 6 | All Maps","protocol":17,"map":"cp_sunshine","folder":"tf","game":"Team Fortress","app_id":440,"player_count":4,"max_players":24,"Bots":0,"server_type":"Dedicated","server_os":"Linux","password":true,"vac":true,"version":"7742253","steam_id":85568392924866363,"keywords":["cp","nocrits","nodmgspread","uncletopia"],"game_id":440,"stv_port":27026,"stv_name":"Uncletopia | Chicago | 6 | All Maps | STV","players":[{"user_id":16,"name":"Red Heavy The Sandwich Slayer","steam_id":76561199187226776,"connected_time":268000000000,"state":"active","ping":67},{"user_id":17,"name":"Blue Heavy da Booty Executioner","steam_id":76561198405271669,"connected_time":224000000000,"state":"active","ping":57},{"user_id":18,"name":"Melon","steam_id":76561198203952392,"connected_time":120000000000,"state":"active","ping":60},{"user_id":19,"name":"Waffle_Hunter","steam_id":76561198220675860,"connected_time":92000000000,"state":"active","ping":99}]},{"server_id":38,"name":"Uncletopia | Chicago | 7 | Stopwatch Beta","name_short":"chi-7","host":"chi-2.us.uncletopia.com","port":27035,"enabled":true,"region":"us-central","cc":"us","latitude":41.881832,"longitude":-87.62318,"reserved":0,"last_update":"0001-01-01T00:00:00Z","name_a2s":"Uncletopia | Chicago | 7 | Stopwatch Beta","protocol":17,"map":"pl_upward","folder":"tf","game":"Team Fortress","app_id":440,"player_count":0,"max_players":24,"Bots":0,"server_type":"Dedicated","server_os":"Linux","password":true,"vac":true,"version":"7742253","steam_id":85568392924866364,"keywords":["nocrits","nodmgspread","payload","uncletopia"],"game_id":440,"stv_port":27036,"stv_name":"Uncletopia | Chicago | 7 | Stopwatch Beta | STV","players":null},{"server_id":39,"name":"Uncletopia | Chicago | 8 | Community","name_short":"chi-8","host":"chi-2.us.uncletopia.com","port":27045,"enabled":true,"region":"us-central","cc":"us","latitude":41.881832,"longitude":-87.62318,"reserved":0,"last_update":"0001-01-01T00:00:00Z","name_a2s":"Uncletopia | Chicago | 8 | Community","protocol":17,"map":"koth_cascade","folder":"tf","game":"Team Fortress","app_id":440,"player_count":0,"max_players":24,"Bots":0,"server_type":"Dedicated","server_os":"Linux","password":true,"vac":true,"version":"7742253","steam_id":85568392924866365,"keywords":["cp","nocrits","nodmgspread","uncletopia"],"game_id":440,"stv_port":27046,"stv_name":"Uncletopia | Chicago | 8 | Community | STV","players":null},{"server_id":8,"name":"Uncletopia | Dallas | 1 | All Maps","name_short":"dal-1","host":"dal-1.us.uncletopia.com","port":27015,"enabled":true,"region":"us-central","cc":"us","latitude":32.779167,"longitude":-96.80889,"reserved":0,"last_update":"0001-01-01T00:00:00Z","name_a2s":"Uncletopia | Dallas | 1 | All Maps","protocol":17,"map":"koth_harvest_final","folder":"tf","game":"Team Fortress","app_id":440,"player_count":24,"max_players":24,"Bots":0,"server_type":"Dedicated","server_os":"Linux","password":true,"vac":true,"version":"7742253","steam_id":85568392924469986,"keywords":["cp","nocrits","nodmgspread","uncletopia"],"game_id":440,"stv_port":27016,"stv_name":"Uncletopia | Dallas | 1 | All Maps | STV","players":[{"user_id":489,"name":"BuhByeFalecia","steam_id":76561198364710587,"connected_time":1509000000000,"state":"active","ping":53},{"user_id":493,"name":"maglooba","steam_id":76561199228865188,"connected_time":1336000000000,"state":"active","ping":45},{"user_id":498,"name":"–ü–∞–≤–ª–æ –ü–∞—á–µ–Ω–∫–æ","steam_id":76561198314446564,"connected_time":716000000000,"state":"active","ping":85},{"user_id":501,"name":"bdkaine1","steam_id":76561198133545467,"connected_time":442000000000,"state":"active","ping":120},{"user_id":460,"name":"KORF","steam_id":76561197981904410,"connected_time":3853000000000,"state":"active","ping":77},{"user_id":487,"name":"Pneumo.","steam_id":76561197987911883,"connected_time":1540000000000,"state":"active","ping":116},{"user_id":507,"name":"Rurigade Towers","steam_id":76561198148598905,"connected_time":354000000000,"state":"active","ping":76},{"user_id":439,"name":"Joyous Jenny","steam_id":76561198127998866,"connected_time":4649000000000,"state":"active","ping":76},{"user_id":466,"name":"Bonesala","steam_id":76561199052450127,"connected_time":3200000000000,"state":"active","ping":69},{"user_id":508,"name":"Yoozer","steam_id":76561198420257694,"connected_time":214000000000,"state":"active","ping":79},{"user_id":437,"name":"RedMustrd","steam_id":76561199246218857,"connected_time":4691000000000,"state":"active","ping":80},{"user_id":511,"name":"raduski","steam_id":76561198795699119,"connected_time":83000000000,"state":"active","ping":77},{"user_id":442,"name":"Chaotic Rushu","steam_id":76561198170054407,"connected_time":4549000000000,"state":"active","ping":92},{"user_id":509,"name":"G. Howard Dee","steam_id":76561198058382812,"connected_time":214000000000,"state":"active","ping":72},{"user_id":502,"name":"Anononomous Dumbo Octopus","steam_id":76561198252522394,"connected_time":424000000000,"state":"active","ping":53},{"user_id":471,"name":"banana97286","steam_id":76561199367847817,"connected_time":2559000000000,"state":"active","ping":85},{"user_id":510,"name":"i fucc the b1tch in the back wi","steam_id":76561198800324957,"connected_time":182000000000,"state":"active","ping":52},{"user_id":448,"name":"kibsta","steam_id":76561198991982630,"connected_time":4482000000000,"state":"active","ping":105},{"user_id":446,"name":"Ros","steam_id":76561199055963822,"connected_time":4492000000000,"state":"active","ping":76},{"user_id":505,"name":"KennytheHedgehog","steam_id":76561198094607721,"connected_time":390000000000,"state":"active","ping":51},{"user_id":504,"name":"BenNikkin","steam_id":76561198146801256,"connected_time":409000000000,"state":"active","ping":94},{"user_id":470,"name":"guy","steam_id":76561198196443262,"connected_time":2624000000000,"state":"active","ping":89},{"user_id":481,"name":"„Çπ„Éë„Ç§„ÇØ","steam_id":76561199417277716,"connected_time":1797000000000,"state":"active","ping":84},{"user_id":499,"name":"Schnitz","steam_id":76561198265484253,"connected_time":657000000000,"state":"active","ping":86}]},{"server_id":108,"name":"Uncletopia | Dallas | 2 | All Maps","name_short":"dal-2","host":"dal-1.us.uncletopia.com","port":27025,"enabled":true,"region":"us-central","cc":"us","latitude":32.779167,"longitude":-96.80889,"reserved":0,"last_update":"0001-01-01T00:00:00Z","name_a2s":"Uncletopia | Dallas | 2 | All Maps","protocol":17,"map":"pl_snowycoast","folder":"tf","game":"Team Fortress","app_id":440,"player_count":24,"max_players":24,"Bots":0,"server_type":"Dedicated","server_os":"Linux","password":true,"vac":true,"version":"7742253","steam_id":85568392924469988,"keywords":["nocrits","nodmgspread","payload","uncletopia"],"game_id":440,"stv_port":27026,"stv_name":"Uncletopia | Dallas | 2 | All Maps | STV","players":[{"user_id":266,"name":"LumenLogic","steam_id":76561198151757985,"connected_time":2914000000000,"state":"active","ping":77},{"user_id":308,"name":"Boasta' Berry","steam_id":76561198029015179,"connected_time":1012000000000,"state":"active","ping":250},{"user_id":271,"name":"finkle","steam_id":76561198388089772,"connected_time":2619000000000,"state":"active","ping":57},{"user_id":304,"name":"Brobespierre","steam_id":76561198022225667,"connected_time":1266000000000,"state":"active","ping":88},{"user_id":305,"name":"Gooter","steam_id":76561198185268445,"connected_time":1196000000000,"state":"active","ping":51},{"user_id":231,"name":"iluvtoust","steam_id":76561198869269207,"connected_time":4529000000000,"state":"active","ping":53},{"user_id":306,"name":"dan","steam_id":76561197984998426,"connected_time":1105000000000,"state":"active","ping":92},{"user_id":270,"name":"Meepster","steam_id":76561198146305159,"connected_time":2647000000000,"state":"active","ping":84},{"user_id":272,"name":"brimstone","steam_id":76561198066619792,"connected_time":2614000000000,"state":"active","ping":64},{"user_id":315,"name":"cart","steam_id":76561197987025017,"connected_time":734000000000,"state":"active","ping":68},{"user_id":275,"name":"name420","steam_id":76561198129374525,"connected_time":2428000000000,"state":"active","ping":73},{"user_id":309,"name":"Fishstall","steam_id":76561198038126034,"connected_time":992000000000,"state":"active","ping":73},{"user_id":289,"name":"french press of bel-air","steam_id":76561198024315203,"connected_time":1960000000000,"state":"active","ping":75},{"user_id":254,"name":"SmokeyGalaxy","steam_id":76561198118780516,"connected_time":3458000000000,"state":"active","ping":60},{"user_id":310,"name":"Aglow","steam_id":76561199438754251,"connected_time":979000000000,"state":"active","ping":55},{"user_id":311,"name":"callum","steam_id":76561198070918366,"connected_time":945000000000,"state":"active","ping":96},{"user_id":320,"name":"BEATS","steam_id":76561199245717718,"connected_time":491000000000,"state":"active","ping":82},{"user_id":257,"name":"Legal Helpy","steam_id":76561198399334453,"connected_time":3382000000000,"state":"active","ping":60},{"user_id":313,"name":"Jyggalag","steam_id":76561198014672516,"connected_time":903000000000,"state":"active","ping":90},{"user_id":300,"name":"SeedersPhD","steam_id":76561198046244307,"connected_time":1447000000000,"state":"active","ping":102},{"user_id":317,"name":"GlazingDonut","steam_id":76561198847420641,"connected_time":678000000000,"state":"active","ping":63},{"user_id":286,"name":"sockgobblin","steam_id":76561198853494675,"connected_time":2114000000000,"state":"active","ping":107},{"user_id":321,"name":"trappyLilyungParrot13","steam_id":76561198188591994,"connected_time":171000000000,"state":"active","ping":87},{"user_id":302,"name":"mrrainbow56","steam_id":76561198367059415,"connected_time":1360000000000,"state":"active","ping":90}]},{"server_id":5,"name":"Uncletopia | Frankfurt | 1 | All Maps","name_short":"frk-1","host":"frk-1.de.uncletopia.com","port":27015,"enabled":true,"region":"eu","cc":"de","latitude":50.110924,"longitude":8.682127,"reserved":0,"last_update":"0001-01-01T00:00:00Z","name_a2s":"Uncletopia | Frankfurt | 1 | All Maps","protocol":17,"map":"pl_frontier_final","folder":"tf","game":"Team Fortress","app_id":440,"player_count":23,"max_players":24,"Bots":0,"server_type":"Dedicated","server_os":"Linux","password":true,"vac":true,"version":"7742253","steam_id":85568392924469989,"keywords":["nocrits","nodmgspread","payload","uncletopia"],"game_id":440,"stv_port":27016,"stv_name":"Uncletopia | Frankfurt | 1 | All Maps | STV","players":[{"user_id":618,"name":"Mean Green Peen","steam_id":76561198228455736,"connected_time":601000000000,"state":"active","ping":63},{"user_id":615,"name":"Mankor","steam_id":76561198020439322,"connected_time":1103000000000,"state":"active","ping":45},{"user_id":621,"name":"Atronic","steam_id":76561198354960567,"connected_time":538000000000,"state":"active","ping":49},{"user_id":619,"name":"Pinroe","steam_id":76561198968160899,"connected_time":590000000000,"state":"active","ping":89},{"user_id":617,"name":"Big Noot","steam_id":76561198057707263,"connected_time":794000000000,"state":"active","ping":53},{"user_id":620,"name":"Videogamer","steam_id":76561198106012909,"connected_time":577000000000,"state":"active","ping":62},{"user_id":565,"name":"An unnecessary Jojo reference","steam_id":76561198121764825,"connected_time":4874000000000,"state":"active","ping":41},{"user_id":570,"name":"MAJAX","steam_id":76561198254828632,"connected_time":4348000000000,"state":"active","ping":69},{"user_id":601,"name":"Gety0","steam_id":76561198044387185,"connected_time":2202000000000,"state":"active","ping":77},{"user_id":593,"name":"Miss Bari","steam_id":76561198365286092,"connected_time":2660000000000,"state":"active","ping":56},{"user_id":584,"name":"uma","steam_id":76561198147976939,"connected_time":2981000000000,"state":"active","ping":47},{"user_id":580,"name":"B4R10N","steam_id":76561198047167954,"connected_time":3452000000000,"state":"active","ping":57},{"user_id":608,"name":"vortexe","steam_id":76561198291669358,"connected_time":1348000000000,"state":"active","ping":83},{"user_id":614,"name":"Bulka Mix Huix","steam_id":76561197996831249,"connected_time":1176000000000,"state":"active","ping":96},{"user_id":605,"name":"Alich","steam_id":76561198054110232,"connected_time":1610000000000,"state":"active","ping":87},{"user_id":622,"name":"SynthBox3","steam_id":76561199094075745,"connected_time":531000000000,"state":"active","ping":91},{"user_id":610,"name":"kshycatch","steam_id":76561198213421904,"connected_time":1326000000000,"state":"active","ping":93},{"user_id":623,"name":"r06u3","steam_id":76561198254099253,"connected_time":517000000000,"state":"active","ping":187},{"user_id":624,"name":"pinkerton","steam_id":76561198083103830,"connected_time":510000000000,"state":"active","ping":118},{"user_id":611,"name":"–ì–¥–µ –º–æ—Ä–µ?","steam_id":76561197979625544,"connected_time":1285000000000,"state":"active","ping":89},{"user_id":626,"name":"Mailer","steam_id":76561198062690074,"connected_time":155000000000,"state":"active","ping":66},{"user_id":592,"name":"Carrot","steam_id":76561198119340863,"connected_time":2767000000000,"state":"active","ping":56},{"user_id":612,"name":"„É¨„Éà„ÅÆÂ•áÂ¶ô„Å™ÂÜíÈô∫","steam_id":76561198419429742,"connected_time":1284000000000,"state":"active","ping":65}]},{"server_id":110,"name":"Uncletopia | Frankfurt | 2 | All Maps","name_short":"frk-2","host":"frk-1.de.uncletopia.com","port":27025,"enabled":true,"region":"eu","cc":"de","latitude":50.110924,"longitude":8.682127,"reserved":0,"last_update":"0001-01-01T00:00:00Z","name_a2s":"Uncletopia | Frankfurt | 2 | All Maps","protocol":17,"map":"pl_wutville_event","folder":"tf","game":"Team Fortress","app_id":440,"player_count":22,"max_players":24,"Bots":0,"server_type":"Dedicated","server_os":"Linux","password":true,"vac":true,"version":"7742253","steam_id":85568392924469990,"keywords":["nocrits","nodmgspread","payload","uncletopia"],"game_id":440,"stv_port":27026,"stv_name":"Uncletopia | Frankfurt | 2 | All Maps | STV","players":[{"user_id":693,"name":"0PeKyN","steam_id":76561199027244825,"connected_time":468000000000,"state":"active","ping":70},{"user_id":647,"name":"zdX","steam_id":76561198163735277,"connected_time":2479000000000,"state":"active","ping":52},{"user_id":694,"name":"Rat, the ungodly rat #SaveTF2","steam_id":76561199126577423,"connected_time":414000000000,"state":"active","ping":62},{"user_id":708,"name":"Space Man Brayton","steam_id":76561197998095223,"connected_time":40000000000,"state":"spawning","ping":149},{"user_id":696,"name":"Ice Tea","steam_id":76561199180744278,"connected_time":402000000000,"state":"active","ping":82},{"user_id":703,"name":"‚òÜ(stephano)pootis CO.‚òÜ","steam_id":76561199084131361,"connected_time":217000000000,"state":"active","ping":171},{"user_id":698,"name":"Rezkey","steam_id":76561198206079048,"connected_time":366000000000,"state":"active","ping":60},{"user_id":682,"name":"ElkinTheElk","steam_id":76561198897806855,"connected_time":839000000000,"state":"active","ping":158},{"user_id":686,"name":"brick fortress","steam_id":76561198052465575,"connected_time":782000000000,"state":"active","ping":52},{"user_id":700,"name":"kilo","steam_id":76561198015641339,"connected_time":319000000000,"state":"active","ping":70},{"user_id":699,"name":"Dondonz","steam_id":76561198111407893,"connected_time":341000000000,"state":"active","ping":57},{"user_id":702,"name":"‚ìò Twinz","steam_id":76561198111675586,"connected_time":296000000000,"state":"active","ping":61},{"user_id":628,"name":"Reizei","steam_id":76561198148504042,"connected_time":3320000000000,"state":"active","ping":73},{"user_id":689,"name":"MicardoRilos","steam_id":76561198860205441,"connected_time":662000000000,"state":"active","ping":63},{"user_id":706,"name":"JayJ","steam_id":76561198254030118,"connected_time":143000000000,"state":"active","ping":55},{"user_id":705,"name":"Tidez_","steam_id":76561198374956415,"connected_time":162000000000,"state":"active","ping":62},{"user_id":709,"name":"[JT]Reefer","steam_id":76561197988333655,"connected_time":25000000000,"state":"active","ping":57},{"user_id":710,"name":"htraB","steam_id":76561198043122677,"connected_time":22000000000,"state":"active","ping":80},{"user_id":677,"name":"The Power","steam_id":76561198060566884,"connected_time":1112000000000,"state":"active","ping":60},{"user_id":679,"name":"Random Cap","steam_id":76561198129271321,"connected_time":1061000000000,"state":"active","ping":54},{"user_id":678,"name":"‚ô• Cirno ‚ô•","steam_id":76561198834982738,"connected_time":1101000000000,"state":"active","ping":65},{"user_id":564,"name":"Boycie","steam_id":76561198179116027,"connected_time":7232000000000,"state":"active","ping":81}]},{"server_id":308,"name":"Uncletopia | Frankfurt | 3 | All Maps","name_short":"frk-3","host":"frk-1.de.uncletopia.com","port":27035,"enabled":true,"region":"eu","cc":"de","latitude":50.110924,"longitude":8.682127,"reserved":0,"last_update":"0001-01-01T00:00:00Z","name_a2s":"Uncletopia | Frankfurt | 3 | All Maps","protocol":17,"map":"pl_badwater","folder":"tf","game":"Team Fortress","app_id":440,"player_count":24,"max_players":24,"Bots":0,"server_type":"Dedicated","server_os":"Linux","password":true,"vac":true,"version":"7742253","steam_id":85568392924504274,"keywords":["nocrits","nodmgspread","payload","uncletopia"],"game_id":440,"stv_port":27036,"stv_name":"Uncletopia | Frankfurt | 3 | All Maps | STV","players":[{"user_id":569,"name":"groovy Rubies","steam_id":76561198998684199,"connected_time":1854000000000,"state":"active","ping":120},{"user_id":529,"name":"Mario3ghj","steam_id":76561198069804561,"connected_time":3369000000000,"state":"active","ping":91},{"user_id":601,"name":"Real (Real)","steam_id":76561198323425034,"connected_time":321000000000,"state":"active","ping":74},{"user_id":559,"name":"—Ç—É–∫–∫—É –∏—Ä–º–∞","steam_id":76561197998715016,"connected_time":2139000000000,"state":"active","ping":58},{"user_id":461,"name":"Nickbro101","steam_id":76561198044271692,"connected_time":7434000000000,"state":"active","ping":60},{"user_id":589,"name":":\u003e","steam_id":76561198237588932,"connected_time":919000000000,"state":"active","ping":60},{"user_id":605,"name":"Coca162","steam_id":76561198230656540,"connected_time":27000000000,"state":"spawning","ping":61},{"user_id":566,"name":"benjamin mcbillybob","steam_id":76561198131670413,"connected_time":1953000000000,"state":"active","ping":65},{"user_id":584,"name":"skrimgxral","steam_id":76561198271936950,"connected_time":1092000000000,"state":"active","ping":60},{"user_id":585,"name":"cr.","steam_id":76561197993508562,"connected_time":1056000000000,"state":"active","ping":60},{"user_id":595,"name":"Clueless_Noob","steam_id":76561199090554925,"connected_time":532000000000,"state":"active","ping":158},{"user_id":604,"name":"sunny","steam_id":76561198194849578,"connected_time":104000000000,"state":"active","ping":55},{"user_id":489,"name":"arcticcu","steam_id":76561198002435882,"connected_time":5350000000000,"state":"active","ping":87},{"user_id":602,"name":"The chicken from Chicken Little","steam_id":76561198064795519,"connected_time":260000000000,"state":"active","ping":53},{"user_id":452,"name":"Arturias","steam_id":76561198188720263,"connected_time":8072000000000,"state":"active","ping":59},{"user_id":493,"name":"Gardvord","steam_id":76561198120715753,"connected_time":5266000000000,"state":"active","ping":72},{"user_id":598,"name":"goblin boi üë∫","steam_id":76561198065987093,"connected_time":452000000000,"state":"active","ping":65},{"user_id":579,"name":"Hiritosaku","steam_id":76561198069659496,"connected_time":1267000000000,"state":"active","ping":82},{"user_id":580,"name":"Zateske","steam_id":76561198047446276,"connected_time":1148000000000,"state":"active","ping":60},{"user_id":600,"name":"MAKENTAKEN","steam_id":76561199127359587,"connected_time":328000000000,"state":"active","ping":86},{"user_id":603,"name":"Yuval","steam_id":76561198241802390,"connected_time":113000000000,"state":"active","ping":111},{"user_id":594,"name":"default","steam_id":76561198186182298,"connected_time":567000000000,"state":"active","ping":59},{"user_id":599,"name":"Kieranite","steam_id":76561198059607762,"connected_time":448000000000,"state":"active","ping":54},{"user_id":591,"name":"Koli","steam_id":76561197992428783,"connected_time":728000000000,"state":"active","ping":45}]},{"server_id":309,"name":"Uncletopia | Frankfurt | 4 | All Maps","name_short":"frk-4","host":"frk-1.de.uncletopia.com","port":27045,"enabled":true,"region":"eu","cc":"de","latitude":50.110924,"longitude":8.682127,"reserved":0,"last_update":"0001-01-01T00:00:00Z","name_a2s":"Uncletopia | Frankfurt | 4 | All Maps","protocol":17,"map":"cp_sunshine","folder":"tf","game":"Team Fortress","app_id":440,"player_count":0,"max_players":24,"Bots":0,"server_type":"Dedicated","server_os":"Linux","password":true,"vac":true,"version":"7742253","steam_id":85568392924504275,"keywords":["cp","nocrits","nodmgspread","uncletopia"],"game_id":440,"stv_port":27046,"stv_name":"Uncletopia | Frankfurt | 4 | All Maps | STV","players":null},{"server_id":310,"name":"Uncletopia | Frankfurt | 5 | All Maps","name_short":"frk-5","host":"frk-1.de.uncletopia.com","port":27055,"enabled":true,"region":"eu","cc":"de","latitude":50.110924,"longitude":8.682127,"reserved":0,"last_update":"0001-01-01T00:00:00Z","name_a2s":"Uncletopia | Frankfurt | 5 | All Maps","protocol":17,"map":"pl_rumford_event","folder":"tf","game":"Team Fortress","app_id":440,"player_count":24,"max_players":24,"Bots":0,"server_type":"Dedicated","server_os":"Linux","password":true,"vac":true,"version":"7742253","steam_id":85568392924504277,"keywords":["nocrits","nodmgspread","payload","uncletopia"],"game_id":440,"stv_port":27056,"stv_name":"Uncletopia | Frankfurt | 5 | All Maps | STV","players":[{"user_id":186,"name":"i heal gay people","steam_id":76561198032167311,"connected_time":141000000000,"state":"active","ping":70},{"user_id":161,"name":"SirVitek","steam_id":76561198142961758,"connected_time":1808000000000,"state":"active","ping":64},{"user_id":165,"name":"DeCypher","steam_id":76561198171992619,"connected_time":1463000000000,"state":"active","ping":61},{"user_id":142,"name":"BIGGERDANGO","steam_id":76561198247876394,"connected_time":3632000000000,"state":"active","ping":63},{"user_id":183,"name":"f0x","steam_id":76561198072921704,"connected_time":712000000000,"state":"active","ping":62},{"user_id":162,"name":"Garrus","steam_id":76561198163288767,"connected_time":1556000000000,"state":"active","ping":83},{"user_id":151,"name":"nicholas","steam_id":76561198058211873,"connected_time":3019000000000,"state":"active","ping":49},{"user_id":180,"name":"Can I get a Beep Beep","steam_id":76561198010730967,"connected_time":750000000000,"state":"active","ping":76},{"user_id":40,"name":"Santa has breached the Pentagon","steam_id":76561198039097662,"connected_time":11895000000000,"state":"active","ping":71},{"user_id":90,"name":"CV\u003cDeaD\u003e","steam_id":76561198001816577,"connected_time":8240000000000,"state":"active","ping":79},{"user_id":164,"name":"Matoi_Main","steam_id":76561198018624840,"connected_time":1521000000000,"state":"active","ping":59},{"user_id":185,"name":"Bookus","steam_id":76561198108620516,"connected_time":411000000000,"state":"active","ping":58},{"user_id":167,"name":"AforeKingDwarf","steam_id":76561198043562926,"connected_time":1404000000000,"state":"active","ping":59},{"user_id":184,"name":"Unexpected","steam_id":76561198944781914,"connected_time":614000000000,"state":"active","ping":78},{"user_id":181,"name":"hushhx","steam_id":76561198216200092,"connected_time":748000000000,"state":"active","ping":69},{"user_id":176,"name":"Random Main \u003c3","steam_id":76561198341428449,"connected_time":967000000000,"state":"active","ping":53},{"user_id":145,"name":"Jamon","steam_id":76561198393024383,"connected_time":3623000000000,"state":"active","ping":54},{"user_id":168,"name":"Spazmatic","steam_id":76561198060956170,"connected_time":1394000000000,"state":"active","ping":128},{"user_id":169,"name":"crolee","steam_id":76561198865817316,"connected_time":1368000000000,"state":"active","ping":57},{"user_id":147,"name":"Archos","steam_id":76561198181820631,"connected_time":3313000000000,"state":"active","ping":72},{"user_id":178,"name":"golem","steam_id":76561198013475686,"connected_time":901000000000,"state":"active","ping":52},{"user_id":78,"name":"Shadowengell","steam_id":76561198019284410,"connected_time":9505000000000,"state":"active","ping":107},{"user_id":171,"name":"Bob_Tostas","steam_id":76561198249006560,"connected_time":1255000000000,"state":"active","ping":82},{"user_id":179,"name":"CGI_Lantern","steam_id":76561198055191196,"connected_time":878000000000,"state":"active","ping":72}]},{"server_id":311,"name":"Uncletopia | Frankfurt | 6 | All Maps","name_short":"frk-6","host":"frk-1.de.uncletopia.com","port":27065,"enabled":true,"region":"eu","cc":"de","latitude":50.110924,"longitude":8.682127,"reserved":0,"last_update":"0001-01-01T00:00:00Z","name_a2s":"Uncletopia | Frankfurt | 6 | All Maps","protocol":17,"map":"pl_borneo","folder":"tf","game":"Team Fortress","app_id":440,"player_count":23,"max_players":24,"Bots":0,"server_type":"Dedicated","server_os":"Linux","password":true,"vac":true,"version":"7742253","steam_id":85568392924504278,"keywords":["nocrits","nodmgspread","payload","uncletopia"],"game_id":440,"stv_port":27066,"stv_name":"Uncletopia | Frankfurt | 6 | All Maps | STV","players":[{"user_id":71,"name":"yuh","steam_id":76561199005555839,"connected_time":2800000000000,"state":"active","ping":62},{"user_id":91,"name":"Quartermistress","steam_id":76561198140199123,"connected_time":632000000000,"state":"active","ping":56},{"user_id":101,"name":"Rickatron","steam_id":76561198416324664,"connected_time":114000000000,"state":"active","ping":163},{"user_id":103,"name":"Darkmaen","steam_id":76561198060543390,"connected_time":0,"state":"spawning","ping":0},{"user_id":93,"name":"TylowStar","steam_id":76561198357107806,"connected_time":582000000000,"state":"active","ping":61},{"user_id":99,"name":"ivanmixo","steam_id":76561198160213989,"connected_time":414000000000,"state":"active","ping":69},{"user_id":88,"name":"reer","steam_id":76561198087222583,"connected_time":1786000000000,"state":"active","ping":47},{"user_id":94,"name":"Thors","steam_id":76561197968739075,"connected_time":577000000000,"state":"active","ping":45},{"user_id":102,"name":"tamz","steam_id":76561198146873972,"connected_time":85000000000,"state":"active","ping":47},{"user_id":87,"name":"p!ke","steam_id":76561198416081952,"connected_time":1825000000000,"state":"active","ping":61},{"user_id":79,"name":"|20BB)\u003eMach","steam_id":76561198952487564,"connected_time":2430000000000,"state":"active","ping":85},{"user_id":90,"name":"cslevi","steam_id":76561198142858923,"connected_time":719000000000,"state":"active","ping":74},{"user_id":96,"name":"Iru","steam_id":76561198077602040,"connected_time":548000000000,"state":"active","ping":60},{"user_id":86,"name":"f√©nix","steam_id":76561198083199151,"connected_time":1923000000000,"state":"active","ping":61},{"user_id":84,"name":"Jingleboob's 1# Elf","steam_id":76561198067204908,"connected_time":2123000000000,"state":"active","ping":71},{"user_id":51,"name":"name me pls","steam_id":76561199273576072,"connected_time":3733000000000,"state":"active","ping":56},{"user_id":97,"name":"snazzyyy","steam_id":76561198143529110,"connected_time":537000000000,"state":"active","ping":92},{"user_id":54,"name":"jingleboob","steam_id":76561198097507847,"connected_time":3681000000000,"state":"active","ping":80},{"user_id":55,"name":"jim","steam_id":76561198172003783,"connected_time":3678000000000,"state":"active","ping":105},{"user_id":81,"name":"Luigi Gaming (real and official","steam_id":76561198082502910,"connected_time":2410000000000,"state":"active","ping":61},{"user_id":57,"name":"jingleelf coordinator","steam_id":76561198170609049,"connected_time":3641000000000,"state":"active","ping":80},{"user_id":73,"name":"Towercat","steam_id":76561198013141793,"connected_time":2687000000000,"state":"active","ping":66},{"user_id":98,"name":"Lopata","steam_id":76561198820264239,"connected_time":526000000000,"state":"active","ping":87}]},{"server_id":23,"name":"Uncletopia | Frankfurt | 7 | Stopwatch Beta","name_short":"frk-7","host":"frk-1.de.uncletopia.com","port":27075,"enabled":true,"region":"eu","cc":"de","latitude":50.110924,"longitude":8.682127,"reserved":0,"last_update":"0001-01-01T00:00:00Z","name_a2s":"Uncletopia | Frankfurt | 7 | Stopwatch Beta","protocol":17,"map":"koth_lakeside_final","folder":"tf","game":"Team Fortress","app_id":440,"player_count":0,"max_players":24,"Bots":0,"server_type":"Dedicated","server_os":"Linux","password":true,"vac":true,"version":"7742253","steam_id":85568392924742827,"keywords":["cp","nocrits","nodmgspread","uncletopia"],"game_id":440,"stv_port":27076,"stv_name":"Uncletopia | Frankfurt | 7 | Stopwatch Beta | STV","players":null},{"server_id":24,"name":"Uncletopia | Frankfurt | 8 | Community","name_short":"frk-8","host":"frk-1.de.uncletopia.com","port":27085,"enabled":true,"region":"eu","cc":"de","latitude":50.110924,"longitude":8.682127,"reserved":0,"last_update":"0001-01-01T00:00:00Z","name_a2s":"Uncletopia | Frankfurt | 8 | Community","protocol":17,"map":"workshop/koth_slaughter_rc1.ugc1712845210","folder":"tf","game":"Team Fortress","app_id":440,"player_count":2,"max_players":24,"Bots":0,"server_type":"Dedicated","server_os":"Linux","password":true,"vac":true,"version":"7742253","steam_id":85568392924742828,"keywords":["cp","nocrits","nodmgspread","uncletopia"],"game_id":440,"stv_port":27086,"stv_name":"Uncletopia | Frankfurt | 8 | Community | STV","players":[{"user_id":428,"name":"Kieran","steam_id":76561198799248673,"connected_time":1498000000000,"state":"active","ping":35},{"user_id":429,"name":"Lila","steam_id":76561199130429483,"connected_time":1486000000000,"state":"active","ping":52}]},{"server_id":202,"name":"Uncletopia | Hong Kong | 1 | All Maps","name_short":"hgk-1","host":"hgk-1.hk.uncletopia.com","port":27015,"enabled":true,"region":"asia","cc":"hk","latitude":22.302711,"longitude":114.177216,"reserved":0,"last_update":"0001-01-01T00:00:00Z","name_a2s":"Uncletopia | Hong Kong | 1 | All Maps","protocol":17,"map":"koth_viaduct","folder":"tf","game":"Team Fortress","app_id":440,"player_count":0,"max_players":24,"Bots":0,"server_type":"Dedicated","server_os":"Linux","password":true,"vac":true,"version":"7742253","steam_id":85568392924494504,"keywords":["cp","nocrits","nodmgspread","uncletopia"],"game_id":440,"stv_port":27016,"stv_name":"Uncletopia | Hong Kong | 1 | All Maps | STV","players":null},{"server_id":1,"name":"Uncletopia | Los Angeles | 1 | All Maps","name_short":"lax-1","host":"lax-1.us.uncletopia.com","port":27015,"enabled":true,"region":"us-west","cc":"us","latitude":33.94279,"longitude":-118.41004,"reserved":0,"last_update":"0001-01-01T00:00:00Z","name_a2s":"Uncletopia | Los Angeles | 1 | All Maps","protocol":17,"map":"cp_snakewater_final1","folder":"tf","game":"Team Fortress","app_id":440,"player_count":0,"max_players":24,"Bots":0,"server_type":"Dedicated","server_os":"Linux","password":true,"vac":true,"version":"7742253","steam_id":85568392924469991,"keywords":["cp","nocrits","nodmgspread","uncletopia"],"game_id":440,"stv_port":27016,"stv_name":"Uncletopia | Los Angeles | 1 | All Maps | STV","players":null},{"server_id":112,"name":"Uncletopia | Los Angeles | 2 | All Maps","name_short":"lax-2","host":"lax-1.us.uncletopia.com","port":27025,"enabled":true,"region":"us-west","cc":"us","latitude":33.94279,"longitude":-118.41004,"reserved":0,"last_update":"0001-01-01T00:00:00Z","name_a2s":"Uncletopia | Los Angeles | 2 | All Maps","protocol":17,"map":"pl_frontier_final","folder":"tf","game":"Team Fortress","app_id":440,"player_count":0,"max_players":24,"Bots":0,"server_type":"Dedicated","server_os":"Linux","password":true,"vac":true,"version":"7742253","steam_id":85568392924469992,"keywords":["nocrits","nodmgspread","payload","uncletopia"],"game_id":440,"stv_port":27026,"stv_name":"Uncletopia | Los Angeles | 2 | All Maps | STV","players":null},{"server_id":324,"name":"Uncletopia | Los Angeles | 3 | All Maps","name_short":"lax-3","host":"lax-1.us.uncletopia.com","port":27035,"enabled":true,"region":"us-west","cc":"us","latitude":33.94279,"longitude":-118.41004,"reserved":0,"last_update":"0001-01-01T00:00:00Z","name_a2s":"Uncletopia | Los Angeles | 3 | All Maps","protocol":17,"map":"koth_highpass","folder":"tf","game":"Team Fortress","app_id":440,"player_count":0,"max_players":24,"Bots":0,"server_type":"Dedicated","server_os":"Linux","password":true,"vac":true,"version":"7742253","steam_id":85568392924510198,"keywords":["cp","nocrits","nodmgspread","uncletopia"],"game_id":440,"stv_port":27036,"stv_name":"Uncletopia | Los Angeles | 3 | All Maps | STV","players":null},{"server_id":25,"name":"Uncletopia | Los Angeles | 4 | Stopwatch Beta","name_short":"lax-4","host":"lax-1.us.uncletopia.com","port":27045,"enabled":true,"region":"us-west","cc":"us","latitude":33.94279,"longitude":-118.41004,"reserved":0,"last_update":"0001-01-01T00:00:00Z","name_a2s":"Uncletopia | Los Angeles | 4 | Stopwatch Beta","protocol":17,"map":"cp_process_final","folder":"tf","game":"Team Fortress","app_id":440,"player_count":0,"max_players":24,"Bots":0,"server_type":"Dedicated","server_os":"Linux","password":true,"vac":true,"version":"7742253","steam_id":85568392924510199,"keywords":["cp","nocrits","nodmgspread","uncletopia"],"game_id":440,"stv_port":27046,"stv_name":"Uncletopia | Los Angeles | 4 | Stopwatch Beta | STV","players":null},{"server_id":11,"name":"Uncletopia | London | 1 | All Maps","name_short":"lon-1","host":"lon-1.uk.uncletopia.com","port":27015,"enabled":true,"region":"eu","cc":"gb","latitude":51.509865,"longitude":-0.118092,"reserved":0,"last_update":"0001-01-01T00:00:00Z","name_a2s":"Uncletopia | London | 1 | All Maps","protocol":17,"map":"koth_cascade","folder":"tf","game":"Team Fortress","app_id":440,"player_count":24,"max_players":24,"Bots":0,"server_type":"Dedicated","server_os":"Linux","password":true,"vac":true,"version":"7742253","steam_id":85568392924367362,"keywords":["cp","nocrits","nodmgspread","uncletopia"],"game_id":440,"stv_port":27016,"stv_name":"Uncletopia | London | 1 | All Maps | STV","players":[{"user_id":753,"name":"Prox","steam_id":76561198351490981,"connected_time":3789000000000,"state":"active","ping":43},{"user_id":790,"name":"magnofajo","steam_id":76561199066981192,"connected_time":322000000000,"state":"active","ping":80},{"user_id":789,"name":"torn","steam_id":76561198223003236,"connected_time":332000000000,"state":"active","ping":64},{"user_id":791,"name":"Rudoss","steam_id":76561198018415787,"connected_time":302000000000,"state":"active","ping":75},{"user_id":777,"name":"Alexander Maxwell Nox","steam_id":76561198936369385,"connected_time":1236000000000,"state":"active","ping":61},{"user_id":792,"name":"quack","steam_id":76561198121003465,"connected_time":293000000000,"state":"active","ping":52},{"user_id":793,"name":"waffle toaster","steam_id":76561198799089628,"connected_time":290000000000,"state":"active","ping":50},{"user_id":794,"name":"Jiggly","steam_id":76561198435222286,"connected_time":260000000000,"state":"active","ping":121},{"user_id":795,"name":"BreadBaubbles","steam_id":76561198174332826,"connected_time":250000000000,"state":"active","ping":58},{"user_id":802,"name":"Mr_Pulse_","steam_id":76561198095001602,"connected_time":113000000000,"state":"active","ping":97},{"user_id":788,"name":"Doban","steam_id":76561198120725637,"connected_time":534000000000,"state":"active","ping":52},{"user_id":797,"name":"plunk","steam_id":76561198151987364,"connected_time":191000000000,"state":"active","ping":58},{"user_id":798,"name":"I love femboys","steam_id":76561198196357213,"connected_time":179000000000,"state":"active","ping":82},{"user_id":799,"name":"23","steam_id":76561198149347502,"connected_time":149000000000,"state":"active","ping":86},{"user_id":772,"name":"‚ú™ J4Ck0","steam_id":76561198094911581,"connected_time":1731000000000,"state":"active","ping":52},{"user_id":787,"name":"When Life gives you Lemons","steam_id":76561198318290663,"connected_time":567000000000,"state":"active","ping":59},{"user_id":786,"name":"Evildarkmirror","steam_id":76561198100511620,"connected_time":696000000000,"state":"active","ping":48},{"user_id":781,"name":"jones","steam_id":76561198073975078,"connected_time":1142000000000,"state":"active","ping":49},{"user_id":800,"name":"Milk","steam_id":76561198125876588,"connected_time":137000000000,"state":"active","ping":44},{"user_id":775,"name":"dec","steam_id":76561198009660168,"connected_time":1556000000000,"state":"active","ping":57},{"user_id":801,"name":"Trash Bandicoot","steam_id":76561198127596400,"connected_time":125000000000,"state":"active","ping":81},{"user_id":713,"name":"K√§pt'n","steam_id":76561198082347638,"connected_time":6354000000000,"state":"active","ping":69},{"user_id":805,"name":"azfofo2000","steam_id":76561199290889791,"connected_time":16000000000,"state":"spawning","ping":76},{"user_id":785,"name":"yee","steam_id":76561199232322781,"connected_time":933000000000,"state":"active","ping":66}]},{"server_id":114,"name":"Uncletopia | London | 2 | All Maps","name_short":"lon-2","host":"lon-1.uk.uncletopia.com","port":27025,"enabled":true,"region":"eu","cc":"gb","latitude":51.509865,"longitude":-0.118092,"reserved":0,"last_update":"0001-01-01T00:00:00Z","name_a2s":"Uncletopia | London | 2 | All Maps","protocol":17,"map":"pl_pier","folder":"tf","game":"Team Fortress","app_id":440,"player_count":16,"max_players":24,"Bots":0,"server_type":"Dedicated","server_os":"Linux","password":true,"vac":true,"version":"7742253","steam_id":85568392924470941,"keywords":["nocrits","nodmgspread","payload","uncletopia"],"game_id":440,"stv_port":27026,"stv_name":"Uncletopia | London | 2 | All Maps | STV","players":[{"user_id":507,"name":"TraBomb","steam_id":76561199214681788,"connected_time":1928000000000,"state":"active","ping":201},{"user_id":510,"name":"Honey_Darlin","steam_id":76561199437522058,"connected_time":1096000000000,"state":"active","ping":170},{"user_id":504,"name":"Multi","steam_id":76561197998338481,"connected_time":2634000000000,"state":"active","ping":65},{"user_id":527,"name":"Frazzles","steam_id":76561199228009586,"connected_time":153000000000,"state":"active","ping":40},{"user_id":513,"name":"Soviet Baked Beans","steam_id":76561198254192418,"connected_time":854000000000,"state":"active","ping":200},{"user_id":526,"name":"philsonhtc","steam_id":76561198416147770,"connected_time":248000000000,"state":"active","ping":48},{"user_id":524,"name":"Lewylow","steam_id":76561198005425686,"connected_time":328000000000,"state":"active","ping":56},{"user_id":529,"name":"E","steam_id":76561198166340115,"connected_time":74000000000,"state":"active","ping":50},{"user_id":518,"name":"OutOfDucks","steam_id":76561198166376227,"connected_time":522000000000,"state":"active","ping":53},{"user_id":468,"name":"Lightbulb Monkey","steam_id":76561198045033173,"connected_time":4358000000000,"state":"active","ping":47},{"user_id":438,"name":"Dr. Funkenstein","steam_id":76561197977816210,"connected_time":6385000000000,"state":"active","ping":64},{"user_id":520,"name":"stoicist","steam_id":76561197985213048,"connected_time":467000000000,"state":"active","ping":45},{"user_id":521,"name":"mily22XD","steam_id":76561198128765891,"connected_time":441000000000,"state":"active","ping":69},{"user_id":522,"name":"knypo22xd","steam_id":76561199021841178,"connected_time":424000000000,"state":"active","ping":79},{"user_id":530,"name":"Dkz","steam_id":76561197970673402,"connected_time":65000000000,"state":"active","ping":61},{"user_id":531,"name":"nem≈õs","steam_id":76561198134203031,"connected_time":0,"state":"spawning","ping":22}]},{"server_id":320,"name":"Uncletopia | London | 3 | All Maps","name_short":"lon-3","host":"lon-1.uk.uncletopia.com","port":27035,"enabled":true,"region":"eu","cc":"gb","latitude":51.509865,"longitude":-0.118092,"reserved":0,"last_update":"0001-01-01T00:00:00Z","name_a2s":"Uncletopia | London | 3 | All Maps","protocol":17,"map":"pl_pier","folder":"tf","game":"Team Fortress","app_id":440,"player_count":24,"max_players":24,"Bots":0,"server_type":"Dedicated","server_os":"Linux","password":true,"vac":true,"version":"7742253","steam_id":85568392924510192,"keywords":["nocrits","nodmgspread","payload","uncletopia"],"game_id":440,"stv_port":27036,"stv_name":"Uncletopia | London | 3 | All Maps | STV","players":[{"user_id":294,"name":"festive xavier :)","steam_id":76561198076494034,"connected_time":23000000000,"state":"active","ping":49},{"user_id":237,"name":"St_dark","steam_id":76561199101198710,"connected_time":3409000000000,"state":"active","ping":66},{"user_id":275,"name":"Lag","steam_id":76561198159360376,"connected_time":1685000000000,"state":"active","ping":35},{"user_id":285,"name":"Zigguski","steam_id":76561198022990016,"connected_time":984000000000,"state":"active","ping":50},{"user_id":287,"name":"teafordinner","steam_id":76561198407958876,"connected_time":909000000000,"state":"active","ping":33},{"user_id":272,"name":"Economic crisis","steam_id":76561198063562843,"connected_time":1900000000000,"state":"active","ping":62},{"user_id":293,"name":"Vershal Smershal","steam_id":76561198116223995,"connected_time":89000000000,"state":"active","ping":55},{"user_id":259,"name":"ralph62x","steam_id":76561198865294231,"connected_time":2579000000000,"state":"active","ping":55},{"user_id":290,"name":"marpez","steam_id":76561199127271263,"connected_time":690000000000,"state":"active","ping":74},{"user_id":192,"name":"Truck-Sama's Victim","steam_id":76561198826861582,"connected_time":6339000000000,"state":"active","ping":70},{"user_id":276,"name":"Final_MarioXD","steam_id":76561199184862419,"connected_time":1665000000000,"state":"active","ping":167},{"user_id":284,"name":"Dominus.","steam_id":76561199065917088,"connected_time":1007000000000,"state":"active","ping":66},{"user_id":266,"name":"Toofy","steam_id":76561197989727907,"connected_time":2175000000000,"state":"active","ping":37},{"user_id":269,"name":"top 5 trol (you wont believe #2","steam_id":76561198203486600,"connected_time":1999000000000,"state":"active","ping":45},{"user_id":263,"name":"Lernix","steam_id":76561198382328645,"connected_time":2445000000000,"state":"active","ping":65},{"user_id":291,"name":"Gandalf","steam_id":76561199072668363,"connected_time":678000000000,"state":"active","ping":83},{"user_id":282,"name":"Yangus","steam_id":76561198147796010,"connected_time":1044000000000,"state":"active","ping":53},{"user_id":277,"name":"Le Chevalier Pingouin","steam_id":76561198221355000,"connected_time":1647000000000,"state":"active","ping":41},{"user_id":279,"name":"Rizzy","steam_id":76561198164237267,"connected_time":1442000000000,"state":"active","ping":80},{"user_id":288,"name":"ALARM","steam_id":76561198120686521,"connected_time":879000000000,"state":"active","ping":63},{"user_id":254,"name":"Wyvern786","steam_id":76561199137770636,"connected_time":2963000000000,"state":"active","ping":49},{"user_id":280,"name":"agarcjay20","steam_id":76561198980114292,"connected_time":1315000000000,"state":"active","ping":144},{"user_id":289,"name":"punk","steam_id":76561199053880024,"connected_time":828000000000,"state":"active","ping":56},{"user_id":274,"name":"masutaaa","steam_id":76561198072233046,"connected_time":1843000000000,"state":"active","ping":78}]},{"server_id":321,"name":"Uncletopia | London | 4 | All Maps","name_short":"lon-4","host":"lon-1.uk.uncletopia.com","port":27045,"enabled":true,"region":"eu","cc":"gb","latitude":51.509865,"longitude":-0.118092,"reserved":0,"last_update":"0001-01-01T00:00:00Z","name_a2s":"Uncletopia | London | 4 | All Maps","protocol":17,"map":"pl_pier","folder":"tf","game":"Team Fortress","app_id":440,"player_count":24,"max_players":24,"Bots":0,"server_type":"Dedicated","server_os":"Linux","password":true,"vac":true,"version":"7742253","steam_id":85568392924510193,"keywords":["nocrits","nodmgspread","payload","uncletopia"],"game_id":440,"stv_port":27046,"stv_name":"Uncletopia | London | 4 | All Maps | STV","players":[{"user_id":641,"name":"timothytreestand-041165","steam_id":76561197995676953,"connected_time":322000000000,"state":"active","ping":61},{"user_id":574,"name":"Fat Pigeon","steam_id":76561198817940142,"connected_time":4971000000000,"state":"active","ping":45},{"user_id":573,"name":"mt","steam_id":76561197961319303,"connected_time":5229000000000,"state":"active","ping":60},{"user_id":614,"name":"Blondie","steam_id":76561198080631634,"connected_time":1572000000000,"state":"active","ping":54},{"user_id":633,"name":"ShoobyDooby","steam_id":76561198118473910,"connected_time":746000000000,"state":"active","ping":49},{"user_id":624,"name":"Eteron","steam_id":76561198132835817,"connected_time":1405000000000,"state":"active","ping":89},{"user_id":581,"name":"GinoFastidio","steam_id":76561198075830259,"connected_time":4167000000000,"state":"active","ping":127},{"user_id":637,"name":"benny","steam_id":76561198053394831,"connected_time":373000000000,"state":"active","ping":68},{"user_id":490,"name":"Grey","steam_id":76561198187190267,"connected_time":11412000000000,"state":"active","ping":50},{"user_id":500,"name":"Pipper","steam_id":76561197970326616,"connected_time":10510000000000,"state":"active","ping":53},{"user_id":599,"name":"–î—è–¥—è –ì–µ–π–º–µ—Ä","steam_id":76561198053440057,"connected_time":2281000000000,"state":"active","ping":94},{"user_id":600,"name":"vertigo philosopher","steam_id":76561198034514694,"connected_time":2263000000000,"state":"active","ping":97},{"user_id":638,"name":"Lennox","steam_id":76561198069063554,"connected_time":361000000000,"state":"active","ping":59},{"user_id":613,"name":"Jar","steam_id":76561198156384007,"connected_time":1635000000000,"state":"active","ping":51},{"user_id":640,"name":"Kaj","steam_id":76561198093230963,"connected_time":349000000000,"state":"active","ping":43},{"user_id":643,"name":"AdrianMc","steam_id":76561198271830248,"connected_time":287000000000,"state":"active","ping":81},{"user_id":644,"name":"Burrito","steam_id":76561198023919089,"connected_time":150000000000,"state":"active","ping":71},{"user_id":603,"name":"Samwise","steam_id":76561198160115838,"connected_time":1971000000000,"state":"active","ping":48},{"user_id":623,"name":"D_Ink","steam_id":76561198267716662,"connected_time":1471000000000,"state":"active","ping":45},{"user_id":627,"name":"needes0708","steam_id":76561199142075919,"connected_time":1176000000000,"state":"active","ping":119},{"user_id":642,"name":"Bohelor","steam_id":76561198135329948,"connected_time":308000000000,"state":"active","ping":90},{"user_id":625,"name":"Fart scent","steam_id":76561198126648050,"connected_time":1393000000000,"state":"active","ping":89},{"user_id":635,"name":"UnKn0wN'!","steam_id":76561198012223271,"connected_time":468000000000,"state":"active","ping":59},{"user_id":620,"name":"Clover","steam_id":76561198315908102,"connected_time":1496000000000,"state":"active","ping":54}]},{"server_id":21,"name":"Uncletopia | London | 5 | All Maps","name_short":"lon-5","host":"lon-1.uk.uncletopia.com","port":27055,"enabled":true,"region":"eu","cc":"gb","latitude":51.509865,"longitude":-0.118092,"reserved":0,"last_update":"0001-01-01T00:00:00Z","name_a2s":"Uncletopia | London | 5 | All Maps","protocol":17,"map":"koth_cascade","folder":"tf","game":"Team Fortress","app_id":440,"player_count":0,"max_players":24,"Bots":0,"server_type":"Dedicated","server_os":"Linux","password":true,"vac":true,"version":"7742253","steam_id":85568392924742829,"keywords":["cp","nocrits","nodmgspread","uncletopia"],"game_id":440,"stv_port":27056,"stv_name":"Uncletopia | London | 5 | All Maps | STV","players":null},{"server_id":22,"name":"Uncletopia | London | 6 | All Maps","name_short":"lon-6","host":"lon-1.uk.uncletopia.com","port":27065,"enabled":true,"region":"eu","cc":"gb","latitude":51.509865,"longitude":-0.118092,"reserved":0,"last_update":"0001-01-01T00:00:00Z","name_a2s":"Uncletopia | London | 6 | All Maps","protocol":17,"map":"koth_highpass","folder":"tf","game":"Team Fortress","app_id":440,"player_count":0,"max_players":24,"Bots":0,"server_type":"Dedicated","server_os":"Linux","password":true,"vac":true,"version":"7742253","steam_id":85568392924742830,"keywords":["cp","nocrits","nodmgspread","uncletopia"],"game_id":440,"stv_port":27066,"stv_name":"Uncletopia | London | 6 | All Maps | STV","players":null},{"server_id":40,"name":"Uncletopia | London | 7 | No Payload","name_short":"lon-7","host":"lon-1.uk.uncletopia.com","port":27075,"enabled":true,"region":"eu","cc":"gb","latitude":51.509865,"longitude":-0.118092,"reserved":0,"last_update":"0001-01-01T00:00:00Z","name_a2s":"Uncletopia | London | 7 | No Payload","protocol":17,"map":"plr_hightower","folder":"tf","game":"Team Fortress","app_id":440,"player_count":1,"max_players":24,"Bots":0,"server_type":"Dedicated","server_os":"Linux","password":true,"vac":true,"version":"7742253","steam_id":85568392924964314,"keywords":["nocrits","nodmgspread","payload","uncletopia"],"game_id":440,"stv_port":27076,"stv_name":"Uncletopia | London | 7 | No Payload | STV","players":[{"user_id":12,"name":"Phalcon","steam_id":76561197987051394,"connected_time":464000000000,"state":"active","ping":75}]},{"server_id":41,"name":"Uncletopia | London | 8 | Community","name_short":"lon-8","host":"lon-1.uk.uncletopia.com","port":27085,"enabled":true,"region":"eu","cc":"gb","latitude":51.509865,"longitude":-0.118092,"reserved":0,"last_update":"0001-01-01T00:00:00Z","name_a2s":"Uncletopia | London | 8 | Community","protocol":17,"map":"workshop/koth_ramjam_v2_b2.ugc2865676487","folder":"tf","game":"Team Fortress","app_id":440,"player_count":0,"max_players":24,"Bots":0,"server_type":"Dedicated","server_os":"Linux","password":true,"vac":true,"version":"7742253","steam_id":85568392924964315,"keywords":["cp","nocrits","nodmgspread","uncletopia"],"game_id":440,"stv_port":27086,"stv_name":"Uncletopia | London | 8 | Community | STV","players":null},{"server_id":300,"name":"Uncletopia | Montr√©al | 1 | All Maps","name_short":"mtl-1","host":"mtl-1.ca.uncletopia.com","port":27015,"enabled":true,"region":"us-east","cc":"ca","latitude":45.50889,"longitude":-73.56167,"reserved":0,"last_update":"0001-01-01T00:00:00Z","name_a2s":"Uncletopia | Montr√©al | 1 | All Maps","protocol":17,"map":"koth_lakeside_final","folder":"tf","game":"Team Fortress","app_id":440,"player_count":0,"max_players":24,"Bots":0,"server_type":"Dedicated","server_os":"Linux","password":true,"vac":true,"version":"7742253","steam_id":85568392924500087,"keywords":["cp","nocrits","nodmgspread","uncletopia"],"game_id":440,"stv_port":27016,"stv_name":"Uncletopia | Montr√©al | 1 | All Maps | STV","players":null},{"server_id":301,"name":"Uncletopia | Montr√©al | 2 | All Maps","name_short":"mtl-2","host":"mtl-1.ca.uncletopia.com","port":27025,"enabled":true,"region":"us-east","cc":"ca","latitude":45.50889,"longitude":-73.56167,"reserved":0,"last_update":"0001-01-01T00:00:00Z","name_a2s":"Uncletopia | Montr√©al | 2 | All Maps","protocol":17,"map":"koth_lakeside_final","folder":"tf","game":"Team Fortress","app_id":440,"player_count":0,"max_players":24,"Bots":0,"server_type":"Dedicated","server_os":"Linux","password":true,"vac":true,"version":"7742253","steam_id":85568392924500088,"keywords":["cp","nocrits","nodmgspread","uncletopia"],"game_id":440,"stv_port":27026,"stv_name":"Uncletopia | Montr√©al | 2 | All Maps | STV","players":null},{"server_id":302,"name":"Uncletopia | Montr√©al | 3 | All Maps","name_short":"mtl-3","host":"mtl-1.ca.uncletopia.com","port":27035,"enabled":true,"region":"us-east","cc":"ca","latitude":45.50889,"longitude":-73.56167,"reserved":0,"last_update":"0001-01-01T00:00:00Z","name_a2s":"Uncletopia | Montr√©al | 3 | All Maps","protocol":17,"map":"pl_badwater","folder":"tf","game":"Team Fortress","app_id":440,"player_count":0,"max_players":24,"Bots":0,"server_type":"Dedicated","server_os":"Linux","password":true,"vac":true,"version":"7742253","steam_id":85568392924500089,"keywords":["nocrits","nodmgspread","payload","uncletopia"],"game_id":440,"stv_port":27036,"stv_name":"Uncletopia | Montr√©al | 3 | All Maps | STV","players":null},{"server_id":303,"name":"Uncletopia | Montr√©al | 4 | No Payload","name_short":"mtl-4","host":"mtl-1.ca.uncletopia.com","port":27045,"enabled":true,"region":"us-east","cc":"ca","latitude":45.50889,"longitude":-73.56167,"reserved":0,"last_update":"0001-01-01T00:00:00Z","name_a2s":"Uncletopia | Montr√©al | 4 | No Payload","protocol":17,"map":"koth_highpass","folder":"tf","game":"Team Fortress","app_id":440,"player_count":0,"max_players":24,"Bots":0,"server_type":"Dedicated","server_os":"Linux","password":true,"vac":true,"version":"7742253","steam_id":85568392924500090,"keywords":["cp","nocrits","nodmgspread","uncletopia"],"game_id":440,"stv_port":27046,"stv_name":"Uncletopia | Montr√©al | 4 | No Payload | STV","players":null},{"server_id":13,"name":"Uncletopia | New York City | 1 | All Maps","name_short":"nyc-1","host":"nyc-1.us.uncletopia.com","port":27015,"enabled":true,"region":"us-east","cc":"us","latitude":40.73061,"longitude":-73.93524,"reserved":0,"last_update":"0001-01-01T00:00:00Z","name_a2s":"Uncletopia | New York City | 1 | All Maps","protocol":17,"map":"pl_badwater","folder":"tf","game":"Team Fortress","app_id":440,"player_count":24,"max_players":24,"Bots":0,"server_type":"Dedicated","server_os":"Linux","password":true,"vac":true,"version":"7742253","steam_id":85568392924469993,"keywords":["nocrits","nodmgspread","payload","uncletopia"],"game_id":440,"stv_port":27016,"stv_name":"Uncletopia | New York City | 1 | All Maps | STV","players":[{"user_id":360,"name":"JPSS","steam_id":76561199239530493,"connected_time":96000000000,"state":"active","ping":111},{"user_id":263,"name":"Mirari","steam_id":76561198126889358,"connected_time":8236000000000,"state":"active","ping":64},{"user_id":336,"name":"6ix *","steam_id":76561198415484497,"connected_time":2723000000000,"state":"active","ping":168},{"user_id":341,"name":"Dr. Enforcicle (real)","steam_id":76561198964471859,"connected_time":1856000000000,"state":"active","ping":56},{"user_id":356,"name":"thatguytheman","steam_id":76561199043602830,"connected_time":909000000000,"state":"active","ping":47},{"user_id":342,"name":"thomasdee725","steam_id":76561199189526173,"connected_time":1836000000000,"state":"active","ping":57},{"user_id":322,"name":"Wahooka (Manrobics Instructor)","steam_id":76561197962240925,"connected_time":3663000000000,"state":"active","ping":56},{"user_id":350,"name":"SquipSquap","steam_id":76561198295884253,"connected_time":1527000000000,"state":"active","ping":68},{"user_id":264,"name":"SuperJagops","steam_id":76561198034689716,"connected_time":8222000000000,"state":"active","ping":48},{"user_id":343,"name":"yeah","steam_id":76561198051928674,"connected_time":1827000000000,"state":"active","ping":39},{"user_id":344,"name":"ChebJeb","steam_id":76561198981377081,"connected_time":1780000000000,"state":"active","ping":52},{"user_id":351,"name":"The Hoagie Hero","steam_id":76561198057569298,"connected_time":1511000000000,"state":"active","ping":71},{"user_id":347,"name":"StuartBell511","steam_id":76561198060931721,"connected_time":1675000000000,"state":"active","ping":48},{"user_id":339,"name":"Draconic Ballad","steam_id":76561198027191515,"connected_time":1965000000000,"state":"active","ping":56},{"user_id":365,"name":"gnome","steam_id":76561198262275475,"connected_time":48000000000,"state":"active","ping":63},{"user_id":363,"name":"no moniter? monitor? idk","steam_id":76561198070903458,"connected_time":71000000000,"state":"active","ping":60},{"user_id":209,"name":"PizzaPasta","steam_id":76561199125109082,"connected_time":11482000000000,"state":"active","ping":56},{"user_id":357,"name":"Fat Man","steam_id":76561198118957055,"connected_time":693000000000,"state":"active","ping":40},{"user_id":349,"name":"TheRealJoeRogan","steam_id":76561198283860203,"connected_time":1549000000000,"state":"active","ping":124},{"user_id":364,"name":"giant_dork","steam_id":76561199105606956,"connected_time":71000000000,"state":"active","ping":51},{"user_id":353,"name":"Stimm","steam_id":76561198119033986,"connected_time":1477000000000,"state":"active","ping":46},{"user_id":331,"name":"based housewife","steam_id":76561198066812433,"connected_time":3351000000000,"state":"active","ping":56},{"user_id":354,"name":"JoƒÅnKisaragi‚±Ω‚Å∞","steam_id":76561199370650064,"connected_time":1459000000000,"state":"active","ping":140},{"user_id":366,"name":"FUNNY JOKE(pls laugh)","steam_id":76561199070877046,"connected_time":29000000000,"state":"active","ping":108}]},{"server_id":14,"name":"Uncletopia | New York City | 2 | All Maps","name_short":"nyc-2","host":"nyc-1.us.uncletopia.com","port":27025,"enabled":true,"region":"us-east","cc":"us","latitude":40.73061,"longitude":-73.93524,"reserved":0,"last_update":"0001-01-01T00:00:00Z","name_a2s":"Uncletopia | New York City | 2 | All Maps","protocol":17,"map":"pl_upward","folder":"tf","game":"Team Fortress","app_id":440,"player_count":24,"max_players":24,"Bots":0,"server_type":"Dedicated","server_os":"Linux","password":true,"vac":true,"version":"7742253","steam_id":85568392924469994,"keywords":["nocrits","nodmgspread","payload","uncletopia"],"game_id":440,"stv_port":27026,"stv_name":"Uncletopia | New York City | 2 | All Maps | STV","players":[{"user_id":310,"name":"recovering bleachaholic","steam_id":76561198044935308,"connected_time":637000000000,"state":"active","ping":81},{"user_id":323,"name":"Bouquet","steam_id":76561198155872356,"connected_time":139000000000,"state":"active","ping":34},{"user_id":311,"name":"blue sweater","steam_id":76561198986175272,"connected_time":633000000000,"state":"active","ping":55},{"user_id":290,"name":"BlazeHX","steam_id":76561198827408017,"connected_time":2427000000000,"state":"active","ping":82},{"user_id":324,"name":"creeek \u003c:","steam_id":76561198075027962,"connected_time":6000000000,"state":"spawning","ping":88},{"user_id":294,"name":"Soap","steam_id":76561198074619142,"connected_time":2318000000000,"state":"active","ping":72},{"user_id":314,"name":"walrus","steam_id":76561198072378066,"connected_time":510000000000,"state":"active","ping":76},{"user_id":272,"name":"cremeoner","steam_id":76561198372332251,"connected_time":4049000000000,"state":"active","ping":35},{"user_id":295,"name":"Nic0","steam_id":76561198305690218,"connected_time":2297000000000,"state":"active","ping":56},{"user_id":270,"name":"Finger (Real)","steam_id":76561198406094935,"connected_time":4113000000000,"state":"active","ping":53},{"user_id":287,"name":"The Lonely Croc","steam_id":76561198123241396,"connected_time":2567000000000,"state":"active","ping":93},{"user_id":321,"name":"coffee bagel","steam_id":76561198141198352,"connected_time":271000000000,"state":"active","ping":61},{"user_id":313,"name":"DagyDin","steam_id":76561199212257554,"connected_time":569000000000,"state":"active","ping":76},{"user_id":315,"name":"Frisk","steam_id":76561198052242537,"connected_time":500000000000,"state":"active","ping":82},{"user_id":298,"name":"n8thegr83008","steam_id":76561198214814260,"connected_time":2223000000000,"state":"active","ping":77},{"user_id":316,"name":"Irregulars","steam_id":76561198048498230,"connected_time":459000000000,"state":"active","ping":45},{"user_id":43,"name":"des","steam_id":76561198079226634,"connected_time":20679000000000,"state":"active","ping":63},{"user_id":317,"name":"hoovy main","steam_id":76561198367956060,"connected_time":381000000000,"state":"active","ping":158},{"user_id":259,"name":"Big Yoshi","steam_id":76561199160576376,"connected_time":5177000000000,"state":"active","ping":130},{"user_id":306,"name":"CBTgaeming","steam_id":76561199089290128,"connected_time":1479000000000,"state":"active","ping":137},{"user_id":303,"name":"Festive Psycho","steam_id":76561198064615020,"connected_time":1811000000000,"state":"active","ping":73},{"user_id":300,"name":"festivestuntman","steam_id":76561198056911537,"connected_time":2217000000000,"state":"active","ping":61},{"user_id":322,"name":"euphy","steam_id":76561198990113466,"connected_time":194000000000,"state":"active","ping":85},{"user_id":320,"name":"Mr. E","steam_id":76561198289262787,"connected_time":324000000000,"state":"active","ping":97}]},{"server_id":15,"name":"Uncletopia | New York City | 3 | Stopwatch Beta","name_short":"nyc-3","host":"nyc-1.us.uncletopia.com","port":27035,"enabled":true,"region":"us-east","cc":"us","latitude":40.73061,"longitude":-73.93524,"reserved":0,"last_update":"0001-01-01T00:00:00Z","name_a2s":"Uncletopia | New York City | 3 | Stopwatch Beta","protocol":17,"map":"cp_altitude","folder":"tf","game":"Team Fortress","app_id":440,"player_count":0,"max_players":24,"Bots":0,"server_type":"Dedicated","server_os":"Linux","password":true,"vac":true,"version":"7742253","steam_id":85568392924742820,"keywords":["cp","nocrits","nodmgspread","uncletopia"],"game_id":440,"stv_port":27036,"stv_name":"Uncletopia | New York City | 3 | Stopwatch Beta | STV","players":null},{"server_id":16,"name":"Uncletopia | New York City | 4 | Community","name_short":"nyc-4","host":"nyc-1.us.uncletopia.com","port":27045,"enabled":true,"region":"us-east","cc":"us","latitude":40.73061,"longitude":-73.93524,"reserved":0,"last_update":"0001-01-01T00:00:00Z","name_a2s":"Uncletopia | New York City | 4 | Community","protocol":17,"map":"workshop/rd_asteroid_redux_rc9.ugc2154902912","folder":"tf","game":"Team Fortress","app_id":440,"player_count":0,"max_players":24,"Bots":0,"server_type":"Dedicated","server_os":"Linux","password":true,"vac":true,"version":"7742253","steam_id":85568392924742821,"keywords":["beta","nocrits","nodmgspread","rd","uncletopia"],"game_id":440,"stv_port":27046,"stv_name":"Uncletopia | New York City | 4 | Community | STV","players":null},{"server_id":142,"name":"Uncletopia | S√£o Paulo | 1 | All Maps","name_short":"sao-1","host":"sao-1.br.uncletopia.com","port":27015,"enabled":true,"region":"sa","cc":"br","latitude":-23.533773,"longitude":-46.62529,"reserved":0,"last_update":"0001-01-01T00:00:00Z","name_a2s":"Uncletopia | S√£o Paulo | 1 | All Maps","protocol":17,"map":"pl_badwater","folder":"tf","game":"Team Fortress","app_id":440,"player_count":1,"max_players":24,"Bots":0,"server_type":"Dedicated","server_os":"Linux","password":true,"vac":true,"version":"7742253","steam_id":85568392924469996,"keywords":["nocrits","nodmgspread","payload","uncletopia"],"game_id":440,"stv_port":27016,"stv_name":"Uncletopia | S√£o Paulo | 1 | All Maps | STV","players":[{"user_id":26,"name":"Stalin","steam_id":76561198073356694,"connected_time":359000000000,"state":"active","ping":61}]},{"server_id":143,"name":"Uncletopia | S√£o Paulo | 2 | All Maps","name_short":"sao-2","host":"sao-2.br.uncletopia.com","port":27015,"enabled":true,"region":"sa","cc":"br","latitude":-23.533773,"longitude":-46.62529,"reserved":0,"last_update":"0001-01-01T00:00:00Z","name_a2s":"Uncletopia | S√£o Paulo | 2 | All Maps","protocol":17,"map":"pl_frontier_final","folder":"tf","game":"Team Fortress","app_id":440,"player_count":0,"max_players":24,"Bots":0,"server_type":"Dedicated","server_os":"Linux","password":true,"vac":true,"version":"7742253","steam_id":85568392924485349,"keywords":["nocrits","nodmgspread","payload","uncletopia"],"game_id":440,"stv_port":27016,"stv_name":"Uncletopia | S√£o Paulo | 2 | All Maps | STV","players":null},{"server_id":7,"name":"Uncletopia | Seattle | 1 | All Maps","name_short":"sea-1","host":"sea-1.us.uncletopia.com","port":27015,"enabled":true,"region":"us-west","cc":"us","latitude":47.608013,"longitude":-122.33517,"reserved":0,"last_update":"0001-01-01T00:00:00Z","name_a2s":"Uncletopia | Seattle | 1 | All Maps","protocol":17,"map":"cp_mountainlab","folder":"tf","game":"Team Fortress","app_id":440,"player_count":24,"max_players":24,"Bots":0,"server_type":"Dedicated","server_os":"Linux","password":true,"vac":true,"version":"7742253","steam_id":85568392924469997,"keywords":["cp","nocrits","nodmgspread","uncletopia"],"game_id":440,"stv_port":27016,"stv_name":"Uncletopia | Seattle | 1 | All Maps | STV","players":[{"user_id":259,"name":"Soda","steam_id":76561198219209367,"connected_time":1587000000000,"state":"active","ping":52},{"user_id":258,"name":"Imitation Caucasian","steam_id":76561198320536166,"connected_time":1718000000000,"state":"active","ping":86},{"user_id":244,"name":"noraneko","steam_id":76561198025418738,"connected_time":2232000000000,"state":"active","ping":45},{"user_id":248,"name":"Puph 17","steam_id":76561198068928332,"connected_time":2127000000000,"state":"active","ping":145},{"user_id":132,"name":"WeAreTheSpirits","steam_id":76561198191555728,"connected_time":6645000000000,"state":"active","ping":60},{"user_id":212,"name":"Seriously Bruh","steam_id":76561198070408485,"connected_time":4168000000000,"state":"active","ping":62},{"user_id":238,"name":"Hotdoggiest","steam_id":76561198049420141,"connected_time":2866000000000,"state":"active","ping":78},{"user_id":249,"name":"Biosock Infiknit","steam_id":76561198072693794,"connected_time":2056000000000,"state":"active","ping":105},{"user_id":243,"name":"Common","steam_id":76561198041083863,"connected_time":2323000000000,"state":"active","ping":45},{"user_id":267,"name":":3 | ph0va_ \u003c3 sab","steam_id":76561198309010627,"connected_time":1064000000000,"state":"active","ping":75},{"user_id":268,"name":"flip","steam_id":76561198262478540,"connected_time":1058000000000,"state":"active","ping":104},{"user_id":265,"name":"thebestman982","steam_id":76561199001698710,"connected_time":1242000000000,"state":"active","ping":82},{"user_id":264,"name":"Dr. Karl, the AUS Science Guy","steam_id":76561198031278747,"connected_time":1265000000000,"state":"active","ping":45},{"user_id":269,"name":"VicLoL","steam_id":76561198045580784,"connected_time":1056000000000,"state":"active","ping":82},{"user_id":279,"name":"Howie‚Äôs friend Neil","steam_id":76561199090047549,"connected_time":781000000000,"state":"active","ping":93},{"user_id":241,"name":"Smile","steam_id":76561198110008786,"connected_time":2720000000000,"state":"active","ping":50},{"user_id":274,"name":"Rev","steam_id":76561199060355036,"connected_time":949000000000,"state":"active","ping":46},{"user_id":271,"name":"NGsterson","steam_id":76561198162108154,"connected_time":973000000000,"state":"active","ping":48},{"user_id":250,"name":"hack fraud","steam_id":76561198015036066,"connected_time":2050000000000,"state":"active","ping":90},{"user_id":272,"name":"OreoTheKitty","steam_id":76561198102934173,"connected_time":967000000000,"state":"active","ping":132},{"user_id":280,"name":"loppy","steam_id":76561198081870327,"connected_time":725000000000,"state":"active","ping":76},{"user_id":277,"name":"Ass Blaster, Disaster Master","steam_id":76561197997774469,"connected_time":912000000000,"state":"active","ping":74},{"user_id":283,"name":"River Rat","steam_id":76561198116383976,"connected_time":308000000000,"state":"active","ping":64},{"user_id":211,"name":"EatSomeBEES","steam_id":76561198047334307,"connected_time":4284000000000,"state":"active","ping":86}]},{"server_id":119,"name":"Uncletopia | Seattle | 2 | All Maps","name_short":"sea-2","host":"sea-1.us.uncletopia.com","port":27025,"enabled":true,"region":"us-west","cc":"us","latitude":47.608013,"longitude":-122.33517,"reserved":0,"last_update":"0001-01-01T00:00:00Z","name_a2s":"Uncletopia | Seattle | 2 | All Maps","protocol":17,"map":"pl_swiftwater_final1","folder":"tf","game":"Team Fortress","app_id":440,"player_count":1,"max_players":24,"Bots":0,"server_type":"Dedicated","server_os":"Linux","password":true,"vac":true,"version":"7742253","steam_id":85568392924469998,"keywords":["nocrits","nodmgspread","payload","uncletopia"],"game_id":440,"stv_port":27026,"stv_name":"Uncletopia | Seattle | 2 | All Maps | STV","players":[{"user_id":12,"name":"nfseskimo","steam_id":76561198078745666,"connected_time":28000000000,"state":"active","ping":45}]},{"server_id":406,"name":"Uncletopia | Seattle | 3 | Stopwatch Beta","name_short":"sea-3","host":"sea-1.us.uncletopia.com","port":27035,"enabled":true,"region":"us-west","cc":"us","latitude":47.608013,"longitude":-122.33517,"reserved":0,"last_update":"0001-01-01T00:00:00Z","name_a2s":"Uncletopia | Seattle | 3 | Stopwatch Beta","protocol":17,"map":"pl_upward","folder":"tf","game":"Team Fortress","app_id":440,"player_count":0,"max_players":24,"Bots":0,"server_type":"Dedicated","server_os":"Linux","password":true,"vac":false,"version":"7742253","steam_id":0,"keywords":["nocrits","nodmgspread","payload","uncletopia"],"game_id":440,"stv_port":27036,"stv_name":"Uncletopia | Seattle | 3 | Stopwatch Beta | STV","players":null},{"server_id":17,"name":"Uncletopia | San Francisco | 1 | All Maps","name_short":"sfo-1","host":"sfo-1.us.uncletopia.com","port":27015,"enabled":true,"region":"us-west","cc":"us","latitude":37.77397,"longitude":-122.4313,"reserved":0,"last_update":"0001-01-01T00:00:00Z","name_a2s":"Uncletopia | San Francisco | 1 | All Maps","protocol":17,"map":"koth_cascade","folder":"tf","game":"Team Fortress","app_id":440,"player_count":0,"max_players":24,"Bots":0,"server_type":"Dedicated","server_os":"Linux","password":true,"vac":true,"version":"7742253","steam_id":85568392924469999,"keywords":["cp","nocrits","nodmgspread","uncletopia"],"game_id":440,"stv_port":27016,"stv_name":"Uncletopia | San Francisco | 1 | All Maps | STV","players":null},{"server_id":18,"name":"Uncletopia | San Francisco | 2 | All Maps","name_short":"sfo-2","host":"sfo-1.us.uncletopia.com","port":27025,"enabled":true,"region":"us-west","cc":"us","latitude":37.77397,"longitude":-122.4313,"reserved":0,"last_update":"0001-01-01T00:00:00Z","name_a2s":"Uncletopia | San Francisco | 2 | All Maps","protocol":17,"map":"cp_granary","folder":"tf","game":"Team Fortress","app_id":440,"player_count":0,"max_players":24,"Bots":0,"server_type":"Dedicated","server_os":"Linux","password":true,"vac":true,"version":"7742253","steam_id":85568392924470000,"keywords":["cp","nocrits","nodmgspread","uncletopia"],"game_id":440,"stv_port":27026,"stv_name":"Uncletopia | San Francisco | 2 | All Maps | STV","players":null},{"server_id":19,"name":"Uncletopia | San Francisco | 3 | Stopwatch Beta","name_short":"sfo-3","host":"sfo-1.us.uncletopia.com","port":27035,"enabled":true,"region":"us-west","cc":"us","latitude":37.77397,"longitude":-122.4313,"reserved":0,"last_update":"0001-01-01T00:00:00Z","name_a2s":"Uncletopia | San Francisco | 3 | Stopwatch Beta","protocol":17,"map":"cp_snakewater_final1","folder":"tf","game":"Team Fortress","app_id":440,"player_count":0,"max_players":24,"Bots":0,"server_type":"Dedicated","server_os":"Linux","password":true,"vac":true,"version":"7742253","steam_id":85568392924742824,"keywords":["cp","nocrits","nodmgspread","uncletopia"],"game_id":440,"stv_port":27036,"stv_name":"Uncletopia | San Francisco | 3 | Stopwatch Beta | STV","players":null},{"server_id":20,"name":"Uncletopia | San Francisco | 4 | Community","name_short":"sfo-4","host":"sfo-1.us.uncletopia.com","port":27045,"enabled":true,"region":"us-west","cc":"us","latitude":37.77397,"longitude":-122.4313,"reserved":0,"last_update":"0001-01-01T00:00:00Z","name_a2s":"Uncletopia | San Francisco | 4 | Community","protocol":17,"map":"cp_altitude","folder":"tf","game":"Team Fortress","app_id":440,"player_count":0,"max_players":24,"Bots":0,"server_type":"Dedicated","server_os":"Linux","password":true,"vac":true,"version":"7742253","steam_id":85568392924742826,"keywords":["cp","nocrits","nodmgspread","uncletopia"],"game_id":440,"stv_port":27046,"stv_name":"Uncletopia | San Francisco | 4 | Community | STV","players":null},{"server_id":141,"name":"Uncletopia | Sydney | 1 | All Maps","name_short":"syd-1","host":"syd-1.au.uncletopia.com","port":27015,"enabled":true,"region":"au","cc":"au","latitude":-33.865143,"longitude":151.2099,"reserved":0,"last_update":"0001-01-01T00:00:00Z","name_a2s":"Uncletopia | Sydney | 1 | All Maps","protocol":17,"map":"pl_badwater","folder":"tf","game":"Team Fortress","app_id":440,"player_count":0,"max_players":24,"Bots":0,"server_type":"Dedicated","server_os":"Linux","password":true,"vac":true,"version":"7742253","steam_id":85568392924470001,"keywords":["nocrits","nodmgspread","payload","uncletopia"],"game_id":440,"stv_port":27016,"stv_name":"Uncletopia | Sydney | 1 | All Maps | STV","players":null},{"server_id":123,"name":"Uncletopia | Sydney | 2 | All Maps","name_short":"syd-2","host":"syd-1.au.uncletopia.com","port":27025,"enabled":true,"region":"au","cc":"au","latitude":-33.865143,"longitude":151.2099,"reserved":0,"last_update":"0001-01-01T00:00:00Z","name_a2s":"Uncletopia | Sydney | 2 | All Maps","protocol":17,"map":"pl_pier","folder":"tf","game":"Team Fortress","app_id":440,"player_count":0,"max_players":24,"Bots":0,"server_type":"Dedicated","server_os":"Linux","password":true,"vac":true,"version":"7742253","steam_id":85568392924470002,"keywords":["nocrits","nodmgspread","payload","uncletopia"],"game_id":440,"stv_port":27026,"stv_name":"Uncletopia | Sydney | 2 | All Maps | STV","players":null},{"server_id":395,"name":"Uncletopia | Sydney | 3 | All Maps","name_short":"syd-3","host":"syd-1.au.uncletopia.com","port":27035,"enabled":true,"region":"au","cc":"au","latitude":-33.865143,"longitude":151.2099,"reserved":0,"last_update":"0001-01-01T00:00:00Z","name_a2s":"Uncletopia | Sydney | 3 | All Maps","protocol":17,"map":"cp_dustbowl","folder":"tf","game":"Team Fortress","app_id":440,"player_count":0,"max_players":24,"Bots":0,"server_type":"Dedicated","server_os":"Linux","password":true,"vac":true,"version":"7742253","steam_id":85568392925194467,"keywords":["cp","nocrits","nodmgspread","uncletopia"],"game_id":440,"stv_port":27036,"stv_name":"Uncletopia | Sydney | 3 | All Maps | STV","players":null},{"server_id":396,"name":"Uncletopia | Sydney | 4 | All Maps","name_short":"syd-4","host":"syd-1.au.uncletopia.com","port":27045,"enabled":true,"region":"au","cc":"au","latitude":-33.865143,"longitude":151.2099,"reserved":0,"last_update":"0001-01-01T00:00:00Z","name_a2s":"Uncletopia | Sydney | 4 | All Maps","protocol":17,"map":"pl_borneo","folder":"tf","game":"Team Fortress","app_id":440,"player_count":0,"max_players":24,"Bots":0,"server_type":"Dedicated","server_os":"Linux","password":true,"vac":true,"version":"7742253","steam_id":85568392925397958,"keywords":["nocrits","nodmgspread","payload","uncletopia"],"game_id":440,"stv_port":27046,"stv_name":"Uncletopia | Sydney | 4 | All Maps | STV","players":null},{"server_id":58,"name":"Uncletopia | Sydney | 5 | Stopwatch Beta","name_short":"syd-5","host":"syd-1.au.uncletopia.com","port":27055,"enabled":true,"region":"au","cc":"au","latitude":-33.865143,"longitude":151.2099,"reserved":0,"last_update":"0001-01-01T00:00:00Z","name_a2s":"Uncletopia | Sydney | 5 | Stopwatch Beta","protocol":17,"map":"cp_snakewater_final1","folder":"tf","game":"Team Fortress","app_id":440,"player_count":0,"max_players":24,"Bots":0,"server_type":"Dedicated","server_os":"Linux","password":true,"vac":true,"version":"7742253","steam_id":85568392925397959,"keywords":["cp","nocrits","nodmgspread","uncletopia"],"game_id":440,"stv_port":27056,"stv_name":"Uncletopia | Sydney | 5 | Stopwatch Beta | STV","players":null},{"server_id":59,"name":"Uncletopia | Sydney | 6 | Community","name_short":"syd-6","host":"syd-1.au.uncletopia.com","port":27065,"enabled":true,"region":"au","cc":"au","latitude":-33.865143,"longitude":151.2099,"reserved":0,"last_update":"0001-01-01T00:00:00Z","name_a2s":"Uncletopia | Sydney | 6 | Community","protocol":17,"map":"cp_snakewater_final1","folder":"tf","game":"Team Fortress","app_id":440,"player_count":0,"max_players":24,"Bots":0,"server_type":"Dedicated","server_os":"Linux","password":true,"vac":true,"version":"7742253","steam_id":85568392925397960,"keywords":["cp","nocrits","nodmgspread","uncletopia"],"game_id":440,"stv_port":27066,"stv_name":"Uncletopia | Sydney | 6 | Community | STV","players":null},{"server_id":49,"name":"Uncletopia | Warsaw | 1 | All Maps","name_short":"waw-1","host":"waw-1.pl.uncletopia.com","port":27015,"enabled":true,"region":"eu","cc":"pl","latitude":52.2297,"longitude":21.017532,"reserved":0,"last_update":"0001-01-01T00:00:00Z","name_a2s":"","protocol":0,"map":"","folder":"","game":"","app_id":0,"player_count":0,"max_players":0,"Bots":0,"server_type":"","server_os":"","password":false,"vac":false,"version":"","steam_id":0,"keywords":null,"game_id":0,"stv_port":0,"stv_name":"","players":null},{"server_id":50,"name":"Uncletopia | Warsaw | 2 | All Maps","name_short":"waw-2","host":"waw-1.pl.uncletopia.com","port":27025,"enabled":true,"region":"eu","cc":"pl","latitude":52.2297,"longitude":21.017532,"reserved":0,"last_update":"0001-01-01T00:00:00Z","name_a2s":"Uncletopia | Warsaw | 2 | All Maps","protocol":17,"map":"pl_badwater","folder":"tf","game":"Team Fortress","app_id":440,"player_count":0,"max_players":24,"Bots":0,"server_type":"Dedicated","server_os":"Linux","password":true,"vac":true,"version":"7742253","steam_id":85568392925397851,"keywords":["nocrits","nodmgspread","payload","uncletopia"],"game_id":440,"stv_port":27026,"stv_name":"Uncletopia | Warsaw | 2 | All Maps | STV","players":null},{"server_id":51,"name":"Uncletopia | Warsaw | 3 | All Maps","name_short":"waw-3","host":"waw-1.pl.uncletopia.com","port":27035,"enabled":true,"region":"eu","cc":"pl","latitude":52.2297,"longitude":21.017532,"reserved":0,"last_update":"0001-01-01T00:00:00Z","name_a2s":"Uncletopia | Warsaw | 3 | All Maps","protocol":17,"map":"koth_cascade","folder":"tf","game":"Team Fortress","app_id":440,"player_count":0,"max_players":24,"Bots":0,"server_type":"Dedicated","server_os":"Linux","password":true,"vac":true,"version":"7742253","steam_id":85568392925397852,"keywords":["cp","nocrits","nodmgspread","uncletopia"],"game_id":440,"stv_port":27036,"stv_name":"Uncletopia | Warsaw | 3 | All Maps | STV","players":null},{"server_id":52,"name":"Uncletopia | Warsaw | 4 | All Maps","name_short":"waw-4","host":"waw-1.pl.uncletopia.com","port":27045,"enabled":true,"region":"eu","cc":"pl","latitude":52.2297,"longitude":21.017532,"reserved":0,"last_update":"0001-01-01T00:00:00Z","name_a2s":"Uncletopia | Warsaw | 4 | All Maps","protocol":17,"map":"koth_lakeside_final","folder":"tf","game":"Team Fortress","app_id":440,"player_count":0,"max_players":24,"Bots":0,"server_type":"Dedicated","server_os":"Linux","password":true,"vac":true,"version":"7742253","steam_id":85568392925397853,"keywords":["cp","nocrits","nodmgspread","uncletopia"],"game_id":440,"stv_port":27046,"stv_name":"Uncletopia | Warsaw | 4 | All Maps | STV","players":null},{"server_id":53,"name":"Uncletopia | Warsaw | 5 | Stopwatch Beta","name_short":"waw-5","host":"waw-1.pl.uncletopia.com","port":27055,"enabled":true,"region":"eu","cc":"pl","latitude":52.2297,"longitude":21.017532,"reserved":0,"last_update":"0001-01-01T00:00:00Z","name_a2s":"Uncletopia | Warsaw | 5 | Stopwatch Beta","protocol":17,"map":"pl_pier","folder":"tf","game":"Team Fortress","app_id":440,"player_count":3,"max_players":24,"Bots":0,"server_type":"Dedicated","server_os":"Linux","password":true,"vac":true,"version":"7742253","steam_id":85568392925397854,"keywords":["nocrits","nodmgspread","payload","uncletopia"],"game_id":440,"stv_port":27056,"stv_name":"Uncletopia | Warsaw | 5 | Stopwatch Beta | STV","players":[{"user_id":5,"name":"Coco Melon Death mode","steam_id":76561199060696802,"connected_time":1301000000000,"state":"active","ping":209},{"user_id":7,"name":"devanreid10","steam_id":76561199228829232,"connected_time":1232000000000,"state":"active","ping":216},{"user_id":14,"name":"giovanniollivierre213","steam_id":76561199262547370,"connected_time":1109000000000,"state":"active","ping":220}]},{"server_id":54,"name":"Uncletopia | Warsaw | 6 | Community","name_short":"waw-6","host":"waw-1.pl.uncletopia.com","port":27065,"enabled":true,"region":"eu","cc":"pl","latitude":52.2297,"longitude":21.017532,"reserved":0,"last_update":"0001-01-01T00:00:00Z","name_a2s":"Uncletopia | Warsaw | 6 | Community","protocol":17,"map":"workshop/koth_synthetic_rc6a.ugc1549817316","folder":"tf","game":"Team Fortress","app_id":440,"player_count":0,"max_players":24,"Bots":0,"server_type":"Dedicated","server_os":"Linux","password":true,"vac":true,"version":"7742253","steam_id":85568392925397856,"keywords":["cp","nocrits","nodmgspread","uncletopia"],"game_id":440,"stv_port":27066,"stv_name":"Uncletopia | Warsaw | 6 | Community | STV","players":null}]}