{"status":true,"message":"","result":[{"server_id":2,"name":"Uncletopia | Chicago | 1 | All Maps","name_short":"chi-1","host":"chi-1.us.uncletopia.com","port":27015,"enabled":true,"region":"us-central","cc":"us","latitude":41.881832,"longitude":-87.62318,"reserved":0,"last_update":"0001-01-01T00:00:00Z","name_a2s":"Uncletopia | Chicago | 1 | All Maps","protocol":17,"map":"pl_pier","folder":"tf","game":"Team Fortress","app_id":440,"player_count":24,"max_players":24,"Bots":0,"server_type":"Dedicated","server_os":"Linux","password":true,"vac":true,"version":"7961495","steam_id":85568392924469984,"keywords":["nocrits","nodmgspread","payload","uncletopia"],"game_id":440,"stv_port":27016,"stv_name":"Uncletopia | Chicago | 1 | All Maps | STV","players":[{"user_id":223,"name":"Aristotle Voulton","steam_id":76561198100174923,"connected_time":406000000000,"state":"spawning","ping":103},{"user_id":224,"name":"Temujin","steam_id":76561198030936583,"connected_time":403000000000,"state":"spawning","ping":91},{"user_id":200,"name":"Sigiferd","steam_id":76561198148788110,"connected_time":2060000000000,"state":"spawning","ping":216},{"user_id":201,"name":"jimmyfnaf172198yay","steam_id":76561198311446636,"connected_time":2040000000000,"state":"spawning","ping":116},{"user_id":221,"name":"Space","steam_id":76561198350489754,"connected_time":498000000000,"state":"spawning","ping":94},{"user_id":187,"name":"Jobius","steam_id":76561198145561348,"connected_time":3077000000000,"state":"spawning","ping":87},{"user_id":219,"name":"lowtiergrapejuice-rng","steam_id":76561198093829623,"connected_time":553000000000,"state":"spawning","ping":168},{"user_id":228,"name":"cheese burger","steam_id":76561198999217575,"connected_time":23000000000,"state":"connecting","ping":51},{"user_id":226,"name":"jerma but crying and lesbian","steam_id":76561198110661425,"connected_time":267000000000,"state":"spawning","ping":120},{"user_id":214,"name":"Wagemage","steam_id":76561198013625580,"connected_time":897000000000,"state":"spawning","ping":56},{"user_id":202,"name":"i wish you obelisk","steam_id":76561198032482394,"connected_time":2032000000000,"state":"spawning","ping":172},{"user_id":212,"name":"aaaaaaaaaa","steam_id":76561198170172583,"connected_time":922000000000,"state":"spawning","ping":163},{"user_id":198,"name":"mr.edderkopper","steam_id":76561198152614478,"connected_time":2429000000000,"state":"spawning","ping":127},{"user_id":206,"name":"caption cool","steam_id":76561197990612056,"connected_time":1505000000000,"state":"spawning","ping":120},{"user_id":190,"name":"The Horny","steam_id":76561198863639459,"connected_time":3047000000000,"state":"spawning","ping":129},{"user_id":213,"name":"ChebJeb","steam_id":76561198981377081,"connected_time":909000000000,"state":"spawning","ping":114},{"user_id":182,"name":"Rainbeon","steam_id":76561198046150531,"connected_time":3318000000000,"state":"spawning","ping":112},{"user_id":197,"name":"Fantastic","steam_id":76561198079088978,"connected_time":2586000000000,"state":"spawning","ping":87},{"user_id":215,"name":"Captain Bug","steam_id":76561198137763878,"connected_time":881000000000,"state":"spawning","ping":106},{"user_id":229,"name":"Gnarly Shark Bite","steam_id":76561198004058342,"connected_time":22000000000,"state":"spawning","ping":86},{"user_id":166,"name":"ohio survivor","steam_id":76561198031675881,"connected_time":5556000000000,"state":"spawning","ping":66},{"user_id":193,"name":"Belloq","steam_id":76561198060279052,"connected_time":2991000000000,"state":"spawning","ping":93},{"user_id":203,"name":"MAESTEURETTE","steam_id":76561198957109745,"connected_time":2023000000000,"state":"spawning","ping":102},{"user_id":195,"name":"Astoriae!","steam_id":76561199090168858,"connected_time":2971000000000,"state":"spawning","ping":99}]},{"server_id":106,"name":"Uncletopia | Chicago | 2 | All Maps","name_short":"chi-2","host":"chi-1.us.uncletopia.com","port":27025,"enabled":true,"region":"us-central","cc":"us","latitude":41.881832,"longitude":-87.62318,"reserved":0,"last_update":"0001-01-01T00:00:00Z","name_a2s":"Uncletopia | Chicago | 2 | All Maps","protocol":17,"map":"pl_badwater","folder":"tf","game":"Team Fortress","app_id":440,"player_count":23,"max_players":24,"Bots":0,"server_type":"Dedicated","server_os":"Linux","password":true,"vac":true,"version":"7961495","steam_id":85568392924469985,"keywords":["nocrits","nodmgspread","payload","uncletopia"],"game_id":440,"stv_port":27026,"stv_name":"Uncletopia | Chicago | 2 | All Maps | STV","players":[{"user_id":272,"name":"paetho YT (new vid!)","steam_id":76561198152690003,"connected_time":1581000000000,"state":"active","ping":48},{"user_id":273,"name":"Creampie","steam_id":76561199007051562,"connected_time":1525000000000,"state":"active","ping":82},{"user_id":291,"name":"LerN","steam_id":76561198083463877,"connected_time":993000000000,"state":"active","ping":48},{"user_id":290,"name":"Dabbot","steam_id":76561199417800581,"connected_time":1065000000000,"state":"active","ping":69},{"user_id":255,"name":"chunguspilled","steam_id":76561198263122601,"connected_time":3620000000000,"state":"active","ping":48},{"user_id":275,"name":"i suffer from ligma","steam_id":76561199158496518,"connected_time":1436000000000,"state":"active","ping":121},{"user_id":297,"name":"Evaporated_373k","steam_id":76561199435266743,"connected_time":116000000000,"state":"active","ping":94},{"user_id":277,"name":"popfulmail","steam_id":76561198865971290,"connected_time":1345000000000,"state":"active","ping":78},{"user_id":284,"name":"Sparite","steam_id":76561198288743767,"connected_time":1245000000000,"state":"active","ping":105},{"user_id":267,"name":"biblee","steam_id":76561198283047842,"connected_time":2474000000000,"state":"active","ping":48},{"user_id":283,"name":"Tockbird","steam_id":76561199437964594,"connected_time":1247000000000,"state":"active","ping":110},{"user_id":294,"name":"GamingGeneral","steam_id":76561198872339275,"connected_time":288000000000,"state":"active","ping":63},{"user_id":271,"name":"Chezaus","steam_id":76561198317397837,"connected_time":1936000000000,"state":"active","ping":71},{"user_id":285,"name":"The Sinister Potion","steam_id":76561198131280715,"connected_time":1221000000000,"state":"active","ping":70},{"user_id":251,"name":"Weerk","steam_id":76561199209543551,"connected_time":3935000000000,"state":"active","ping":77},{"user_id":301,"name":"fried eggs","steam_id":76561198319442494,"connected_time":6000000000,"state":"spawning","ping":114},{"user_id":299,"name":"the michael jordan of drunk dri","steam_id":76561198111259720,"connected_time":68000000000,"state":"active","ping":60},{"user_id":295,"name":"FOOL","steam_id":76561198370866973,"connected_time":259000000000,"state":"active","ping":110},{"user_id":246,"name":"Ejaculation Zach","steam_id":76561198203765200,"connected_time":4524000000000,"state":"active","ping":60},{"user_id":300,"name":"Fresh0c0","steam_id":76561198271933283,"connected_time":61000000000,"state":"active","ping":61},{"user_id":215,"name":"WOOFWOOFWOOFWOOF","steam_id":76561199208549381,"connected_time":8395000000000,"state":"active","ping":109},{"user_id":288,"name":"DiGiorno's Pizza","steam_id":76561198142244035,"connected_time":1125000000000,"state":"active","ping":50},{"user_id":289,"name":"Skinny pete","steam_id":76561198801608576,"connected_time":1123000000000,"state":"active","ping":74}]},{"server_id":402,"name":"Uncletopia | Chicago | 3 | All Maps","name_short":"chi-3","host":"chi-1.us.uncletopia.com","port":27035,"enabled":true,"region":"us-central","cc":"us","latitude":41.881832,"longitude":-87.62318,"reserved":0,"last_update":"0001-01-01T00:00:00Z","name_a2s":"Uncletopia | Chicago | 3 | All Maps","protocol":17,"map":"cp_process_final","folder":"tf","game":"Team Fortress","app_id":440,"player_count":24,"max_players":24,"Bots":0,"server_type":"Dedicated","server_os":"Linux","password":true,"vac":true,"version":"7961495","steam_id":85568392924515191,"keywords":["cp","nocrits","nodmgspread","uncletopia"],"game_id":440,"stv_port":27036,"stv_name":"Uncletopia | Chicago | 3 | All Maps | STV","players":[{"user_id":135,"name":"Peachy","steam_id":76561198355191810,"connected_time":1594000000000,"state":"active","ping":64},{"user_id":102,"name":"shelovesme1984","steam_id":76561198196769297,"connected_time":3948000000000,"state":"active","ping":56},{"user_id":155,"name":"Femboy drywall enthusiast","steam_id":76561198864841966,"connected_time":524000000000,"state":"active","ping":93},{"user_id":110,"name":"DAX","steam_id":76561198189418762,"connected_time":3527000000000,"state":"active","ping":86},{"user_id":159,"name":"stan the man","steam_id":76561198979479709,"connected_time":349000000000,"state":"active","ping":45},{"user_id":109,"name":"MintyPawz","steam_id":76561198111430103,"connected_time":3541000000000,"state":"active","ping":86},{"user_id":160,"name":"State from Jake Farm","steam_id":76561199057309626,"connected_time":329000000000,"state":"active","ping":76},{"user_id":134,"name":"CF-TF2","steam_id":76561198145893044,"connected_time":1597000000000,"state":"active","ping":77},{"user_id":132,"name":"Smooth, Refreshing Bleach™","steam_id":76561197981060504,"connected_time":1604000000000,"state":"active","ping":48},{"user_id":123,"name":"o))))))))))))))","steam_id":76561198053967778,"connected_time":3020000000000,"state":"active","ping":69},{"user_id":164,"name":"TheSnipersHat","steam_id":76561198057684066,"connected_time":252000000000,"state":"active","ping":57},{"user_id":140,"name":"Nighttimerecorder","steam_id":76561198005857340,"connected_time":1242000000000,"state":"active","ping":100},{"user_id":141,"name":"dna$ty","steam_id":76561199060575719,"connected_time":1177000000000,"state":"active","ping":92},{"user_id":106,"name":"Wild_Rumpus","steam_id":76561198066393719,"connected_time":3652000000000,"state":"active","ping":55},{"user_id":161,"name":"metal fingers","steam_id":76561198823526581,"connected_time":321000000000,"state":"active","ping":72},{"user_id":125,"name":"MR. BEEEEEEEEEEEEEAAAAAAAAAAST","steam_id":76561198205346760,"connected_time":2658000000000,"state":"active","ping":46},{"user_id":143,"name":"Hihi3000","steam_id":76561198873454667,"connected_time":1151000000000,"state":"active","ping":80},{"user_id":162,"name":"sonikro","steam_id":76561197989428692,"connected_time":307000000000,"state":"active","ping":59},{"user_id":158,"name":"M","steam_id":76561198286792807,"connected_time":422000000000,"state":"active","ping":62},{"user_id":145,"name":"Ringo x Seiran","steam_id":76561198357437908,"connected_time":1054000000000,"state":"active","ping":60},{"user_id":146,"name":"Mephistopheles","steam_id":76561198253731826,"connected_time":1014000000000,"state":"active","ping":75},{"user_id":149,"name":"22moo","steam_id":76561199075331630,"connected_time":881000000000,"state":"active","ping":72},{"user_id":163,"name":"700,000 Jons in a Trenchcoat","steam_id":76561198424248616,"connected_time":283000000000,"state":"active","ping":128},{"user_id":99,"name":"Keymaster","steam_id":76561198881514228,"connected_time":4178000000000,"state":"active","ping":79}]},{"server_id":403,"name":"Uncletopia | Chicago | 4 | All Maps","name_short":"chi-4","host":"chi-1.us.uncletopia.com","port":27045,"enabled":true,"region":"us-central","cc":"us","latitude":41.881832,"longitude":-87.62318,"reserved":0,"last_update":"0001-01-01T00:00:00Z","name_a2s":"Uncletopia | Chicago | 4 | All Maps","protocol":17,"map":"pl_frontier_final","folder":"tf","game":"Team Fortress","app_id":440,"player_count":13,"max_players":24,"Bots":0,"server_type":"Dedicated","server_os":"Linux","password":true,"vac":true,"version":"7961495","steam_id":85568392924515193,"keywords":["nocrits","nodmgspread","payload","uncletopia"],"game_id":440,"stv_port":27046,"stv_name":"Uncletopia | Chicago | 4 | All Maps | STV","players":[{"user_id":589,"name":"Epifiny","steam_id":76561198027958086,"connected_time":227000000000,"state":"active","ping":71},{"user_id":590,"name":"LtSalte","steam_id":76561198004721081,"connected_time":171000000000,"state":"active","ping":75},{"user_id":366,"name":"the noise","steam_id":76561198358777210,"connected_time":7757000000000,"state":"active","ping":43},{"user_id":580,"name":"d4efeb","steam_id":76561198148098761,"connected_time":866000000000,"state":"active","ping":40},{"user_id":581,"name":"professional nonprofessional","steam_id":76561199200442395,"connected_time":836000000000,"state":"active","ping":171},{"user_id":591,"name":"sylvyy","steam_id":76561198976976583,"connected_time":167000000000,"state":"active","ping":76},{"user_id":592,"name":"E","steam_id":76561199482242524,"connected_time":89000000000,"state":"active","ping":194},{"user_id":458,"name":"Maid Knight","steam_id":76561198214370515,"connected_time":5706000000000,"state":"active","ping":69},{"user_id":332,"name":"INVEST IN SKYNET::get rich","steam_id":76561198144436132,"connected_time":9197000000000,"state":"active","ping":73},{"user_id":572,"name":"kasper","steam_id":76561198263271697,"connected_time":1575000000000,"state":"active","ping":34},{"user_id":587,"name":"Shrubbleson","steam_id":76561198274966390,"connected_time":501000000000,"state":"active","ping":92},{"user_id":588,"name":"crazygolfguy100","steam_id":76561198063099828,"connected_time":442000000000,"state":"active","ping":45},{"user_id":566,"name":"honor in defeat","steam_id":76561198013735714,"connected_time":2388000000000,"state":"active","ping":70}]},{"server_id":36,"name":"Uncletopia | Chicago | 5 | All Maps","name_short":"chi-5","host":"chi-2.us.uncletopia.com","port":27015,"enabled":true,"region":"us-central","cc":"us","latitude":41.881832,"longitude":-87.62318,"reserved":0,"last_update":"0001-01-01T00:00:00Z","name_a2s":"Uncletopia | Chicago | 5 | All Maps","protocol":17,"map":"koth_harvest_final","folder":"tf","game":"Team Fortress","app_id":440,"player_count":23,"max_players":24,"Bots":0,"server_type":"Dedicated","server_os":"Linux","password":true,"vac":true,"version":"7961495","steam_id":85568392924866362,"keywords":["cp","nocrits","nodmgspread","uncletopia"],"game_id":440,"stv_port":27016,"stv_name":"Uncletopia | Chicago | 5 | All Maps | STV","players":[{"user_id":104,"name":"Saristan","steam_id":76561198093346048,"connected_time":397000000000,"state":"active","ping":55},{"user_id":99,"name":"[#1 fan of women] bog","steam_id":76561198070975491,"connected_time":1343000000000,"state":"active","ping":70},{"user_id":101,"name":"Tibalt Nyahuma","steam_id":76561198034779431,"connected_time":909000000000,"state":"active","ping":73},{"user_id":82,"name":"rwrangler05","steam_id":76561198922899122,"connected_time":1872000000000,"state":"active","ping":98},{"user_id":79,"name":"Choccy Milk","steam_id":76561198085333480,"connected_time":2004000000000,"state":"active","ping":101},{"user_id":94,"name":"Rapscallion At Large","steam_id":76561198839205387,"connected_time":1588000000000,"state":"active","ping":66},{"user_id":95,"name":"Demonica","steam_id":76561198841858340,"connected_time":1584000000000,"state":"active","ping":63},{"user_id":107,"name":"Edwon","steam_id":76561198319902846,"connected_time":360000000000,"state":"active","ping":99},{"user_id":109,"name":"I Hate Teleporters","steam_id":76561198115594676,"connected_time":324000000000,"state":"active","ping":58},{"user_id":114,"name":"a narwhal","steam_id":76561198014527353,"connected_time":130000000000,"state":"active","ping":75},{"user_id":115,"name":"Big Poe","steam_id":76561198834244828,"connected_time":115000000000,"state":"active","ping":59},{"user_id":84,"name":"Asanez3","steam_id":76561198037381436,"connected_time":1862000000000,"state":"active","ping":75},{"user_id":85,"name":"helen keller","steam_id":76561197979870540,"connected_time":1849000000000,"state":"active","ping":45},{"user_id":106,"name":"That wasn't milk","steam_id":76561198155294045,"connected_time":380000000000,"state":"active","ping":76},{"user_id":98,"name":"com lag","steam_id":76561198019019392,"connected_time":1387000000000,"state":"active","ping":45},{"user_id":72,"name":"Rein","steam_id":76561198300340427,"connected_time":2842000000000,"state":"active","ping":62},{"user_id":111,"name":"fred","steam_id":76561199065834574,"connected_time":281000000000,"state":"active","ping":86},{"user_id":112,"name":"NeonBean","steam_id":76561198088335827,"connected_time":272000000000,"state":"active","ping":89},{"user_id":90,"name":"dak","steam_id":76561198076596506,"connected_time":1778000000000,"state":"active","ping":65},{"user_id":73,"name":"ThatGamingKiwi","steam_id":76561199170522237,"connected_time":2840000000000,"state":"active","ping":80},{"user_id":102,"name":"blue of days","steam_id":76561199113013688,"connected_time":853000000000,"state":"active","ping":97},{"user_id":113,"name":"the whale (2022)","steam_id":76561198095313463,"connected_time":264000000000,"state":"active","ping":60},{"user_id":54,"name":"Pluto","steam_id":76561198338593690,"connected_time":4541000000000,"state":"active","ping":76}]},{"server_id":37,"name":"Uncletopia | Chicago | 6 | All Maps","name_short":"chi-6","host":"chi-2.us.uncletopia.com","port":27025,"enabled":true,"region":"us-central","cc":"us","latitude":41.881832,"longitude":-87.62318,"reserved":0,"last_update":"0001-01-01T00:00:00Z","name_a2s":"Uncletopia | Chicago | 6 | All Maps","protocol":17,"map":"pl_upward","folder":"tf","game":"Team Fortress","app_id":440,"player_count":19,"max_players":24,"Bots":0,"server_type":"Dedicated","server_os":"Linux","password":true,"vac":true,"version":"7961495","steam_id":85568392924866363,"keywords":["nocrits","nodmgspread","payload","uncletopia"],"game_id":440,"stv_port":27026,"stv_name":"Uncletopia | Chicago | 6 | All Maps | STV","players":[{"user_id":152,"name":"You boys like Mexico?!","steam_id":76561198006569710,"connected_time":4873000000000,"state":"active","ping":79},{"user_id":200,"name":"Alex the doggo","steam_id":76561198031827407,"connected_time":986000000000,"state":"active","ping":87},{"user_id":203,"name":"Rodgedan","steam_id":76561198226236524,"connected_time":734000000000,"state":"active","ping":79},{"user_id":211,"name":"thatguy_luigi","steam_id":76561198968055462,"connected_time":143000000000,"state":"active","ping":125},{"user_id":205,"name":"Apetometrist","steam_id":76561198045391635,"connected_time":663000000000,"state":"active","ping":63},{"user_id":185,"name":"Soulidity","steam_id":76561198429603550,"connected_time":2066000000000,"state":"active","ping":67},{"user_id":189,"name":"czarchasm","steam_id":76561198055712749,"connected_time":1480000000000,"state":"active","ping":75},{"user_id":79,"name":"frank","steam_id":76561198137777483,"connected_time":10525000000000,"state":"active","ping":64},{"user_id":214,"name":"creeeeeee","steam_id":76561198392539722,"connected_time":127000000000,"state":"active","ping":77},{"user_id":197,"name":"Goose","steam_id":76561198328998533,"connected_time":1230000000000,"state":"active","ping":50},{"user_id":207,"name":"An Erect Penis :)","steam_id":76561198086477485,"connected_time":526000000000,"state":"active","ping":39},{"user_id":204,"name":"kiv","steam_id":76561198838223023,"connected_time":723000000000,"state":"active","ping":45},{"user_id":209,"name":"GVO. trouble!","steam_id":76561197996909425,"connected_time":458000000000,"state":"active","ping":106},{"user_id":210,"name":"PK","steam_id":76561198368722500,"connected_time":170000000000,"state":"active","ping":76},{"user_id":194,"name":"hammythegreat #SaveTF2","steam_id":76561198079526946,"connected_time":1353000000000,"state":"active","ping":92},{"user_id":136,"name":"daemon","steam_id":76561198001541433,"connected_time":6635000000000,"state":"active","ping":59},{"user_id":202,"name":"800x600","steam_id":76561198140014951,"connected_time":888000000000,"state":"active","ping":75},{"user_id":137,"name":"C Papi","steam_id":76561198027779564,"connected_time":6627000000000,"state":"active","ping":58},{"user_id":201,"name":"wahooka","steam_id":76561197981211922,"connected_time":937000000000,"state":"active","ping":76}]},{"server_id":38,"name":"Uncletopia | Chicago | 7 | Stopwatch Beta","name_short":"chi-7","host":"chi-2.us.uncletopia.com","port":27035,"enabled":true,"region":"us-central","cc":"us","latitude":41.881832,"longitude":-87.62318,"reserved":0,"last_update":"0001-01-01T00:00:00Z","name_a2s":"Uncletopia | Chicago | 7 | Stopwatch Beta","protocol":17,"map":"koth_lakeside_final","folder":"tf","game":"Team Fortress","app_id":440,"player_count":0,"max_players":24,"Bots":0,"server_type":"Dedicated","server_os":"Linux","password":true,"vac":true,"version":"7961495","steam_id":85568392924866364,"keywords":["cp","nocrits","nodmgspread","uncletopia"],"game_id":440,"stv_port":27036,"stv_name":"Uncletopia | Chicago | 7 | Stopwatch Beta | STV","players":null},{"server_id":39,"name":"Uncletopia | Chicago | 8 | Community","name_short":"chi-8","host":"chi-2.us.uncletopia.com","port":27045,"enabled":true,"region":"us-central","cc":"us","latitude":41.881832,"longitude":-87.62318,"reserved":0,"last_update":"0001-01-01T00:00:00Z","name_a2s":"Uncletopia | Chicago | 8 | Community","protocol":17,"map":"workshop/rd_asteroid_redux_b1.ugc2154902912","folder":"tf","game":"Team Fortress","app_id":440,"player_count":0,"max_players":24,"Bots":0,"server_type":"Dedicated","server_os":"Linux","password":true,"vac":true,"version":"7961495","steam_id":85568392924866365,"keywords":["beta","nocrits","nodmgspread","rd","uncletopia"],"game_id":440,"stv_port":27046,"stv_name":"Uncletopia | Chicago | 8 | Community | STV","players":null},{"server_id":8,"name":"Uncletopia | Dallas | 1 | All Maps","name_short":"dal-1","host":"dal-1.us.uncletopia.com","port":27015,"enabled":true,"region":"us-central","cc":"us","latitude":32.779167,"longitude":-96.80889,"reserved":0,"last_update":"0001-01-01T00:00:00Z","name_a2s":"Uncletopia | Dallas | 1 | All Maps","protocol":17,"map":"pl_pier","folder":"tf","game":"Team Fortress","app_id":440,"player_count":20,"max_players":24,"Bots":0,"server_type":"Dedicated","server_os":"Linux","password":true,"vac":true,"version":"7961495","steam_id":85568392924469986,"keywords":["nocrits","nodmgspread","payload","uncletopia"],"game_id":440,"stv_port":27016,"stv_name":"Uncletopia | Dallas | 1 | All Maps | STV","players":[{"user_id":193,"name":"Lubs","steam_id":76561198099244216,"connected_time":3376000000000,"state":"active","ping":41},{"user_id":250,"name":"BigMommaGart","steam_id":76561198280306683,"connected_time":30000000000,"state":"active","ping":57},{"user_id":249,"name":"harold","steam_id":76561199016285746,"connected_time":54000000000,"state":"spawning","ping":64},{"user_id":246,"name":"Scout 2","steam_id":76561198414964334,"connected_time":512000000000,"state":"active","ping":95},{"user_id":251,"name":"josie","steam_id":76561198170848553,"connected_time":3000000000,"state":"spawning","ping":91},{"user_id":225,"name":"Blake...","steam_id":76561198064090974,"connected_time":1117000000000,"state":"active","ping":86},{"user_id":223,"name":"Kenku","steam_id":76561199086762926,"connected_time":1185000000000,"state":"active","ping":65},{"user_id":238,"name":"sebjzy ♥","steam_id":76561198009959034,"connected_time":737000000000,"state":"active","ping":57},{"user_id":224,"name":"ZodiacThundaga","steam_id":76561199025117814,"connected_time":1144000000000,"state":"active","ping":95},{"user_id":241,"name":"e doctor","steam_id":76561198081851446,"connected_time":609000000000,"state":"active","ping":60},{"user_id":210,"name":"Chris Cole Sedlar","steam_id":76561199052624903,"connected_time":2091000000000,"state":"active","ping":69},{"user_id":227,"name":"Terminally Ill Downie Brownie","steam_id":76561198356484354,"connected_time":1099000000000,"state":"active","ping":114},{"user_id":229,"name":"Bob the third","steam_id":76561199065952537,"connected_time":1023000000000,"state":"active","ping":87},{"user_id":231,"name":"Defragmented","steam_id":76561198854210081,"connected_time":953000000000,"state":"active","ping":70},{"user_id":248,"name":"kitchen knife","steam_id":76561199220501066,"connected_time":243000000000,"state":"active","ping":88},{"user_id":233,"name":".mp3","steam_id":76561198070710025,"connected_time":929000000000,"state":"active","ping":52},{"user_id":234,"name":"SpookyGhost","steam_id":76561197998803941,"connected_time":929000000000,"state":"active","ping":46},{"user_id":236,"name":"shoe","steam_id":76561198070615198,"connected_time":826000000000,"state":"active","ping":57},{"user_id":247,"name":"Broadsword","steam_id":76561198011160411,"connected_time":484000000000,"state":"active","ping":76},{"user_id":245,"name":"judesro","steam_id":76561198352244888,"connected_time":570000000000,"state":"active","ping":100}]},{"server_id":108,"name":"Uncletopia | Dallas | 2 | All Maps","name_short":"dal-2","host":"dal-1.us.uncletopia.com","port":27025,"enabled":true,"region":"us-central","cc":"us","latitude":32.779167,"longitude":-96.80889,"reserved":0,"last_update":"0001-01-01T00:00:00Z","name_a2s":"Uncletopia | Dallas | 2 | All Maps","protocol":17,"map":"cp_mossrock","folder":"tf","game":"Team Fortress","app_id":440,"player_count":24,"max_players":24,"Bots":0,"server_type":"Dedicated","server_os":"Linux","password":true,"vac":true,"version":"7961495","steam_id":85568392924469988,"keywords":["cp","nocrits","nodmgspread","uncletopia"],"game_id":440,"stv_port":27026,"stv_name":"Uncletopia | Dallas | 2 | All Maps | STV","players":[{"user_id":380,"name":"kevkev138","steam_id":76561198350558323,"connected_time":660000000000,"state":"active","ping":100},{"user_id":375,"name":"Yeezuz","steam_id":76561198448209430,"connected_time":1206000000000,"state":"active","ping":101},{"user_id":379,"name":"BigBubble42","steam_id":76561198136286123,"connected_time":773000000000,"state":"active","ping":31},{"user_id":378,"name":"jordan","steam_id":76561197991393646,"connected_time":980000000000,"state":"active","ping":95},{"user_id":393,"name":"Nortel Network Telephone T7316","steam_id":76561198399261089,"connected_time":132000000000,"state":"active","ping":77},{"user_id":391,"name":"MeatShield 2000","steam_id":76561199375192850,"connected_time":288000000000,"state":"active","ping":133},{"user_id":345,"name":"Mellou","steam_id":76561198212048740,"connected_time":3145000000000,"state":"active","ping":37},{"user_id":356,"name":"Dr. Anonymous","steam_id":76561198061654197,"connected_time":2258000000000,"state":"active","ping":54},{"user_id":373,"name":"LILGI4THAW","steam_id":76561198403803842,"connected_time":1546000000000,"state":"active","ping":107},{"user_id":383,"name":"lost in spaaaaace","steam_id":76561199085974120,"connected_time":584000000000,"state":"active","ping":91},{"user_id":384,"name":"CHAD MCSKATEBOARD","steam_id":76561198424954118,"connected_time":573000000000,"state":"active","ping":55},{"user_id":374,"name":"David De Bergerac","steam_id":76561198010306294,"connected_time":1387000000000,"state":"active","ping":83},{"user_id":358,"name":"videogames94","steam_id":76561198004402366,"connected_time":2159000000000,"state":"active","ping":65},{"user_id":376,"name":"floppy muppet","steam_id":76561198003076261,"connected_time":1195000000000,"state":"active","ping":80},{"user_id":385,"name":"GRONT","steam_id":76561198040464533,"connected_time":571000000000,"state":"active","ping":77},{"user_id":361,"name":"Fresh Lychee","steam_id":76561198045399559,"connected_time":2074000000000,"state":"active","ping":88},{"user_id":364,"name":"yikes","steam_id":76561198057079066,"connected_time":1881000000000,"state":"active","ping":67},{"user_id":394,"name":"Pizza Time","steam_id":76561198043446040,"connected_time":129000000000,"state":"active","ping":87},{"user_id":370,"name":"Ungr8t","steam_id":76561198063521721,"connected_time":1770000000000,"state":"active","ping":59},{"user_id":387,"name":"Kazmirl","steam_id":76561198116008410,"connected_time":548000000000,"state":"active","ping":106},{"user_id":395,"name":"IAmAProfesonal","steam_id":76561199171858953,"connected_time":126000000000,"state":"active","ping":70},{"user_id":396,"name":"giveit5","steam_id":76561198030815437,"connected_time":96000000000,"state":"active","ping":65},{"user_id":388,"name":"that's showbiz, baybee","steam_id":76561197998258233,"connected_time":533000000000,"state":"active","ping":81},{"user_id":392,"name":"Dinöbro","steam_id":76561198065597770,"connected_time":226000000000,"state":"active","ping":61}]},{"server_id":5,"name":"Uncletopia | Frankfurt | 1 | All Maps","name_short":"frk-1","host":"frk-1.de.uncletopia.com","port":27015,"enabled":true,"region":"eu","cc":"de","latitude":50.110924,"longitude":8.682127,"reserved":0,"last_update":"0001-01-01T00:00:00Z","name_a2s":"Uncletopia | Frankfurt | 1 | All Maps","protocol":17,"map":"cp_yukon_final","folder":"tf","game":"Team Fortress","app_id":440,"player_count":20,"max_players":24,"Bots":0,"server_type":"Dedicated","server_os":"Linux","password":true,"vac":true,"version":"7961495","steam_id":85568392924469989,"keywords":["cp","nocrits","nodmgspread","uncletopia"],"game_id":440,"stv_port":27016,"stv_name":"Uncletopia | Frankfurt | 1 | All Maps | STV","players":[{"user_id":538,"name":"Unbridled","steam_id":76561198113089831,"connected_time":804000000000,"state":"active","ping":89},{"user_id":528,"name":"the least schizo med main","steam_id":76561198048530109,"connected_time":1544000000000,"state":"active","ping":60},{"user_id":543,"name":"Dr Nefario","steam_id":76561198254646194,"connected_time":513000000000,"state":"active","ping":135},{"user_id":492,"name":"roblan11","steam_id":76561198066839258,"connected_time":2781000000000,"state":"active","ping":38},{"user_id":487,"name":"race car driver jerry","steam_id":76561198054047446,"connected_time":2904000000000,"state":"active","ping":60},{"user_id":552,"name":"8 Ball","steam_id":76561197960988736,"connected_time":38000000000,"state":"active","ping":55},{"user_id":435,"name":"BUREK od Sira","steam_id":76561198092589818,"connected_time":7147000000000,"state":"active","ping":77},{"user_id":553,"name":"ne0n","steam_id":76561198032101031,"connected_time":28000000000,"state":"spawning","ping":106},{"user_id":464,"name":"one silly guy","steam_id":76561198219901556,"connected_time":4839000000000,"state":"active","ping":98},{"user_id":530,"name":"Parzivaal","steam_id":76561198181272306,"connected_time":1478000000000,"state":"active","ping":83},{"user_id":527,"name":"Daniluck23","steam_id":76561199070594080,"connected_time":1581000000000,"state":"active","ping":71},{"user_id":535,"name":"Eidolon","steam_id":76561198043919565,"connected_time":1185000000000,"state":"active","ping":85},{"user_id":549,"name":"shrark","steam_id":76561198090001673,"connected_time":279000000000,"state":"active","ping":101},{"user_id":508,"name":"Xiqui","steam_id":76561198818386611,"connected_time":2212000000000,"state":"active","ping":78},{"user_id":496,"name":"crolee","steam_id":76561198865817316,"connected_time":2635000000000,"state":"active","ping":51},{"user_id":499,"name":"Dwing","steam_id":76561198139904911,"connected_time":2590000000000,"state":"active","ping":60},{"user_id":539,"name":"o_o","steam_id":76561198113045011,"connected_time":786000000000,"state":"active","ping":89},{"user_id":522,"name":"Gorzel","steam_id":76561198828273330,"connected_time":1855000000000,"state":"active","ping":65},{"user_id":536,"name":"Super Amazing Hotdog Batman!:3","steam_id":76561198074168360,"connected_time":1174000000000,"state":"active","ping":61},{"user_id":551,"name":"Octavia (She/Her)","steam_id":76561198181291454,"connected_time":260000000000,"state":"active","ping":62}]},{"server_id":110,"name":"Uncletopia | Frankfurt | 2 | All Maps","name_short":"frk-2","host":"frk-1.de.uncletopia.com","port":27025,"enabled":true,"region":"eu","cc":"de","latitude":50.110924,"longitude":8.682127,"reserved":0,"last_update":"0001-01-01T00:00:00Z","name_a2s":"Uncletopia | Frankfurt | 2 | All Maps","protocol":17,"map":"pl_upward","folder":"tf","game":"Team Fortress","app_id":440,"player_count":24,"max_players":24,"Bots":0,"server_type":"Dedicated","server_os":"Linux","password":true,"vac":true,"version":"7961495","steam_id":85568392924469990,"keywords":["nocrits","nodmgspread","payload","uncletopia"],"game_id":440,"stv_port":27026,"stv_name":"Uncletopia | Frankfurt | 2 | All Maps | STV","players":[{"user_id":650,"name":"Doctor Medic","steam_id":76561198100957443,"connected_time":587000000000,"state":"active","ping":75},{"user_id":597,"name":"Paladin","steam_id":76561198042593027,"connected_time":3307000000000,"state":"active","ping":87},{"user_id":633,"name":"Dark Law","steam_id":76561198024347260,"connected_time":1408000000000,"state":"active","ping":146},{"user_id":612,"name":"Bruh","steam_id":76561198062651441,"connected_time":2786000000000,"state":"active","ping":55},{"user_id":587,"name":"kornetov.vitalya","steam_id":76561199286034833,"connected_time":3999000000000,"state":"active","ping":139},{"user_id":608,"name":"Marabosha","steam_id":76561198137599173,"connected_time":2921000000000,"state":"active","ping":104},{"user_id":554,"name":"KarlMarx","steam_id":76561197997757438,"connected_time":6988000000000,"state":"active","ping":60},{"user_id":624,"name":"Heretical Hermit","steam_id":76561198094377174,"connected_time":1635000000000,"state":"active","ping":60},{"user_id":634,"name":"fronin","steam_id":76561198189553021,"connected_time":1403000000000,"state":"active","ping":72},{"user_id":616,"name":"aww yeah","steam_id":76561197992978878,"connected_time":2654000000000,"state":"active","ping":74},{"user_id":654,"name":"Carrotcracker","steam_id":76561198034862396,"connected_time":357000000000,"state":"active","ping":70},{"user_id":651,"name":"Terrence Andrew Davis","steam_id":76561198374283928,"connected_time":514000000000,"state":"active","ping":82},{"user_id":592,"name":"jello_hey","steam_id":76561199176327650,"connected_time":3919000000000,"state":"active","ping":144},{"user_id":645,"name":"Naeso","steam_id":76561198068602498,"connected_time":1055000000000,"state":"active","ping":46},{"user_id":628,"name":"lucky","steam_id":76561198143591454,"connected_time":1475000000000,"state":"active","ping":75},{"user_id":635,"name":"antonio.jurjevic@brazzers.hr","steam_id":76561198179392402,"connected_time":1402000000000,"state":"active","ping":52},{"user_id":646,"name":"Axio","steam_id":76561198046826031,"connected_time":984000000000,"state":"active","ping":75},{"user_id":655,"name":"hardy","steam_id":76561198029228735,"connected_time":195000000000,"state":"active","ping":66},{"user_id":652,"name":"Ankle Dane","steam_id":76561198134378108,"connected_time":452000000000,"state":"active","ping":110},{"user_id":642,"name":"Goblin (Real)","steam_id":76561199160926985,"connected_time":1253000000000,"state":"active","ping":147},{"user_id":640,"name":"ZagreusNoMoney","steam_id":76561198996162089,"connected_time":1290000000000,"state":"active","ping":67},{"user_id":627,"name":"Qwertuss","steam_id":76561198026305366,"connected_time":1524000000000,"state":"active","ping":60},{"user_id":653,"name":"zak","steam_id":76561197998895428,"connected_time":442000000000,"state":"active","ping":74},{"user_id":656,"name":"K.O.wal","steam_id":76561198317737261,"connected_time":129000000000,"state":"active","ping":66}]},{"server_id":308,"name":"Uncletopia | Frankfurt | 3 | All Maps","name_short":"frk-3","host":"frk-1.de.uncletopia.com","port":27035,"enabled":true,"region":"eu","cc":"de","latitude":50.110924,"longitude":8.682127,"reserved":0,"last_update":"0001-01-01T00:00:00Z","name_a2s":"Uncletopia | Frankfurt | 3 | All Maps","protocol":17,"map":"pl_upward","folder":"tf","game":"Team Fortress","app_id":440,"player_count":16,"max_players":24,"Bots":0,"server_type":"Dedicated","server_os":"Linux","password":true,"vac":true,"version":"7961495","steam_id":85568392924504274,"keywords":["nocrits","nodmgspread","payload","uncletopia"],"game_id":440,"stv_port":27036,"stv_name":"Uncletopia | Frankfurt | 3 | All Maps | STV","players":[{"user_id":352,"name":"Hey, I´m Andy!","steam_id":76561198060337777,"connected_time":300000000000,"state":"active","ping":69},{"user_id":340,"name":"leonardini.w","steam_id":76561199097963071,"connected_time":1496000000000,"state":"active","ping":80},{"user_id":348,"name":"finbar","steam_id":76561198056812396,"connected_time":915000000000,"state":"active","ping":85},{"user_id":317,"name":"誰かが見ている","steam_id":76561198834913692,"connected_time":3364000000000,"state":"active","ping":53},{"user_id":325,"name":"LurkingPancake","steam_id":76561199488567082,"connected_time":2429000000000,"state":"active","ping":97},{"user_id":351,"name":"Superiumentarius","steam_id":76561198081642249,"connected_time":584000000000,"state":"active","ping":45},{"user_id":342,"name":"Max Power","steam_id":76561198019269089,"connected_time":1319000000000,"state":"active","ping":45},{"user_id":329,"name":"Dyfed","steam_id":76561198055389492,"connected_time":2067000000000,"state":"active","ping":57},{"user_id":341,"name":"PlebCord","steam_id":76561198120685803,"connected_time":1482000000000,"state":"active","ping":77},{"user_id":297,"name":"Master Of Noob","steam_id":76561198217926783,"connected_time":5568000000000,"state":"active","ping":63},{"user_id":349,"name":"cat","steam_id":76561198832231975,"connected_time":668000000000,"state":"active","ping":89},{"user_id":332,"name":"Urfangonultasadana","steam_id":76561199389286151,"connected_time":1913000000000,"state":"active","ping":94},{"user_id":354,"name":"10","steam_id":76561198120668070,"connected_time":86000000000,"state":"active","ping":57},{"user_id":334,"name":"Stupid_Cake","steam_id":76561198079566684,"connected_time":1898000000000,"state":"active","ping":159},{"user_id":310,"name":"TacoDragon","steam_id":76561198215345581,"connected_time":4539000000000,"state":"active","ping":72},{"user_id":316,"name":"tallen","steam_id":76561198061708595,"connected_time":3749000000000,"state":"active","ping":70}]},{"server_id":309,"name":"Uncletopia | Frankfurt | 4 | All Maps","name_short":"frk-4","host":"frk-1.de.uncletopia.com","port":27045,"enabled":true,"region":"eu","cc":"de","latitude":50.110924,"longitude":8.682127,"reserved":0,"last_update":"0001-01-01T00:00:00Z","name_a2s":"Uncletopia | Frankfurt | 4 | All Maps","protocol":17,"map":"pl_barnblitz","folder":"tf","game":"Team Fortress","app_id":440,"player_count":17,"max_players":24,"Bots":0,"server_type":"Dedicated","server_os":"Linux","password":true,"vac":true,"version":"7961495","steam_id":85568392924504275,"keywords":["nocrits","nodmgspread","payload","uncletopia"],"game_id":440,"stv_port":27046,"stv_name":"Uncletopia | Frankfurt | 4 | All Maps | STV","players":[{"user_id":227,"name":"slorp","steam_id":76561198239927434,"connected_time":92000000000,"state":"active","ping":77},{"user_id":216,"name":"Prison Mike","steam_id":76561198014221596,"connected_time":740000000000,"state":"active","ping":60},{"user_id":218,"name":"glorbus","steam_id":76561198969544894,"connected_time":522000000000,"state":"active","ping":51},{"user_id":228,"name":"pizzaboob","steam_id":76561198097507847,"connected_time":67000000000,"state":"active","ping":74},{"user_id":226,"name":"Poggito","steam_id":76561198838001276,"connected_time":124000000000,"state":"active","ping":57},{"user_id":208,"name":"Gruset","steam_id":76561198327512432,"connected_time":1512000000000,"state":"active","ping":77},{"user_id":212,"name":"w+m1","steam_id":76561198010428082,"connected_time":1405000000000,"state":"active","ping":79},{"user_id":224,"name":"lord-carlos","steam_id":76561198025150761,"connected_time":186000000000,"state":"active","ping":58},{"user_id":206,"name":"Noob_with_source","steam_id":76561198870362103,"connected_time":1805000000000,"state":"active","ping":59},{"user_id":223,"name":"rmz.ssj","steam_id":76561198329613930,"connected_time":218000000000,"state":"active","ping":61},{"user_id":189,"name":"[T]aKer","steam_id":76561198001778013,"connected_time":2945000000000,"state":"active","ping":56},{"user_id":200,"name":"smegma male","steam_id":76561198101978330,"connected_time":2247000000000,"state":"active","ping":58},{"user_id":36,"name":"Tengen","steam_id":76561199356990346,"connected_time":11144000000000,"state":"active","ping":100},{"user_id":209,"name":"Penis Contortionist","steam_id":76561198073663784,"connected_time":1479000000000,"state":"active","ping":48},{"user_id":215,"name":"ProfessorCrack","steam_id":76561199035475627,"connected_time":801000000000,"state":"active","ping":86},{"user_id":203,"name":"RockFrenzy","steam_id":76561198005428050,"connected_time":1817000000000,"state":"active","ping":55},{"user_id":174,"name":"r06u3","steam_id":76561198254099253,"connected_time":4044000000000,"state":"active","ping":164}]},{"server_id":310,"name":"Uncletopia | Frankfurt | 5 | All Maps","name_short":"frk-5","host":"frk-1.de.uncletopia.com","port":27055,"enabled":true,"region":"eu","cc":"de","latitude":50.110924,"longitude":8.682127,"reserved":0,"last_update":"0001-01-01T00:00:00Z","name_a2s":"Uncletopia | Frankfurt | 5 | All Maps","protocol":17,"map":"cp_dustbowl","folder":"tf","game":"Team Fortress","app_id":440,"player_count":0,"max_players":24,"Bots":0,"server_type":"Dedicated","server_os":"Linux","password":true,"vac":true,"version":"7961495","steam_id":85568392924504277,"keywords":["cp","nocrits","nodmgspread","uncletopia"],"game_id":440,"stv_port":27056,"stv_name":"Uncletopia | Frankfurt | 5 | All Maps | STV","players":null},{"server_id":311,"name":"Uncletopia | Frankfurt | 6 | All Maps","name_short":"frk-6","host":"frk-1.de.uncletopia.com","port":27065,"enabled":true,"region":"eu","cc":"de","latitude":50.110924,"longitude":8.682127,"reserved":0,"last_update":"0001-01-01T00:00:00Z","name_a2s":"Uncletopia | Frankfurt | 6 | All Maps","protocol":17,"map":"pl_upward","folder":"tf","game":"Team Fortress","app_id":440,"player_count":24,"max_players":24,"Bots":0,"server_type":"Dedicated","server_os":"Linux","password":true,"vac":true,"version":"7961495","steam_id":85568392924504278,"keywords":["nocrits","nodmgspread","payload","uncletopia"],"game_id":440,"stv_port":27066,"stv_name":"Uncletopia | Frankfurt | 6 | All Maps | STV","players":[{"user_id":431,"name":"欠税哥","steam_id":76561199118856462,"connected_time":2368000000000,"state":"active","ping":64},{"user_id":434,"name":"Veile","steam_id":76561199007201531,"connected_time":2143000000000,"state":"active","ping":92},{"user_id":464,"name":"MORTAL-WOMBAT","steam_id":76561198101581746,"connected_time":795000000000,"state":"active","ping":54},{"user_id":435,"name":"mud","steam_id":76561198141497461,"connected_time":2015000000000,"state":"active","ping":62},{"user_id":474,"name":"Tywhip","steam_id":76561199207545191,"connected_time":25000000000,"state":"active","ping":60},{"user_id":436,"name":"dum","steam_id":76561198053386482,"connected_time":2008000000000,"state":"active","ping":153},{"user_id":471,"name":"Xyronix","steam_id":76561198077158201,"connected_time":88000000000,"state":"active","ping":54},{"user_id":437,"name":"Pan Pan","steam_id":76561199074670515,"connected_time":2003000000000,"state":"active","ping":88},{"user_id":462,"name":"VK2124 :D","steam_id":76561198111130688,"connected_time":832000000000,"state":"active","ping":51},{"user_id":470,"name":"fregaropa","steam_id":76561198150806166,"connected_time":92000000000,"state":"active","ping":82},{"user_id":469,"name":"TheEventGuy","steam_id":76561197972797744,"connected_time":494000000000,"state":"active","ping":64},{"user_id":444,"name":"JeanCorben","steam_id":76561197965133561,"connected_time":1648000000000,"state":"active","ping":45},{"user_id":456,"name":"G.R.E","steam_id":76561197979806514,"connected_time":1094000000000,"state":"active","ping":49},{"user_id":446,"name":"Popop","steam_id":76561198004793795,"connected_time":1610000000000,"state":"active","ping":48},{"user_id":447,"name":"Mcfatnut","steam_id":76561199137927439,"connected_time":1469000000000,"state":"active","ping":108},{"user_id":448,"name":"veto vuyisio","steam_id":76561199101145470,"connected_time":1409000000000,"state":"active","ping":71},{"user_id":472,"name":"Ewelinka Zniszczenia","steam_id":76561198307374456,"connected_time":58000000000,"state":"active","ping":65},{"user_id":466,"name":"O B S E R V E R","steam_id":76561198397143311,"connected_time":755000000000,"state":"active","ping":55},{"user_id":455,"name":"hananamanna","steam_id":76561198006570285,"connected_time":1126000000000,"state":"active","ping":111},{"user_id":458,"name":"Guts and Glory","steam_id":76561199214035199,"connected_time":1026000000000,"state":"active","ping":191},{"user_id":473,"name":"Kaishakunin","steam_id":76561198028123874,"connected_time":53000000000,"state":"active","ping":91},{"user_id":378,"name":"Gaxkang","steam_id":76561198125768571,"connected_time":7079000000000,"state":"active","ping":73},{"user_id":468,"name":"HADID_sex_god","steam_id":76561198302623594,"connected_time":554000000000,"state":"active","ping":92},{"user_id":453,"name":"Nornia","steam_id":76561198040509712,"connected_time":1261000000000,"state":"active","ping":64}]},{"server_id":23,"name":"Uncletopia | Frankfurt | 7 | Stopwatch Beta","name_short":"frk-7","host":"frk-1.de.uncletopia.com","port":27075,"enabled":true,"region":"eu","cc":"de","latitude":50.110924,"longitude":8.682127,"reserved":0,"last_update":"0001-01-01T00:00:00Z","name_a2s":"Uncletopia | Frankfurt | 7 | Stopwatch Beta","protocol":17,"map":"workshop/cp_process_f12.ugc2302948105","folder":"tf","game":"Team Fortress","app_id":440,"player_count":0,"max_players":24,"Bots":0,"server_type":"Dedicated","server_os":"Linux","password":true,"vac":true,"version":"7961495","steam_id":85568392924742827,"keywords":["cp","nocrits","nodmgspread","uncletopia"],"game_id":440,"stv_port":27076,"stv_name":"Uncletopia | Frankfurt | 7 | Stopwatch Beta | STV","players":null},{"server_id":24,"name":"Uncletopia | Frankfurt | 8 | Community","name_short":"frk-8","host":"frk-1.de.uncletopia.com","port":27085,"enabled":true,"region":"eu","cc":"de","latitude":50.110924,"longitude":8.682127,"reserved":0,"last_update":"0001-01-01T00:00:00Z","name_a2s":"Uncletopia | Frankfurt | 8 | Community","protocol":17,"map":"workshop/pl_divulgence_b4b.ugc2884808746","folder":"tf","game":"Team Fortress","app_id":440,"player_count":24,"max_players":24,"Bots":0,"server_type":"Dedicated","server_os":"Linux","password":true,"vac":true,"version":"7961495","steam_id":85568392924742828,"keywords":["nocrits","nodmgspread","payload","uncletopia"],"game_id":440,"stv_port":27086,"stv_name":"Uncletopia | Frankfurt | 8 | Community | STV","players":[{"user_id":83,"name":"TriRИЌ","steam_id":76561198119622375,"connected_time":5789000000000,"state":"active","ping":70},{"user_id":98,"name":"static","steam_id":76561198836825741,"connected_time":4645000000000,"state":"active","ping":70},{"user_id":143,"name":"grrokr","steam_id":76561199003462804,"connected_time":1440000000000,"state":"active","ping":81},{"user_id":26,"name":"Fat Pigeon","steam_id":76561198817940142,"connected_time":8480000000000,"state":"active","ping":51},{"user_id":154,"name":"Efex.1234","steam_id":76561199199026648,"connected_time":832000000000,"state":"active","ping":53},{"user_id":144,"name":"Sagzy","steam_id":76561198121010932,"connected_time":1270000000000,"state":"active","ping":57},{"user_id":145,"name":"voltaic","steam_id":76561197996566832,"connected_time":1262000000000,"state":"active","ping":53},{"user_id":146,"name":"Vika","steam_id":76561198014532457,"connected_time":1228000000000,"state":"active","ping":73},{"user_id":136,"name":"Grumtsior","steam_id":76561198043563111,"connected_time":2281000000000,"state":"active","ping":64},{"user_id":156,"name":"Nate","steam_id":76561198188618535,"connected_time":122000000000,"state":"spawning","ping":557},{"user_id":96,"name":"Jonathan","steam_id":76561198087988880,"connected_time":4857000000000,"state":"active","ping":45},{"user_id":37,"name":"X-tis","steam_id":76561198043837480,"connected_time":8205000000000,"state":"active","ping":75},{"user_id":147,"name":"DaLuigi","steam_id":76561198054486188,"connected_time":1225000000000,"state":"active","ping":45},{"user_id":110,"name":"WATANG!","steam_id":76561198040478926,"connected_time":4135000000000,"state":"active","ping":68},{"user_id":148,"name":"Spitfire","steam_id":76561197997121260,"connected_time":1158000000000,"state":"active","ping":58},{"user_id":138,"name":"Nag","steam_id":76561197970488206,"connected_time":2163000000000,"state":"active","ping":80},{"user_id":155,"name":"KINGSTON G","steam_id":76561198093073758,"connected_time":470000000000,"state":"active","ping":70},{"user_id":123,"name":"Elsuedi","steam_id":76561198074722832,"connected_time":3211000000000,"state":"active","ping":49},{"user_id":152,"name":"Lukas","steam_id":76561198009118452,"connected_time":960000000000,"state":"active","ping":60},{"user_id":137,"name":"MrBanana","steam_id":76561198116021623,"connected_time":2200000000000,"state":"active","ping":45},{"user_id":140,"name":"Mr. Luigi","steam_id":76561198167312951,"connected_time":2049000000000,"state":"active","ping":54},{"user_id":153,"name":"i am the one who knocks","steam_id":76561198263228457,"connected_time":937000000000,"state":"active","ping":94},{"user_id":135,"name":"✪ m_br3","steam_id":76561198044981990,"connected_time":2307000000000,"state":"active","ping":68},{"user_id":105,"name":"FoOzTV","steam_id":76561197998636728,"connected_time":4473000000000,"state":"active","ping":70}]},{"server_id":202,"name":"Uncletopia | Hong Kong | 1 | All Maps","name_short":"hgk-1","host":"hgk-1.hk.uncletopia.com","port":27015,"enabled":true,"region":"asia","cc":"hk","latitude":22.302711,"longitude":114.177216,"reserved":0,"last_update":"0001-01-01T00:00:00Z","name_a2s":"Uncletopia | Hong Kong | 1 | All Maps","protocol":17,"map":"koth_highpass","folder":"tf","game":"Team Fortress","app_id":440,"player_count":0,"max_players":24,"Bots":0,"server_type":"Dedicated","server_os":"Linux","password":true,"vac":true,"version":"7961495","steam_id":85568392924494504,"keywords":["cp","nocrits","nodmgspread","uncletopia"],"game_id":440,"stv_port":27016,"stv_name":"Uncletopia | Hong Kong | 1 | All Maps | STV","players":null},{"server_id":1,"name":"Uncletopia | Los Angeles | 1 | All Maps","name_short":"lax-1","host":"lax-1.us.uncletopia.com","port":27015,"enabled":true,"region":"us-west","cc":"us","latitude":33.94279,"longitude":-118.41004,"reserved":0,"last_update":"0001-01-01T00:00:00Z","name_a2s":"Uncletopia | Los Angeles | 1 | All Maps","protocol":17,"map":"pl_upward","folder":"tf","game":"Team Fortress","app_id":440,"player_count":21,"max_players":24,"Bots":0,"server_type":"Dedicated","server_os":"Linux","password":true,"vac":true,"version":"7961495","steam_id":85568392924469991,"keywords":["nocrits","nodmgspread","payload","uncletopia"],"game_id":440,"stv_port":27016,"stv_name":"Uncletopia | Los Angeles | 1 | All Maps | STV","players":[{"user_id":175,"name":"Jokezonyu","steam_id":76561198213167893,"connected_time":8000000000,"state":"active","ping":93},{"user_id":129,"name":"Dreamzapp","steam_id":76561199084936632,"connected_time":3462000000000,"state":"active","ping":74},{"user_id":154,"name":"minimalpair","steam_id":76561198071788709,"connected_time":1682000000000,"state":"active","ping":87},{"user_id":124,"name":"no vc no c","steam_id":76561197989503095,"connected_time":3634000000000,"state":"active","ping":162},{"user_id":155,"name":"Morflez","steam_id":76561198338880051,"connected_time":1562000000000,"state":"active","ping":64},{"user_id":169,"name":"Sivinus","steam_id":76561198025589541,"connected_time":986000000000,"state":"active","ping":55},{"user_id":86,"name":"Sunkenthree51","steam_id":76561198300781307,"connected_time":6626000000000,"state":"active","ping":54},{"user_id":157,"name":"lana_del_Rei.com","steam_id":76561198172447621,"connected_time":1488000000000,"state":"active","ping":53},{"user_id":174,"name":"too many fives","steam_id":76561198128465482,"connected_time":377000000000,"state":"active","ping":99},{"user_id":143,"name":"korkskrou","steam_id":76561198422156430,"connected_time":2426000000000,"state":"active","ping":70},{"user_id":165,"name":"Sad Sapling","steam_id":76561198075612150,"connected_time":1267000000000,"state":"active","ping":64},{"user_id":170,"name":"Laxoloni","steam_id":76561199197045700,"connected_time":931000000000,"state":"active","ping":82},{"user_id":164,"name":"Buswolley","steam_id":76561197995205571,"connected_time":1320000000000,"state":"active","ping":54},{"user_id":151,"name":"SwimmingBubrCat","steam_id":76561198411953459,"connected_time":1991000000000,"state":"active","ping":129},{"user_id":115,"name":"noceof","steam_id":76561198043656816,"connected_time":4420000000000,"state":"active","ping":173},{"user_id":130,"name":"ForAPessimistImPrettyOptimistic","steam_id":76561198170128009,"connected_time":3441000000000,"state":"active","ping":56},{"user_id":55,"name":"De Monki","steam_id":76561198964210411,"connected_time":9214000000000,"state":"active","ping":57},{"user_id":161,"name":"Deflated Horse","steam_id":76561199260931005,"connected_time":1437000000000,"state":"active","ping":83},{"user_id":146,"name":"K2f","steam_id":76561198049600563,"connected_time":2379000000000,"state":"active","ping":45},{"user_id":166,"name":"meme","steam_id":76561199170771700,"connected_time":1196000000000,"state":"active","ping":62},{"user_id":172,"name":"Banzai","steam_id":76561198196503877,"connected_time":794000000000,"state":"active","ping":74}]},{"server_id":112,"name":"Uncletopia | Los Angeles | 2 | All Maps","name_short":"lax-2","host":"lax-1.us.uncletopia.com","port":27025,"enabled":true,"region":"us-west","cc":"us","latitude":33.94279,"longitude":-118.41004,"reserved":0,"last_update":"0001-01-01T00:00:00Z","name_a2s":"Uncletopia | Los Angeles | 2 | All Maps","protocol":17,"map":"pl_frontier_final","folder":"tf","game":"Team Fortress","app_id":440,"player_count":0,"max_players":24,"Bots":0,"server_type":"Dedicated","server_os":"Linux","password":true,"vac":true,"version":"7961495","steam_id":85568392924469992,"keywords":["nocrits","nodmgspread","payload","uncletopia"],"game_id":440,"stv_port":27026,"stv_name":"Uncletopia | Los Angeles | 2 | All Maps | STV","players":null},{"server_id":324,"name":"Uncletopia | Los Angeles | 3 | All Maps","name_short":"lax-3","host":"lax-1.us.uncletopia.com","port":27035,"enabled":true,"region":"us-west","cc":"us","latitude":33.94279,"longitude":-118.41004,"reserved":0,"last_update":"0001-01-01T00:00:00Z","name_a2s":"Uncletopia | Los Angeles | 3 | All Maps","protocol":17,"map":"koth_lakeside_final","folder":"tf","game":"Team Fortress","app_id":440,"player_count":0,"max_players":24,"Bots":0,"server_type":"Dedicated","server_os":"Linux","password":true,"vac":true,"version":"7961495","steam_id":85568392924510198,"keywords":["cp","nocrits","nodmgspread","uncletopia"],"game_id":440,"stv_port":27036,"stv_name":"Uncletopia | Los Angeles | 3 | All Maps | STV","players":null},{"server_id":25,"name":"Uncletopia | Los Angeles | 4 | Stopwatch Beta","name_short":"lax-4","host":"lax-1.us.uncletopia.com","port":27045,"enabled":true,"region":"us-west","cc":"us","latitude":33.94279,"longitude":-118.41004,"reserved":0,"last_update":"0001-01-01T00:00:00Z","name_a2s":"Uncletopia | Los Angeles | 4 | Stopwatch Beta","protocol":17,"map":"pl_frontier_final","folder":"tf","game":"Team Fortress","app_id":440,"player_count":0,"max_players":24,"Bots":0,"server_type":"Dedicated","server_os":"Linux","password":true,"vac":true,"version":"7961495","steam_id":85568392924510199,"keywords":["nocrits","nodmgspread","payload","uncletopia"],"game_id":440,"stv_port":27046,"stv_name":"Uncletopia | Los Angeles | 4 | Stopwatch Beta | STV","players":null},{"server_id":11,"name":"Uncletopia | London | 1 | All Maps","name_short":"lon-1","host":"lon-1.uk.uncletopia.com","port":27015,"enabled":true,"region":"eu","cc":"gb","latitude":51.509865,"longitude":-0.118092,"reserved":0,"last_update":"0001-01-01T00:00:00Z","name_a2s":"Uncletopia | London | 1 | All Maps","protocol":17,"map":"koth_cascade","folder":"tf","game":"Team Fortress","app_id":440,"player_count":24,"max_players":24,"Bots":0,"server_type":"Dedicated","server_os":"Linux","password":true,"vac":true,"version":"7961495","steam_id":85568392924367362,"keywords":["cp","nocrits","nodmgspread","uncletopia"],"game_id":440,"stv_port":27016,"stv_name":"Uncletopia | London | 1 | All Maps | STV","players":[{"user_id":677,"name":"uwu","steam_id":76561199209906710,"connected_time":4763000000000,"state":"active","ping":52},{"user_id":728,"name":"Puss in Boots","steam_id":76561198211599767,"connected_time":254000000000,"state":"active","ping":53},{"user_id":707,"name":"impossible whopper eater","steam_id":76561198058641805,"connected_time":2297000000000,"state":"active","ping":58},{"user_id":717,"name":"owo","steam_id":76561198158209651,"connected_time":2061000000000,"state":"active","ping":60},{"user_id":731,"name":"H-say","steam_id":76561198177400362,"connected_time":40000000000,"state":"spawning","ping":77},{"user_id":631,"name":"RLCrazyCat3","steam_id":76561197983757878,"connected_time":9100000000000,"state":"active","ping":56},{"user_id":723,"name":"Explosive Poptart","steam_id":76561198023918830,"connected_time":1372000000000,"state":"active","ping":45},{"user_id":715,"name":"J3LLY","steam_id":76561198048453764,"connected_time":2277000000000,"state":"active","ping":52},{"user_id":691,"name":"my b*tch","steam_id":76561198089560908,"connected_time":3753000000000,"state":"active","ping":100},{"user_id":732,"name":"SOPHIIEE","steam_id":76561198443798981,"connected_time":7000000000,"state":"spawning","ping":57},{"user_id":725,"name":"Prome","steam_id":76561199050383942,"connected_time":1198000000000,"state":"active","ping":56},{"user_id":729,"name":"trite","steam_id":76561197983765323,"connected_time":125000000000,"state":"active","ping":53},{"user_id":653,"name":"Milca, One eye'd Drunkard","steam_id":76561198848650365,"connected_time":7653000000000,"state":"active","ping":76},{"user_id":724,"name":"dec","steam_id":76561198009660168,"connected_time":1335000000000,"state":"active","ping":48},{"user_id":709,"name":"Stunner (John Gaming)","steam_id":76561199085822219,"connected_time":2289000000000,"state":"active","ping":89},{"user_id":726,"name":"Fwebbie","steam_id":76561199006875621,"connected_time":1024000000000,"state":"active","ping":57},{"user_id":651,"name":"JUST","steam_id":76561198069064885,"connected_time":7669000000000,"state":"active","ping":59},{"user_id":720,"name":"Will - no sound","steam_id":76561198173329977,"connected_time":1803000000000,"state":"active","ping":53},{"user_id":683,"name":"MEOWMEOWMEOWMEOWMEOWMEOWMEOWMEO","steam_id":76561198723244199,"connected_time":4355000000000,"state":"active","ping":75},{"user_id":730,"name":"go to sleep","steam_id":76561198305854178,"connected_time":122000000000,"state":"active","ping":179},{"user_id":693,"name":"Man on a ladder","steam_id":76561198259296344,"connected_time":3726000000000,"state":"active","ping":58},{"user_id":680,"name":"png.png","steam_id":76561198444446521,"connected_time":4623000000000,"state":"active","ping":117},{"user_id":644,"name":"hmscole09","steam_id":76561198811362788,"connected_time":8260000000000,"state":"active","ping":54},{"user_id":712,"name":"Kphi(i)","steam_id":76561198970587061,"connected_time":2288000000000,"state":"active","ping":58}]},{"server_id":114,"name":"Uncletopia | London | 2 | All Maps","name_short":"lon-2","host":"lon-1.uk.uncletopia.com","port":27025,"enabled":true,"region":"eu","cc":"gb","latitude":51.509865,"longitude":-0.118092,"reserved":0,"last_update":"0001-01-01T00:00:00Z","name_a2s":"Uncletopia | London | 2 | All Maps","protocol":17,"map":"plr_hightower","folder":"tf","game":"Team Fortress","app_id":440,"player_count":24,"max_players":24,"Bots":0,"server_type":"Dedicated","server_os":"Linux","password":true,"vac":true,"version":"7961495","steam_id":85568392924470941,"keywords":["nocrits","nodmgspread","payload","uncletopia"],"game_id":440,"stv_port":27026,"stv_name":"Uncletopia | London | 2 | All Maps | STV","players":[{"user_id":276,"name":"Emanuel Dexterity","steam_id":76561198236376196,"connected_time":567000000000,"state":"active","ping":50},{"user_id":258,"name":"Verdy the Femboy","steam_id":76561198449084571,"connected_time":1082000000000,"state":"active","ping":34},{"user_id":185,"name":"agent","steam_id":76561199441131396,"connected_time":7158000000000,"state":"active","ping":128},{"user_id":272,"name":"Dr. Funkenstein","steam_id":76561197977816210,"connected_time":781000000000,"state":"active","ping":64},{"user_id":285,"name":"Trim","steam_id":76561197967741949,"connected_time":176000000000,"state":"active","ping":41},{"user_id":260,"name":"Nute Gunray","steam_id":76561198224525440,"connected_time":1056000000000,"state":"active","ping":59},{"user_id":290,"name":"Fruzo","steam_id":76561197988382114,"connected_time":33000000000,"state":"active","ping":65},{"user_id":111,"name":"Omyskull","steam_id":76561198131711758,"connected_time":13918000000000,"state":"active","ping":68},{"user_id":274,"name":"Gazza","steam_id":76561198090419732,"connected_time":715000000000,"state":"active","ping":44},{"user_id":211,"name":"Scorplaxe","steam_id":76561198145024243,"connected_time":4920000000000,"state":"active","ping":65},{"user_id":284,"name":"Demoknight tf2","steam_id":76561198133041874,"connected_time":201000000000,"state":"active","ping":55},{"user_id":282,"name":"Leonic","steam_id":76561198067699203,"connected_time":357000000000,"state":"active","ping":38},{"user_id":243,"name":"mkwii","steam_id":76561198062507768,"connected_time":2554000000000,"state":"active","ping":59},{"user_id":264,"name":"Osmo","steam_id":76561199286764992,"connected_time":973000000000,"state":"active","ping":77},{"user_id":278,"name":"Voks_","steam_id":76561198159687785,"connected_time":494000000000,"state":"active","ping":68},{"user_id":287,"name":"Jack","steam_id":76561198079575891,"connected_time":136000000000,"state":"active","ping":48},{"user_id":279,"name":"trampampoline","steam_id":76561198121286517,"connected_time":471000000000,"state":"active","ping":31},{"user_id":203,"name":"Reiven","steam_id":76561198210248304,"connected_time":5755000000000,"state":"active","ping":70},{"user_id":244,"name":"Gildenas","steam_id":76561199442988886,"connected_time":2554000000000,"state":"active","ping":68},{"user_id":267,"name":"ORKS IS BEST","steam_id":76561198128817882,"connected_time":948000000000,"state":"active","ping":56},{"user_id":289,"name":"Synthro","steam_id":76561198144181109,"connected_time":60000000000,"state":"active","ping":152},{"user_id":268,"name":"Jeffrey Harpen","steam_id":76561199073314677,"connected_time":938000000000,"state":"active","ping":116},{"user_id":271,"name":"Malai","steam_id":76561198062537014,"connected_time":790000000000,"state":"active","ping":70},{"user_id":235,"name":"miljoneir","steam_id":76561198010265547,"connected_time":3031000000000,"state":"active","ping":56}]},{"server_id":320,"name":"Uncletopia | London | 3 | All Maps","name_short":"lon-3","host":"lon-1.uk.uncletopia.com","port":27035,"enabled":true,"region":"eu","cc":"gb","latitude":51.509865,"longitude":-0.118092,"reserved":0,"last_update":"0001-01-01T00:00:00Z","name_a2s":"Uncletopia | London | 3 | All Maps","protocol":17,"map":"cp_process_final","folder":"tf","game":"Team Fortress","app_id":440,"player_count":24,"max_players":24,"Bots":0,"server_type":"Dedicated","server_os":"Linux","password":true,"vac":true,"version":"7961495","steam_id":85568392924510192,"keywords":["cp","nocrits","nodmgspread","uncletopia"],"game_id":440,"stv_port":27036,"stv_name":"Uncletopia | London | 3 | All Maps | STV","players":[{"user_id":104,"name":"generic alias","steam_id":76561198271607226,"connected_time":2100000000000,"state":"active","ping":92},{"user_id":85,"name":"Yokon","steam_id":76561198029645680,"connected_time":3823000000000,"state":"active","ping":65},{"user_id":68,"name":"Sir Sammie","steam_id":76561198329808137,"connected_time":4564000000000,"state":"active","ping":48},{"user_id":119,"name":"Lyncurion","steam_id":76561199260022725,"connected_time":835000000000,"state":"active","ping":88},{"user_id":109,"name":"The Nostalgia Critic","steam_id":76561198360395476,"connected_time":1431000000000,"state":"active","ping":40},{"user_id":98,"name":"fénix","steam_id":76561198083199151,"connected_time":2545000000000,"state":"active","ping":57},{"user_id":117,"name":"Miss Bari","steam_id":76561198365286092,"connected_time":964000000000,"state":"active","ping":41},{"user_id":111,"name":"ImFiNal","steam_id":76561198123148040,"connected_time":1372000000000,"state":"active","ping":77},{"user_id":94,"name":"Udinese Dion","steam_id":76561198067931573,"connected_time":2668000000000,"state":"active","ping":63},{"user_id":112,"name":"Cosmetic brain","steam_id":76561198055936410,"connected_time":1333000000000,"state":"active","ping":90},{"user_id":72,"name":"zinc","steam_id":76561198141008822,"connected_time":4478000000000,"state":"active","ping":77},{"user_id":73,"name":"Holden","steam_id":76561198037252505,"connected_time":4460000000000,"state":"active","ping":105},{"user_id":93,"name":"Snake-chan","steam_id":76561199044755854,"connected_time":2965000000000,"state":"active","ping":74},{"user_id":108,"name":"glyph","steam_id":76561197980736364,"connected_time":1609000000000,"state":"active","ping":90},{"user_id":82,"name":"fence_","steam_id":76561198150386379,"connected_time":4145000000000,"state":"active","ping":44},{"user_id":51,"name":"quickfast","steam_id":76561199438900919,"connected_time":5804000000000,"state":"active","ping":42},{"user_id":95,"name":"Prinsesse Vilikke","steam_id":76561198031651656,"connected_time":2613000000000,"state":"active","ping":88},{"user_id":74,"name":"Doggo225","steam_id":76561198166707002,"connected_time":4452000000000,"state":"active","ping":32},{"user_id":113,"name":"LiønHeart","steam_id":76561198081370704,"connected_time":1293000000000,"state":"active","ping":62},{"user_id":115,"name":"Ran33","steam_id":76561197991474499,"connected_time":1131000000000,"state":"active","ping":87},{"user_id":75,"name":"KMP","steam_id":76561198278707199,"connected_time":4448000000000,"state":"active","ping":54},{"user_id":56,"name":"Ash","steam_id":76561198148738525,"connected_time":5768000000000,"state":"active","ping":109},{"user_id":90,"name":"Hexagon","steam_id":76561198151205758,"connected_time":3536000000000,"state":"active","ping":60},{"user_id":118,"name":"MR.CRAB","steam_id":76561198329833659,"connected_time":954000000000,"state":"active","ping":84}]},{"server_id":321,"name":"Uncletopia | London | 4 | All Maps","name_short":"lon-4","host":"lon-1.uk.uncletopia.com","port":27045,"enabled":true,"region":"eu","cc":"gb","latitude":51.509865,"longitude":-0.118092,"reserved":0,"last_update":"0001-01-01T00:00:00Z","name_a2s":"Uncletopia | London | 4 | All Maps","protocol":17,"map":"cp_granary","folder":"tf","game":"Team Fortress","app_id":440,"player_count":23,"max_players":24,"Bots":0,"server_type":"Dedicated","server_os":"Linux","password":true,"vac":true,"version":"7961495","steam_id":85568392924510193,"keywords":["cp","nocrits","nodmgspread","uncletopia"],"game_id":440,"stv_port":27046,"stv_name":"Uncletopia | London | 4 | All Maps | STV","players":[{"user_id":497,"name":"Giggen","steam_id":76561198070986689,"connected_time":139000000000,"state":"active","ping":45},{"user_id":480,"name":"Epickario","steam_id":76561199068338969,"connected_time":655000000000,"state":"active","ping":56},{"user_id":489,"name":"gmem","steam_id":76561198070006725,"connected_time":572000000000,"state":"active","ping":59},{"user_id":479,"name":"Heed","steam_id":76561198033605800,"connected_time":662000000000,"state":"active","ping":81},{"user_id":475,"name":"Nelkobud","steam_id":76561198115606282,"connected_time":848000000000,"state":"active","ping":89},{"user_id":481,"name":"Früsteh","steam_id":76561198059177102,"connected_time":653000000000,"state":"active","ping":60},{"user_id":447,"name":"StingyLettuce","steam_id":76561199010337406,"connected_time":1879000000000,"state":"active","ping":118},{"user_id":450,"name":"N","steam_id":76561198257342972,"connected_time":1764000000000,"state":"active","ping":60},{"user_id":451,"name":"7oid","steam_id":76561198142074232,"connected_time":1748000000000,"state":"active","ping":103},{"user_id":452,"name":"Lessoz","steam_id":76561199211572036,"connected_time":1709000000000,"state":"active","ping":79},{"user_id":498,"name":"JujuBalu","steam_id":76561198207253071,"connected_time":106000000000,"state":"active","ping":60},{"user_id":464,"name":"etc","steam_id":76561197998394797,"connected_time":1224000000000,"state":"active","ping":56},{"user_id":482,"name":"Kamanie","steam_id":76561198135448255,"connected_time":652000000000,"state":"active","ping":63},{"user_id":466,"name":"rummy","steam_id":76561197997573379,"connected_time":1204000000000,"state":"active","ping":53},{"user_id":491,"name":"Codex","steam_id":76561198068748584,"connected_time":424000000000,"state":"active","ping":46},{"user_id":495,"name":"Jones","steam_id":76561198134347032,"connected_time":221000000000,"state":"active","ping":66},{"user_id":473,"name":"Max Andrew","steam_id":76561198158955194,"connected_time":904000000000,"state":"active","ping":57},{"user_id":484,"name":"Soerlssoelssöen","steam_id":76561197993060585,"connected_time":640000000000,"state":"active","ping":81},{"user_id":485,"name":"chachiply","steam_id":76561198316355509,"connected_time":629000000000,"state":"active","ping":64},{"user_id":486,"name":"weird gamer","steam_id":76561198047749446,"connected_time":625000000000,"state":"active","ping":57},{"user_id":496,"name":"Lazuli","steam_id":76561198058636964,"connected_time":202000000000,"state":"active","ping":45},{"user_id":494,"name":"elio","steam_id":76561198142662131,"connected_time":344000000000,"state":"active","ping":67},{"user_id":328,"name":"ROX","steam_id":76561198272289320,"connected_time":9952000000000,"state":"active","ping":66}]},{"server_id":21,"name":"Uncletopia | London | 5 | All Maps","name_short":"lon-5","host":"lon-1.uk.uncletopia.com","port":27055,"enabled":true,"region":"eu","cc":"gb","latitude":51.509865,"longitude":-0.118092,"reserved":0,"last_update":"0001-01-01T00:00:00Z","name_a2s":"Uncletopia | London | 5 | All Maps","protocol":17,"map":"cp_process_final","folder":"tf","game":"Team Fortress","app_id":440,"player_count":24,"max_players":24,"Bots":0,"server_type":"Dedicated","server_os":"Linux","password":true,"vac":true,"version":"7961495","steam_id":85568392924742829,"keywords":["cp","nocrits","nodmgspread","uncletopia"],"game_id":440,"stv_port":27056,"stv_name":"Uncletopia | London | 5 | All Maps | STV","players":[{"user_id":160,"name":"MxQuiteGood","steam_id":76561198069780233,"connected_time":4845000000000,"state":"active","ping":49},{"user_id":211,"name":"ran is running","steam_id":76561199443185667,"connected_time":508000000000,"state":"active","ping":137},{"user_id":149,"name":"Soup","steam_id":76561199081651572,"connected_time":5728000000000,"state":"active","ping":55},{"user_id":121,"name":"OriginalPond","steam_id":76561198052088053,"connected_time":6973000000000,"state":"active","ping":111},{"user_id":220,"name":"Tea","steam_id":76561198799243030,"connected_time":75000000000,"state":"active","ping":77},{"user_id":188,"name":"Vershal Smershal","steam_id":76561198116223995,"connected_time":2407000000000,"state":"active","ping":56},{"user_id":205,"name":"Naix","steam_id":76561198053893077,"connected_time":894000000000,"state":"active","ping":54},{"user_id":126,"name":"Memphis (♂)","steam_id":76561198045039038,"connected_time":6891000000000,"state":"active","ping":87},{"user_id":203,"name":"Gen","steam_id":76561198021775885,"connected_time":911000000000,"state":"active","ping":45},{"user_id":187,"name":"GuardrailHitter","steam_id":76561198149965777,"connected_time":2422000000000,"state":"active","ping":64},{"user_id":189,"name":"Genesis","steam_id":76561198999652040,"connected_time":2393000000000,"state":"active","ping":46},{"user_id":198,"name":"Yangus","steam_id":76561198147796010,"connected_time":2195000000000,"state":"active","ping":52},{"user_id":206,"name":"Mr.O #deletesniper","steam_id":76561198039567498,"connected_time":847000000000,"state":"active","ping":51},{"user_id":199,"name":"tf2 snake","steam_id":76561198193971167,"connected_time":2049000000000,"state":"active","ping":65},{"user_id":133,"name":"Maldom","steam_id":76561198000687053,"connected_time":6789000000000,"state":"active","ping":59},{"user_id":201,"name":"wal","steam_id":76561198066043883,"connected_time":925000000000,"state":"active","ping":56},{"user_id":212,"name":"Bounter","steam_id":76561198072614188,"connected_time":496000000000,"state":"active","ping":72},{"user_id":221,"name":"Mabert","steam_id":76561198436058407,"connected_time":64000000000,"state":"active","ping":75},{"user_id":214,"name":"Red Metal","steam_id":76561198362722560,"connected_time":481000000000,"state":"active","ping":183},{"user_id":222,"name":"Mighty Stature","steam_id":76561198083505031,"connected_time":57000000000,"state":"active","ping":46},{"user_id":218,"name":"√(-Wolf)","steam_id":76561198024769704,"connected_time":240000000000,"state":"active","ping":99},{"user_id":166,"name":"einfinity","steam_id":76561197992776372,"connected_time":4202000000000,"state":"active","ping":96},{"user_id":208,"name":"Rock..","steam_id":76561198004641963,"connected_time":808000000000,"state":"active","ping":77},{"user_id":196,"name":"xavier","steam_id":76561198076494034,"connected_time":2271000000000,"state":"active","ping":50}]},{"server_id":22,"name":"Uncletopia | London | 6 | All Maps","name_short":"lon-6","host":"lon-1.uk.uncletopia.com","port":27065,"enabled":true,"region":"eu","cc":"gb","latitude":51.509865,"longitude":-0.118092,"reserved":0,"last_update":"0001-01-01T00:00:00Z","name_a2s":"Uncletopia | London | 6 | All Maps","protocol":17,"map":"koth_cascade","folder":"tf","game":"Team Fortress","app_id":440,"player_count":3,"max_players":24,"Bots":0,"server_type":"Dedicated","server_os":"Linux","password":true,"vac":true,"version":"7961495","steam_id":85568392924742830,"keywords":["cp","nocrits","nodmgspread","uncletopia"],"game_id":440,"stv_port":27066,"stv_name":"Uncletopia | London | 6 | All Maps | STV","players":[{"user_id":66,"name":"frodoan","steam_id":76561198165602426,"connected_time":71000000000,"state":"active","ping":56},{"user_id":67,"name":"killer19611","steam_id":76561198267784520,"connected_time":13000000000,"state":"spawning","ping":44},{"user_id":70,"name":"SharaEnder","steam_id":76561198389429180,"connected_time":0,"state":"spawning","ping":0}]},{"server_id":40,"name":"Uncletopia | London | 7 | No Payload","name_short":"lon-7","host":"lon-1.uk.uncletopia.com","port":27075,"enabled":true,"region":"eu","cc":"gb","latitude":51.509865,"longitude":-0.118092,"reserved":0,"last_update":"0001-01-01T00:00:00Z","name_a2s":"Uncletopia | London | 7 | No Payload","protocol":17,"map":"plr_hightower","folder":"tf","game":"Team Fortress","app_id":440,"player_count":14,"max_players":24,"Bots":0,"server_type":"Dedicated","server_os":"Linux","password":true,"vac":true,"version":"7961495","steam_id":85568392924964314,"keywords":["nocrits","nodmgspread","payload","uncletopia"],"game_id":440,"stv_port":27076,"stv_name":"Uncletopia | London | 7 | No Payload | STV","players":[{"user_id":33,"name":"Der Herr Doktor","steam_id":76561198119476089,"connected_time":1256000000000,"state":"active","ping":64},{"user_id":34,"name":"Stealth_Rat","steam_id":76561199417569826,"connected_time":1023000000000,"state":"active","ping":66},{"user_id":25,"name":"Mobster Tortoise","steam_id":76561199036837091,"connected_time":3107000000000,"state":"active","ping":86},{"user_id":26,"name":"Moon","steam_id":76561198808108594,"connected_time":3104000000000,"state":"active","ping":95},{"user_id":28,"name":"XeloX123 banditcamp.com","steam_id":76561199012543366,"connected_time":2573000000000,"state":"active","ping":132},{"user_id":29,"name":"SirDirtbag","steam_id":76561198091890855,"connected_time":2279000000000,"state":"active","ping":80},{"user_id":42,"name":"BloodFuel","steam_id":76561198146340825,"connected_time":310000000000,"state":"active","ping":107},{"user_id":31,"name":"ムGeRmAn |×UA×ム","steam_id":76561199044754898,"connected_time":2005000000000,"state":"active","ping":75},{"user_id":41,"name":"Gee","steam_id":76561198274572444,"connected_time":399000000000,"state":"active","ping":60},{"user_id":45,"name":"Undefined Behaviour","steam_id":76561198069518492,"connected_time":286000000000,"state":"active","ping":93},{"user_id":44,"name":"Overlord Malarkey","steam_id":76561198098267117,"connected_time":296000000000,"state":"active","ping":52},{"user_id":49,"name":"Kuntmeister","steam_id":76561198016076012,"connected_time":73000000000,"state":"active","ping":115},{"user_id":47,"name":"Torttu","steam_id":76561198013980029,"connected_time":183000000000,"state":"active","ping":60},{"user_id":48,"name":"nibs","steam_id":76561198040099538,"connected_time":156000000000,"state":"active","ping":62}]},{"server_id":41,"name":"Uncletopia | London | 8 | Community","name_short":"lon-8","host":"lon-1.uk.uncletopia.com","port":27085,"enabled":true,"region":"eu","cc":"gb","latitude":51.509865,"longitude":-0.118092,"reserved":0,"last_update":"0001-01-01T00:00:00Z","name_a2s":"Uncletopia | London | 8 | Community","protocol":17,"map":"workshop/pl_highwood_b13.ugc1769496557","folder":"tf","game":"Team Fortress","app_id":440,"player_count":0,"max_players":24,"Bots":0,"server_type":"Dedicated","server_os":"Linux","password":true,"vac":true,"version":"7961495","steam_id":85568392924964315,"keywords":["nocrits","nodmgspread","payload","uncletopia"],"game_id":440,"stv_port":27086,"stv_name":"Uncletopia | London | 8 | Community | STV","players":null},{"server_id":300,"name":"Uncletopia | Montréal | 1 | All Maps","name_short":"mtl-1","host":"mtl-1.ca.uncletopia.com","port":27015,"enabled":true,"region":"us-east","cc":"ca","latitude":45.50889,"longitude":-73.56167,"reserved":0,"last_update":"0001-01-01T00:00:00Z","name_a2s":"Uncletopia | Montréal | 1 | All Maps","protocol":17,"map":"koth_cascade","folder":"tf","game":"Team Fortress","app_id":440,"player_count":0,"max_players":24,"Bots":0,"server_type":"Dedicated","server_os":"Linux","password":true,"vac":true,"version":"7961495","steam_id":85568392924500087,"keywords":["cp","nocrits","nodmgspread","uncletopia"],"game_id":440,"stv_port":27016,"stv_name":"Uncletopia | Montréal | 1 | All Maps | STV","players":null},{"server_id":301,"name":"Uncletopia | Montréal | 2 | All Maps","name_short":"mtl-2","host":"mtl-1.ca.uncletopia.com","port":27025,"enabled":true,"region":"us-east","cc":"ca","latitude":45.50889,"longitude":-73.56167,"reserved":0,"last_update":"0001-01-01T00:00:00Z","name_a2s":"Uncletopia | Montréal | 2 | All Maps","protocol":17,"map":"pl_frontier_final","folder":"tf","game":"Team Fortress","app_id":440,"player_count":0,"max_players":24,"Bots":0,"server_type":"Dedicated","server_os":"Linux","password":true,"vac":true,"version":"7961495","steam_id":85568392924500088,"keywords":["nocrits","nodmgspread","payload","uncletopia"],"game_id":440,"stv_port":27026,"stv_name":"Uncletopia | Montréal | 2 | All Maps | STV","players":null},{"server_id":302,"name":"Uncletopia | Montréal | 3 | All Maps","name_short":"mtl-3","host":"mtl-1.ca.uncletopia.com","port":27035,"enabled":true,"region":"us-east","cc":"ca","latitude":45.50889,"longitude":-73.56167,"reserved":0,"last_update":"0001-01-01T00:00:00Z","name_a2s":"Uncletopia | Montréal | 3 | All Maps","protocol":17,"map":"pl_snowycoast","folder":"tf","game":"Team Fortress","app_id":440,"player_count":0,"max_players":24,"Bots":0,"server_type":"Dedicated","server_os":"Linux","password":true,"vac":true,"version":"7961495","steam_id":85568392924500089,"keywords":["nocrits","nodmgspread","payload","uncletopia"],"game_id":440,"stv_port":27036,"stv_name":"Uncletopia | Montréal | 3 | All Maps | STV","players":null},{"server_id":303,"name":"Uncletopia | Montréal | 4 | No Payload","name_short":"mtl-4","host":"mtl-1.ca.uncletopia.com","port":27045,"enabled":true,"region":"us-east","cc":"ca","latitude":45.50889,"longitude":-73.56167,"reserved":0,"last_update":"0001-01-01T00:00:00Z","name_a2s":"Uncletopia | Montréal | 4 | No Payload","protocol":17,"map":"cp_5gorge","folder":"tf","game":"Team Fortress","app_id":440,"player_count":0,"max_players":24,"Bots":0,"server_type":"Dedicated","server_os":"Linux","password":true,"vac":true,"version":"7961495","steam_id":85568392924500090,"keywords":["cp","nocrits","nodmgspread","uncletopia"],"game_id":440,"stv_port":27046,"stv_name":"Uncletopia | Montréal | 4 | No Payload | STV","players":null},{"server_id":13,"name":"Uncletopia | New York City | 1 | All Maps","name_short":"nyc-1","host":"nyc-1.us.uncletopia.com","port":27015,"enabled":true,"region":"us-east","cc":"us","latitude":40.73061,"longitude":-73.93524,"reserved":0,"last_update":"0001-01-01T00:00:00Z","name_a2s":"Uncletopia | New York City | 1 | All Maps","protocol":17,"map":"koth_nucleus","folder":"tf","game":"Team Fortress","app_id":440,"player_count":22,"max_players":24,"Bots":0,"server_type":"Dedicated","server_os":"Linux","password":true,"vac":true,"version":"7961495","steam_id":85568392924469993,"keywords":["cp","nocrits","nodmgspread","uncletopia"],"game_id":440,"stv_port":27016,"stv_name":"Uncletopia | New York City | 1 | All Maps | STV","players":[{"user_id":7,"name":"Porcupine's Revenge!","steam_id":76561199121615234,"connected_time":4476000000000,"state":"active","ping":41},{"user_id":84,"name":"Fat Kid","steam_id":76561198304180941,"connected_time":46000000000,"state":"active","ping":109},{"user_id":85,"name":"Sully","steam_id":76561198055418425,"connected_time":1000000000,"state":"spawning","ping":87},{"user_id":10,"name":"Gentoo Linux Gaming","steam_id":76561197999657118,"connected_time":4302000000000,"state":"active","ping":68},{"user_id":80,"name":"Argo","steam_id":76561198353725622,"connected_time":450000000000,"state":"active","ping":73},{"user_id":53,"name":"Mr. Durian","steam_id":76561198093813212,"connected_time":1814000000000,"state":"active","ping":62},{"user_id":54,"name":"4jess20","steam_id":76561199488852383,"connected_time":1804000000000,"state":"active","ping":56},{"user_id":44,"name":"Yeonwoo","steam_id":76561199082985721,"connected_time":2487000000000,"state":"active","ping":47},{"user_id":74,"name":"Spiral Mountain","steam_id":76561198058683715,"connected_time":961000000000,"state":"active","ping":63},{"user_id":17,"name":"Periculosum PhD in Funny","steam_id":76561198123370914,"connected_time":3304000000000,"state":"active","ping":92},{"user_id":81,"name":"ForeverKurris","steam_id":76561198799251864,"connected_time":326000000000,"state":"active","ping":92},{"user_id":19,"name":"Nilantive","steam_id":76561198177565082,"connected_time":3279000000000,"state":"active","ping":32},{"user_id":59,"name":"Zixzs","steam_id":76561198055504126,"connected_time":1694000000000,"state":"active","ping":77},{"user_id":79,"name":"☆Epic_Facha☆","steam_id":76561199044182882,"connected_time":495000000000,"state":"active","ping":168},{"user_id":22,"name":"THGAwesome","steam_id":76561198162847218,"connected_time":3260000000000,"state":"active","ping":71},{"user_id":60,"name":"citrus","steam_id":76561198294606679,"connected_time":1664000000000,"state":"active","ping":48},{"user_id":70,"name":"thecal","steam_id":76561198307893384,"connected_time":1351000000000,"state":"active","ping":65},{"user_id":68,"name":"goose","steam_id":76561198237293994,"connected_time":1386000000000,"state":"active","ping":55},{"user_id":78,"name":"Primal","steam_id":76561197983118203,"connected_time":644000000000,"state":"active","ping":79},{"user_id":63,"name":"my forebrain is highly develope","steam_id":76561198016826181,"connected_time":1561000000000,"state":"active","ping":59},{"user_id":83,"name":"Butters495","steam_id":76561197998689042,"connected_time":160000000000,"state":"active","ping":74},{"user_id":82,"name":"✪ goofbears -iwnl-","steam_id":76561199100831175,"connected_time":308000000000,"state":"active","ping":60}]},{"server_id":14,"name":"Uncletopia | New York City | 2 | All Maps","name_short":"nyc-2","host":"nyc-1.us.uncletopia.com","port":27025,"enabled":true,"region":"us-east","cc":"us","latitude":40.73061,"longitude":-73.93524,"reserved":0,"last_update":"0001-01-01T00:00:00Z","name_a2s":"Uncletopia | New York City | 2 | All Maps","protocol":17,"map":"pl_snowycoast","folder":"tf","game":"Team Fortress","app_id":440,"player_count":23,"max_players":24,"Bots":0,"server_type":"Dedicated","server_os":"Linux","password":true,"vac":true,"version":"7961495","steam_id":85568392924469994,"keywords":["nocrits","nodmgspread","payload","uncletopia"],"game_id":440,"stv_port":27026,"stv_name":"Uncletopia | New York City | 2 | All Maps | STV","players":[{"user_id":330,"name":"cecilcooper","steam_id":76561199486676318,"connected_time":268000000000,"state":"active","ping":68},{"user_id":325,"name":"Moonkey","steam_id":76561199013741389,"connected_time":712000000000,"state":"active","ping":45},{"user_id":328,"name":"Fat Engineer Gaming","steam_id":76561199211974596,"connected_time":287000000000,"state":"active","ping":133},{"user_id":252,"name":"Shattered Glass","steam_id":76561198116835391,"connected_time":5310000000000,"state":"active","ping":88},{"user_id":320,"name":"5mech","steam_id":76561198979167520,"connected_time":1575000000000,"state":"active","ping":53},{"user_id":284,"name":"ash","steam_id":76561198127890645,"connected_time":3459000000000,"state":"active","ping":76},{"user_id":305,"name":"playguy carter","steam_id":76561198080679337,"connected_time":2335000000000,"state":"active","ping":63},{"user_id":317,"name":"HyperBluuJay","steam_id":76561198165709523,"connected_time":1758000000000,"state":"active","ping":77},{"user_id":319,"name":"[chef] iron","steam_id":76561197970888616,"connected_time":1711000000000,"state":"active","ping":65},{"user_id":323,"name":"Moses","steam_id":76561198874531590,"connected_time":801000000000,"state":"active","ping":57},{"user_id":293,"name":"Observer","steam_id":76561198326814067,"connected_time":2784000000000,"state":"active","ping":103},{"user_id":324,"name":"superx","steam_id":76561198044976613,"connected_time":759000000000,"state":"active","ping":54},{"user_id":312,"name":"SoaringPhoenix","steam_id":76561198445103637,"connected_time":1938000000000,"state":"active","ping":56},{"user_id":310,"name":"koh ✧","steam_id":76561198831996918,"connected_time":2130000000000,"state":"active","ping":75},{"user_id":314,"name":"artichoke","steam_id":76561198980994364,"connected_time":1895000000000,"state":"active","ping":85},{"user_id":283,"name":"IHateTheMiddleClass","steam_id":76561199445629071,"connected_time":3602000000000,"state":"active","ping":46},{"user_id":329,"name":"playr","steam_id":76561198354622099,"connected_time":283000000000,"state":"active","ping":75},{"user_id":258,"name":"NYC APPA YIP YIP","steam_id":76561198112929942,"connected_time":5094000000000,"state":"active","ping":57},{"user_id":327,"name":"Terminator69","steam_id":76561198809283651,"connected_time":298000000000,"state":"active","ping":45},{"user_id":303,"name":"GaiBerd","steam_id":76561198177100634,"connected_time":2395000000000,"state":"active","ping":48},{"user_id":326,"name":"Beefaroni","steam_id":76561198093631976,"connected_time":427000000000,"state":"active","ping":40},{"user_id":334,"name":"Zanartan","steam_id":76561198050528902,"connected_time":54000000000,"state":"active","ping":188},{"user_id":331,"name":"The Power","steam_id":76561198060566884,"connected_time":251000000000,"state":"active","ping":133}]},{"server_id":15,"name":"Uncletopia | New York City | 3 | Stopwatch Beta","name_short":"nyc-3","host":"nyc-1.us.uncletopia.com","port":27035,"enabled":true,"region":"us-east","cc":"us","latitude":40.73061,"longitude":-73.93524,"reserved":0,"last_update":"0001-01-01T00:00:00Z","name_a2s":"Uncletopia | New York City | 3 | Stopwatch Beta","protocol":17,"map":"koth_lakeside_final","folder":"tf","game":"Team Fortress","app_id":440,"player_count":0,"max_players":24,"Bots":0,"server_type":"Dedicated","server_os":"Linux","password":true,"vac":true,"version":"7961495","steam_id":85568392924742820,"keywords":["cp","nocrits","nodmgspread","uncletopia"],"game_id":440,"stv_port":27036,"stv_name":"Uncletopia | New York City | 3 | Stopwatch Beta | STV","players":null},{"server_id":16,"name":"Uncletopia | New York City | 4 | Community","name_short":"nyc-4","host":"nyc-1.us.uncletopia.com","port":27045,"enabled":true,"region":"us-east","cc":"us","latitude":40.73061,"longitude":-73.93524,"reserved":0,"last_update":"0001-01-01T00:00:00Z","name_a2s":"Uncletopia | New York City | 4 | Community","protocol":17,"map":"pl_frontier_final","folder":"tf","game":"Team Fortress","app_id":440,"player_count":0,"max_players":24,"Bots":0,"server_type":"Dedicated","server_os":"Linux","password":true,"vac":true,"version":"7961495","steam_id":85568392924742821,"keywords":["nocrits","nodmgspread","payload","uncletopia"],"game_id":440,"stv_port":27046,"stv_name":"Uncletopia | New York City | 4 | Community | STV","players":null},{"server_id":142,"name":"Uncletopia | São Paulo | 1 | All Maps","name_short":"sao-1","host":"sao-1.br.uncletopia.com","port":27015,"enabled":true,"region":"sa","cc":"br","latitude":-23.533773,"longitude":-46.62529,"reserved":0,"last_update":"0001-01-01T00:00:00Z","name_a2s":"Uncletopia | São Paulo | 1 | All Maps","protocol":17,"map":"koth_highpass","folder":"tf","game":"Team Fortress","app_id":440,"player_count":0,"max_players":24,"Bots":0,"server_type":"Dedicated","server_os":"Linux","password":true,"vac":true,"version":"7961495","steam_id":85568392924469996,"keywords":["cp","nocrits","nodmgspread","uncletopia"],"game_id":440,"stv_port":27016,"stv_name":"Uncletopia | São Paulo | 1 | All Maps | STV","players":null},{"server_id":143,"name":"Uncletopia | São Paulo | 2 | All Maps","name_short":"sao-2","host":"sao-2.br.uncletopia.com","port":27015,"enabled":true,"region":"sa","cc":"br","latitude":-23.533773,"longitude":-46.62529,"reserved":0,"last_update":"0001-01-01T00:00:00Z","name_a2s":"Uncletopia | São Paulo | 2 | All Maps","protocol":17,"map":"koth_king","folder":"tf","game":"Team Fortress","app_id":440,"player_count":7,"max_players":24,"Bots":0,"server_type":"Dedicated","server_os":"Linux","password":true,"vac":true,"version":"7961495","steam_id":85568392924485349,"keywords":["cp","nocrits","nodmgspread","uncletopia"],"game_id":440,"stv_port":27016,"stv_name":"Uncletopia | São Paulo | 2 | All Maps | STV","players":[{"user_id":14,"name":"Copmmer","steam_id":76561199080964271,"connected_time":393000000000,"state":"active","ping":50},{"user_id":15,"name":"cezar","steam_id":76561198426484905,"connected_time":178000000000,"state":"active","ping":57},{"user_id":13,"name":"xd","steam_id":76561198317090330,"connected_time":703000000000,"state":"active","ping":65},{"user_id":16,"name":"lei feng","steam_id":76561198116789301,"connected_time":113000000000,"state":"active","ping":82},{"user_id":11,"name":"Adolf_Dripler_1945","steam_id":76561198963738808,"connected_time":1765000000000,"state":"active","ping":40},{"user_id":10,"name":"mg11a3","steam_id":76561198872798175,"connected_time":2081000000000,"state":"active","ping":55},{"user_id":17,"name":"kbeçasfalantes","steam_id":76561198107479519,"connected_time":101000000000,"state":"active","ping":42}]},{"server_id":7,"name":"Uncletopia | Seattle | 1 | All Maps","name_short":"sea-1","host":"sea-1.us.uncletopia.com","port":27015,"enabled":true,"region":"us-west","cc":"us","latitude":47.608013,"longitude":-122.33517,"reserved":0,"last_update":"0001-01-01T00:00:00Z","name_a2s":"Uncletopia | Seattle | 1 | All Maps","protocol":17,"map":"pl_borneo","folder":"tf","game":"Team Fortress","app_id":440,"player_count":24,"max_players":24,"Bots":0,"server_type":"Dedicated","server_os":"Linux","password":true,"vac":true,"version":"7961495","steam_id":85568392924469997,"keywords":["nocrits","nodmgspread","payload","uncletopia"],"game_id":440,"stv_port":27016,"stv_name":"Uncletopia | Seattle | 1 | All Maps | STV","players":[{"user_id":26,"name":"dust | she/it","steam_id":76561198045218909,"connected_time":9048000000000,"state":"active","ping":35},{"user_id":154,"name":"Mormon Discoball","steam_id":76561198028006216,"connected_time":746000000000,"state":"active","ping":71},{"user_id":160,"name":"Cousin Balki","steam_id":76561198070496395,"connected_time":335000000000,"state":"active","ping":134},{"user_id":159,"name":"johndeerwarrior#farmville","steam_id":76561198178049845,"connected_time":491000000000,"state":"active","ping":46},{"user_id":138,"name":"Yurei","steam_id":76561198088750661,"connected_time":2148000000000,"state":"active","ping":71},{"user_id":161,"name":"Integral","steam_id":76561198158225481,"connected_time":198000000000,"state":"active","ping":93},{"user_id":123,"name":"Daz","steam_id":76561198041431938,"connected_time":3593000000000,"state":"active","ping":50},{"user_id":126,"name":"MacchuPeachu","steam_id":76561199093242587,"connected_time":3443000000000,"state":"active","ping":62},{"user_id":39,"name":"EmptyB33R","steam_id":76561198993166528,"connected_time":7823000000000,"state":"active","ping":74},{"user_id":133,"name":"Trips","steam_id":76561198054581597,"connected_time":2582000000000,"state":"active","ping":90},{"user_id":129,"name":"SnazzyCelestial","steam_id":76561198328763813,"connected_time":2834000000000,"state":"active","ping":126},{"user_id":135,"name":"BlazedBunny","steam_id":76561198243610560,"connected_time":2464000000000,"state":"active","ping":68},{"user_id":144,"name":"Moonlily","steam_id":76561198852670061,"connected_time":1853000000000,"state":"active","ping":111},{"user_id":155,"name":"Radio","steam_id":76561198194821053,"connected_time":740000000000,"state":"active","ping":46},{"user_id":151,"name":"bullet man","steam_id":76561198080058079,"connected_time":1274000000000,"state":"active","ping":48},{"user_id":158,"name":"Mediarch","steam_id":76561198050765729,"connected_time":540000000000,"state":"active","ping":53},{"user_id":153,"name":"I'm luvin dis here rap game $$$","steam_id":76561199127423378,"connected_time":748000000000,"state":"active","ping":91},{"user_id":64,"name":"Keamy","steam_id":76561199471434875,"connected_time":5728000000000,"state":"active","ping":30},{"user_id":131,"name":"mega","steam_id":76561198089520959,"connected_time":2629000000000,"state":"active","ping":95},{"user_id":162,"name":"Muralo","steam_id":76561198202160268,"connected_time":44000000000,"state":"spawning","ping":43},{"user_id":146,"name":"Tom","steam_id":76561198070630154,"connected_time":1722000000000,"state":"active","ping":84},{"user_id":152,"name":"Slothy","steam_id":76561198967069349,"connected_time":1158000000000,"state":"active","ping":59},{"user_id":157,"name":"ihavetapeworms","steam_id":76561198357040313,"connected_time":642000000000,"state":"active","ping":65},{"user_id":148,"name":"Dimple #TF2Center","steam_id":76561198980324190,"connected_time":1697000000000,"state":"active","ping":54}]},{"server_id":119,"name":"Uncletopia | Seattle | 2 | All Maps","name_short":"sea-2","host":"sea-1.us.uncletopia.com","port":27025,"enabled":true,"region":"us-west","cc":"us","latitude":47.608013,"longitude":-122.33517,"reserved":0,"last_update":"0001-01-01T00:00:00Z","name_a2s":"Uncletopia | Seattle | 2 | All Maps","protocol":17,"map":"koth_highpass","folder":"tf","game":"Team Fortress","app_id":440,"player_count":0,"max_players":24,"Bots":0,"server_type":"Dedicated","server_os":"Linux","password":true,"vac":true,"version":"7961495","steam_id":85568392924469998,"keywords":["cp","nocrits","nodmgspread","uncletopia"],"game_id":440,"stv_port":27026,"stv_name":"Uncletopia | Seattle | 2 | All Maps | STV","players":null},{"server_id":406,"name":"Uncletopia | Seattle | 3 | Stopwatch Beta","name_short":"sea-3","host":"sea-1.us.uncletopia.com","port":27035,"enabled":true,"region":"us-west","cc":"us","latitude":47.608013,"longitude":-122.33517,"reserved":0,"last_update":"0001-01-01T00:00:00Z","name_a2s":"Uncletopia | Seattle | 3 | Stopwatch Beta","protocol":17,"map":"cp_mountainlab","folder":"tf","game":"Team Fortress","app_id":440,"player_count":0,"max_players":24,"Bots":0,"server_type":"Dedicated","server_os":"Linux","password":true,"vac":true,"version":"7961495","steam_id":85568392924515217,"keywords":["cp","nocrits","nodmgspread","uncletopia"],"game_id":440,"stv_port":27036,"stv_name":"Uncletopia | Seattle | 3 | Stopwatch Beta | STV","players":null},{"server_id":17,"name":"Uncletopia | San Francisco | 1 | All Maps","name_short":"sfo-1","host":"sfo-1.us.uncletopia.com","port":27015,"enabled":true,"region":"us-west","cc":"us","latitude":37.77397,"longitude":-122.4313,"reserved":0,"last_update":"0001-01-01T00:00:00Z","name_a2s":"Uncletopia | San Francisco | 1 | All Maps","protocol":17,"map":"pl_frontier_final","folder":"tf","game":"Team Fortress","app_id":440,"player_count":0,"max_players":24,"Bots":0,"server_type":"Dedicated","server_os":"Linux","password":true,"vac":true,"version":"7932396","steam_id":85568392924469999,"keywords":["nocrits","nodmgspread","payload","uncletopia"],"game_id":440,"stv_port":27016,"stv_name":"Uncletopia | San Francisco | 1 | All Maps | STV","players":null},{"server_id":18,"name":"Uncletopia | San Francisco | 2 | All Maps","name_short":"sfo-2","host":"sfo-1.us.uncletopia.com","port":27025,"enabled":true,"region":"us-west","cc":"us","latitude":37.77397,"longitude":-122.4313,"reserved":0,"last_update":"0001-01-01T00:00:00Z","name_a2s":"Uncletopia | San Francisco | 2 | All Maps","protocol":17,"map":"cp_snakewater_final1","folder":"tf","game":"Team Fortress","app_id":440,"player_count":0,"max_players":24,"Bots":0,"server_type":"Dedicated","server_os":"Linux","password":true,"vac":true,"version":"7932396","steam_id":85568392924470000,"keywords":["cp","nocrits","nodmgspread","uncletopia"],"game_id":440,"stv_port":27026,"stv_name":"Uncletopia | San Francisco | 2 | All Maps | STV","players":null},{"server_id":19,"name":"Uncletopia | San Francisco | 3 | Stopwatch Beta","name_short":"sfo-3","host":"sfo-1.us.uncletopia.com","port":27035,"enabled":true,"region":"us-west","cc":"us","latitude":37.77397,"longitude":-122.4313,"reserved":0,"last_update":"0001-01-01T00:00:00Z","name_a2s":"Uncletopia | San Francisco | 3 | Stopwatch Beta","protocol":17,"map":"koth_lakeside_final","folder":"tf","game":"Team Fortress","app_id":440,"player_count":0,"max_players":24,"Bots":0,"server_type":"Dedicated","server_os":"Linux","password":true,"vac":true,"version":"7932396","steam_id":85568392924742824,"keywords":["cp","nocrits","nodmgspread","uncletopia"],"game_id":440,"stv_port":27036,"stv_name":"Uncletopia | San Francisco | 3 | Stopwatch Beta | STV","players":null},{"server_id":20,"name":"Uncletopia | San Francisco | 4 | Community","name_short":"sfo-4","host":"sfo-1.us.uncletopia.com","port":27045,"enabled":true,"region":"us-west","cc":"us","latitude":37.77397,"longitude":-122.4313,"reserved":0,"last_update":"0001-01-01T00:00:00Z","name_a2s":"Uncletopia | San Francisco | 4 | Community","protocol":17,"map":"pl_borneo","folder":"tf","game":"Team Fortress","app_id":440,"player_count":0,"max_players":24,"Bots":0,"server_type":"Dedicated","server_os":"Linux","password":true,"vac":true,"version":"7932396","steam_id":85568392924742826,"keywords":["nocrits","nodmgspread","payload","uncletopia"],"game_id":440,"stv_port":27046,"stv_name":"Uncletopia | San Francisco | 4 | Community | STV","players":null},{"server_id":141,"name":"Uncletopia | Sydney | 1 | All Maps","name_short":"syd-1","host":"syd-1.au.uncletopia.com","port":27015,"enabled":true,"region":"au","cc":"au","latitude":-33.865143,"longitude":151.2099,"reserved":0,"last_update":"0001-01-01T00:00:00Z","name_a2s":"Uncletopia | Sydney | 1 | All Maps","protocol":17,"map":"koth_highpass","folder":"tf","game":"Team Fortress","app_id":440,"player_count":0,"max_players":24,"Bots":0,"server_type":"Dedicated","server_os":"Linux","password":true,"vac":true,"version":"7961495","steam_id":85568392924470001,"keywords":["cp","nocrits","nodmgspread","uncletopia"],"game_id":440,"stv_port":27016,"stv_name":"Uncletopia | Sydney | 1 | All Maps | STV","players":null},{"server_id":123,"name":"Uncletopia | Sydney | 2 | All Maps","name_short":"syd-2","host":"syd-1.au.uncletopia.com","port":27025,"enabled":true,"region":"au","cc":"au","latitude":-33.865143,"longitude":151.2099,"reserved":0,"last_update":"0001-01-01T00:00:00Z","name_a2s":"Uncletopia | Sydney | 2 | All Maps","protocol":17,"map":"koth_viaduct","folder":"tf","game":"Team Fortress","app_id":440,"player_count":0,"max_players":24,"Bots":0,"server_type":"Dedicated","server_os":"Linux","password":true,"vac":true,"version":"7961495","steam_id":85568392924470002,"keywords":["cp","nocrits","nodmgspread","uncletopia"],"game_id":440,"stv_port":27026,"stv_name":"Uncletopia | Sydney | 2 | All Maps | STV","players":null},{"server_id":395,"name":"Uncletopia | Sydney | 3 | All Maps","name_short":"syd-3","host":"syd-1.au.uncletopia.com","port":27035,"enabled":true,"region":"au","cc":"au","latitude":-33.865143,"longitude":151.2099,"reserved":0,"last_update":"0001-01-01T00:00:00Z","name_a2s":"Uncletopia | Sydney | 3 | All Maps","protocol":17,"map":"cp_snakewater_final1","folder":"tf","game":"Team Fortress","app_id":440,"player_count":4,"max_players":24,"Bots":0,"server_type":"Dedicated","server_os":"Linux","password":true,"vac":true,"version":"7961495","steam_id":85568392925194467,"keywords":["cp","nocrits","nodmgspread","uncletopia"],"game_id":440,"stv_port":27036,"stv_name":"Uncletopia | Sydney | 3 | All Maps | STV","players":[{"user_id":7,"name":"Raiden00","steam_id":76561197994078111,"connected_time":843000000000,"state":"active","ping":125},{"user_id":8,"name":"NotKomori","steam_id":76561198845165975,"connected_time":840000000000,"state":"active","ping":302},{"user_id":9,"name":"TheInfiniteK","steam_id":76561198353173330,"connected_time":825000000000,"state":"active","ping":91},{"user_id":10,"name":"Marmalade Cat","steam_id":76561198086309767,"connected_time":644000000000,"state":"active","ping":62}]},{"server_id":396,"name":"Uncletopia | Sydney | 4 | All Maps","name_short":"syd-4","host":"syd-1.au.uncletopia.com","port":27045,"enabled":true,"region":"au","cc":"au","latitude":-33.865143,"longitude":151.2099,"reserved":0,"last_update":"0001-01-01T00:00:00Z","name_a2s":"Uncletopia | Sydney | 4 | All Maps","protocol":17,"map":"koth_cascade","folder":"tf","game":"Team Fortress","app_id":440,"player_count":0,"max_players":24,"Bots":0,"server_type":"Dedicated","server_os":"Linux","password":true,"vac":true,"version":"7961495","steam_id":85568392925397958,"keywords":["cp","nocrits","nodmgspread","uncletopia"],"game_id":440,"stv_port":27046,"stv_name":"Uncletopia | Sydney | 4 | All Maps | STV","players":null},{"server_id":58,"name":"Uncletopia | Sydney | 5 | Stopwatch Beta","name_short":"syd-5","host":"syd-1.au.uncletopia.com","port":27055,"enabled":true,"region":"au","cc":"au","latitude":-33.865143,"longitude":151.2099,"reserved":0,"last_update":"0001-01-01T00:00:00Z","name_a2s":"Uncletopia | Sydney | 5 | Stopwatch Beta","protocol":17,"map":"koth_viaduct","folder":"tf","game":"Team Fortress","app_id":440,"player_count":0,"max_players":24,"Bots":0,"server_type":"Dedicated","server_os":"Linux","password":true,"vac":true,"version":"7961495","steam_id":85568392925397959,"keywords":["cp","nocrits","nodmgspread","uncletopia"],"game_id":440,"stv_port":27056,"stv_name":"Uncletopia | Sydney | 5 | Stopwatch Beta | STV","players":null},{"server_id":59,"name":"Uncletopia | Sydney | 6 | Community","name_short":"syd-6","host":"syd-1.au.uncletopia.com","port":27065,"enabled":true,"region":"au","cc":"au","latitude":-33.865143,"longitude":151.2099,"reserved":0,"last_update":"0001-01-01T00:00:00Z","name_a2s":"Uncletopia | Sydney | 6 | Community","protocol":17,"map":"pl_barnblitz","folder":"tf","game":"Team Fortress","app_id":440,"player_count":0,"max_players":24,"Bots":0,"server_type":"Dedicated","server_os":"Linux","password":true,"vac":true,"version":"7961495","steam_id":85568392925397960,"keywords":["nocrits","nodmgspread","payload","uncletopia"],"game_id":440,"stv_port":27066,"stv_name":"Uncletopia | Sydney | 6 | Community | STV","players":null},{"server_id":49,"name":"Uncletopia | Warsaw | 1 | All Maps","name_short":"waw-1","host":"waw-1.pl.uncletopia.com","port":27015,"enabled":true,"region":"eu","cc":"pl","latitude":52.2297,"longitude":21.017532,"reserved":0,"last_update":"0001-01-01T00:00:00Z","name_a2s":"","protocol":0,"map":"","folder":"","game":"","app_id":0,"player_count":0,"max_players":0,"Bots":0,"server_type":"","server_os":"","password":false,"vac":false,"version":"","steam_id":0,"keywords":null,"game_id":0,"stv_port":0,"stv_name":"","players":null},{"server_id":50,"name":"Uncletopia | Warsaw | 2 | All Maps","name_short":"waw-2","host":"waw-1.pl.uncletopia.com","port":27025,"enabled":true,"region":"eu","cc":"pl","latitude":52.2297,"longitude":21.017532,"reserved":0,"last_update":"0001-01-01T00:00:00Z","name_a2s":"Uncletopia | Warsaw | 2 | All Maps","protocol":17,"map":"koth_lakeside_final","folder":"tf","game":"Team Fortress","app_id":440,"player_count":0,"max_players":24,"Bots":0,"server_type":"Dedicated","server_os":"Linux","password":true,"vac":true,"version":"7961495","steam_id":85568392925397851,"keywords":["cp","nocrits","nodmgspread","uncletopia"],"game_id":440,"stv_port":27026,"stv_name":"Uncletopia | Warsaw | 2 | All Maps | STV","players":null},{"server_id":51,"name":"Uncletopia | Warsaw | 3 | All Maps","name_short":"waw-3","host":"waw-1.pl.uncletopia.com","port":27035,"enabled":true,"region":"eu","cc":"pl","latitude":52.2297,"longitude":21.017532,"reserved":0,"last_update":"0001-01-01T00:00:00Z","name_a2s":"Uncletopia | Warsaw | 3 | All Maps","protocol":17,"map":"cp_snakewater_final1","folder":"tf","game":"Team Fortress","app_id":440,"player_count":0,"max_players":24,"Bots":0,"server_type":"Dedicated","server_os":"Linux","password":true,"vac":true,"version":"7961495","steam_id":85568392925397852,"keywords":["cp","nocrits","nodmgspread","uncletopia"],"game_id":440,"stv_port":27036,"stv_name":"Uncletopia | Warsaw | 3 | All Maps | STV","players":null},{"server_id":52,"name":"Uncletopia | Warsaw | 4 | All Maps","name_short":"waw-4","host":"waw-1.pl.uncletopia.com","port":27045,"enabled":true,"region":"eu","cc":"pl","latitude":52.2297,"longitude":21.017532,"reserved":0,"last_update":"0001-01-01T00:00:00Z","name_a2s":"Uncletopia | Warsaw | 4 | All Maps","protocol":17,"map":"koth_cascade","folder":"tf","game":"Team Fortress","app_id":440,"player_count":0,"max_players":24,"Bots":0,"server_type":"Dedicated","server_os":"Linux","password":true,"vac":true,"version":"7961495","steam_id":85568392925397853,"keywords":["cp","nocrits","nodmgspread","uncletopia"],"game_id":440,"stv_port":27046,"stv_name":"Uncletopia | Warsaw | 4 | All Maps | STV","players":null},{"server_id":53,"name":"Uncletopia | Warsaw | 5 | Stopwatch Beta","name_short":"waw-5","host":"waw-1.pl.uncletopia.com","port":27055,"enabled":true,"region":"eu","cc":"pl","latitude":52.2297,"longitude":21.017532,"reserved":0,"last_update":"0001-01-01T00:00:00Z","name_a2s":"Uncletopia | Warsaw | 5 | Stopwatch Beta","protocol":17,"map":"workshop/pl_summercoast_rc8e.ugc1761528829","folder":"tf","game":"Team Fortress","app_id":440,"player_count":0,"max_players":24,"Bots":0,"server_type":"Dedicated","server_os":"Linux","password":true,"vac":true,"version":"7961495","steam_id":85568392925397854,"keywords":["nocrits","nodmgspread","payload","uncletopia"],"game_id":440,"stv_port":27056,"stv_name":"Uncletopia | Warsaw | 5 | Stopwatch Beta | STV","players":null},{"server_id":54,"name":"Uncletopia | Warsaw | 6 | Community","name_short":"waw-6","host":"waw-1.pl.uncletopia.com","port":27065,"enabled":true,"region":"eu","cc":"pl","latitude":52.2297,"longitude":21.017532,"reserved":0,"last_update":"0001-01-01T00:00:00Z","name_a2s":"Uncletopia | Warsaw | 6 | Community","protocol":17,"map":"workshop/cp_reckoner_rc6.ugc674719999","folder":"tf","game":"Team Fortress","app_id":440,"player_count":0,"max_players":24,"Bots":0,"server_type":"Dedicated","server_os":"Linux","password":true,"vac":true,"version":"7961495","steam_id":85568392925397856,"keywords":["cp","nocrits","nodmgspread","uncletopia"],"game_id":440,"stv_port":27066,"stv_name":"Uncletopia | Warsaw | 6 | Community | STV","players":null}]}