{"status":true,"message":"","result":[{"server_id":9,"name":"Uncletopia | Atlanta | 1 | All Maps","name_short":"atl-1","host":"atl-1.us.uncletopia.com","port":27015,"enabled":true,"region":"us-east","cc":"us","latitude":33.753746,"longitude":-84.38633,"reserved":0,"last_update":"0001-01-01T00:00:00Z","name_a2s":"Uncletopia | Atlanta | 1 | All Maps","protocol":17,"map":"pl_badwater","folder":"tf","game":"Team Fortress","app_id":440,"player_count":24,"max_players":24,"Bots":0,"server_type":"Dedicated","server_os":"Linux","password":true,"vac":true,"version":"7961495","steam_id":85568392924469982,"keywords":["nocrits","nodmgspread","payload","uncletopia"],"game_id":440,"stv_port":27016,"stv_name":"Uncletopia | Atlanta | 1 | All Maps | STV","players":[{"user_id":38,"name":"girthmilk","steam_id":76561198054799782,"connected_time":644000000000,"state":"active","ping":64},{"user_id":9,"name":"DEPUTY PISS","steam_id":76561198174167381,"connected_time":1116000000000,"state":"active","ping":60},{"user_id":10,"name":"TamerMushroom64","steam_id":76561199128190180,"connected_time":1030000000000,"state":"active","ping":98},{"user_id":39,"name":"you","steam_id":76561198017228729,"connected_time":602000000000,"state":"active","ping":72},{"user_id":40,"name":"Rain_OwO","steam_id":76561199007791341,"connected_time":601000000000,"state":"active","ping":61},{"user_id":24,"name":"Helios","steam_id":76561198114459383,"connected_time":768000000000,"state":"active","ping":182},{"user_id":25,"name":"Jeramosa","steam_id":76561198811000094,"connected_time":762000000000,"state":"active","ping":90},{"user_id":15,"name":"SlowBisbalito","steam_id":76561199027366888,"connected_time":907000000000,"state":"active","ping":122},{"user_id":42,"name":"Peter griffin","steam_id":76561198277602752,"connected_time":520000000000,"state":"active","ping":160},{"user_id":43,"name":"MinimanC","steam_id":76561198071475084,"connected_time":123000000000,"state":"active","ping":67},{"user_id":19,"name":"mdos","steam_id":76561198332133944,"connected_time":823000000000,"state":"active","ping":72},{"user_id":44,"name":"None of that $9.99 bullshit","steam_id":76561198116169903,"connected_time":95000000000,"state":"active","ping":60},{"user_id":21,"name":"Voodo133","steam_id":76561198042670351,"connected_time":796000000000,"state":"active","ping":81},{"user_id":22,"name":"Oxygen User","steam_id":76561199111975528,"connected_time":795000000000,"state":"active","ping":65},{"user_id":23,"name":"Might Be Gay :)","steam_id":76561198988396980,"connected_time":790000000000,"state":"active","ping":71},{"user_id":26,"name":"Rutherford B. Shopping","steam_id":76561198080687598,"connected_time":752000000000,"state":"active","ping":83},{"user_id":27,"name":"JAKandBEL","steam_id":76561198213060931,"connected_time":748000000000,"state":"active","ping":83},{"user_id":28,"name":"Hard Soap","steam_id":76561198267905614,"connected_time":746000000000,"state":"active","ping":69},{"user_id":29,"name":"Poppet","steam_id":76561198012301951,"connected_time":744000000000,"state":"active","ping":89},{"user_id":30,"name":"mousejumper","steam_id":76561198220181353,"connected_time":742000000000,"state":"active","ping":66},{"user_id":31,"name":"Ventastega","steam_id":76561197999366317,"connected_time":741000000000,"state":"active","ping":92},{"user_id":32,"name":"carly","steam_id":76561198094118479,"connected_time":736000000000,"state":"active","ping":104},{"user_id":34,"name":"CrankShaft","steam_id":76561197970750813,"connected_time":731000000000,"state":"active","ping":44},{"user_id":36,"name":"Window Licker #pride","steam_id":76561198386717007,"connected_time":667000000000,"state":"active","ping":75}]},{"server_id":104,"name":"Uncletopia | Atlanta | 2 | All Maps","name_short":"atl-2","host":"atl-1.us.uncletopia.com","port":27025,"enabled":true,"region":"us-east","cc":"us","latitude":33.753746,"longitude":-84.38633,"reserved":0,"last_update":"0001-01-01T00:00:00Z","name_a2s":"Uncletopia | Atlanta | 2 | All Maps","protocol":17,"map":"koth_suijin","folder":"tf","game":"Team Fortress","app_id":440,"player_count":3,"max_players":24,"Bots":0,"server_type":"Dedicated","server_os":"Linux","password":true,"vac":true,"version":"7961495","steam_id":85568392924469983,"keywords":["cp","nocrits","nodmgspread","uncletopia"],"game_id":440,"stv_port":27026,"stv_name":"Uncletopia | Atlanta | 2 | All Maps | STV","players":[{"user_id":7,"name":"DanFango","steam_id":76561198078300753,"connected_time":1138000000000,"state":"active","ping":55},{"user_id":8,"name":"abolish the federal reserve","steam_id":76561198047796437,"connected_time":841000000000,"state":"active","ping":90},{"user_id":9,"name":"Chucklenuts (F2P) | trade.tf","steam_id":76561199180340440,"connected_time":360000000000,"state":"active","ping":193}]},{"server_id":400,"name":"Uncletopia | Atlanta | 3 | Stopwatch","name_short":"atl-3","host":"atl-1.us.uncletopia.com","port":27035,"enabled":true,"region":"us-east","cc":"us","latitude":33.753746,"longitude":-84.38633,"reserved":0,"last_update":"0001-01-01T00:00:00Z","name_a2s":"Uncletopia | Atlanta | 3 | Stopwatch","protocol":17,"map":"workshop/pl_badwater_pro_v12.ugc2142942074","folder":"tf","game":"Team Fortress","app_id":440,"player_count":0,"max_players":24,"Bots":0,"server_type":"Dedicated","server_os":"Linux","password":true,"vac":true,"version":"7961495","steam_id":85568392924515187,"keywords":["nocrits","nodmgspread","payload","uncletopia"],"game_id":440,"stv_port":27036,"stv_name":"Uncletopia | Atlanta | 3 | Stopwatch | STV","players":null},{"server_id":401,"name":"Uncletopia | Atlanta | 4 | Community","name_short":"atl-4","host":"atl-1.us.uncletopia.com","port":27045,"enabled":true,"region":"us-east","cc":"us","latitude":33.753746,"longitude":-84.38633,"reserved":0,"last_update":"0001-01-01T00:00:00Z","name_a2s":"Uncletopia | Atlanta | 4 | Community","protocol":17,"map":"workshop/pl_phoenix_b4a.ugc2969509359","folder":"tf","game":"Team Fortress","app_id":440,"player_count":0,"max_players":24,"Bots":0,"server_type":"Dedicated","server_os":"Linux","password":true,"vac":true,"version":"7961495","steam_id":85568392924515188,"keywords":["nocrits","nodmgspread","payload","uncletopia"],"game_id":440,"stv_port":27046,"stv_name":"Uncletopia | Atlanta | 4 | Community | STV","players":null},{"server_id":2,"name":"Uncletopia | Chicago | 1 | All Maps","name_short":"chi-1","host":"chi-1.us.uncletopia.com","port":27015,"enabled":true,"region":"us-central","cc":"us","latitude":41.881832,"longitude":-87.62318,"reserved":0,"last_update":"0001-01-01T00:00:00Z","name_a2s":"Uncletopia | Chicago | 1 | All Maps","protocol":17,"map":"pl_snowycoast","folder":"tf","game":"Team Fortress","app_id":440,"player_count":24,"max_players":24,"Bots":0,"server_type":"Dedicated","server_os":"Linux","password":true,"vac":true,"version":"7961495","steam_id":85568392924469984,"keywords":["nocrits","nodmgspread","payload","uncletopia"],"game_id":440,"stv_port":27016,"stv_name":"Uncletopia | Chicago | 1 | All Maps | STV","players":[{"user_id":84,"name":"You","steam_id":76561198890201364,"connected_time":3564000000000,"state":"active","ping":92},{"user_id":118,"name":"epiczlolz","steam_id":76561198208369443,"connected_time":1250000000000,"state":"active","ping":56},{"user_id":111,"name":"okay","steam_id":76561198024973008,"connected_time":1628000000000,"state":"active","ping":65},{"user_id":124,"name":"Boofenshmirtz","steam_id":76561198071649858,"connected_time":1189000000000,"state":"active","ping":71},{"user_id":58,"name":"Rode hard, put away wet","steam_id":76561198062764039,"connected_time":5370000000000,"state":"active","ping":75},{"user_id":103,"name":"Yarn","steam_id":76561199227148369,"connected_time":2255000000000,"state":"active","ping":80},{"user_id":126,"name":"Enderneer","steam_id":76561198012136653,"connected_time":1084000000000,"state":"active","ping":60},{"user_id":67,"name":"Gene Takovic","steam_id":76561198881039861,"connected_time":4516000000000,"state":"active","ping":48},{"user_id":86,"name":"I have no idea what I am doing?","steam_id":76561198093152207,"connected_time":3288000000000,"state":"active","ping":57},{"user_id":102,"name":"Mr.Frundles","steam_id":76561198134559026,"connected_time":2261000000000,"state":"active","ping":73},{"user_id":90,"name":"Nefy","steam_id":76561198030017316,"connected_time":2695000000000,"state":"active","ping":77},{"user_id":121,"name":"HansBanans","steam_id":76561198167894050,"connected_time":1216000000000,"state":"active","ping":59},{"user_id":104,"name":"Siz","steam_id":76561198072962154,"connected_time":2253000000000,"state":"active","ping":61},{"user_id":122,"name":"rumidog","steam_id":76561198046896005,"connected_time":1199000000000,"state":"active","ping":83},{"user_id":132,"name":"Slab civilnetworks.net","steam_id":76561198968032452,"connected_time":484000000000,"state":"active","ping":84},{"user_id":28,"name":"DuckKey","steam_id":76561198904477889,"connected_time":6418000000000,"state":"active","ping":57},{"user_id":73,"name":"joe_lemmons","steam_id":76561198441246401,"connected_time":4124000000000,"state":"active","ping":60},{"user_id":31,"name":"voltageG","steam_id":76561198107165710,"connected_time":6353000000000,"state":"active","ping":74},{"user_id":131,"name":"TOASTEngineer","steam_id":76561198004890916,"connected_time":633000000000,"state":"active","ping":76},{"user_id":129,"name":"Distraction","steam_id":76561199445895882,"connected_time":935000000000,"state":"active","ping":74},{"user_id":127,"name":"jb","steam_id":76561198038607085,"connected_time":1042000000000,"state":"active","ping":76},{"user_id":68,"name":"Tobo","steam_id":76561198085846393,"connected_time":4514000000000,"state":"active","ping":77},{"user_id":79,"name":"ArchmageF","steam_id":76561197992246851,"connected_time":4063000000000,"state":"active","ping":102},{"user_id":119,"name":"Karrot","steam_id":76561198058970903,"connected_time":1250000000000,"state":"active","ping":69}]},{"server_id":106,"name":"Uncletopia | Chicago | 2 | All Maps","name_short":"chi-2","host":"chi-1.us.uncletopia.com","port":27025,"enabled":true,"region":"us-central","cc":"us","latitude":41.881832,"longitude":-87.62318,"reserved":0,"last_update":"0001-01-01T00:00:00Z","name_a2s":"Uncletopia | Chicago | 2 | All Maps","protocol":17,"map":"pl_upward","folder":"tf","game":"Team Fortress","app_id":440,"player_count":24,"max_players":24,"Bots":0,"server_type":"Dedicated","server_os":"Linux","password":true,"vac":true,"version":"7961495","steam_id":85568392924469985,"keywords":["nocrits","nodmgspread","payload","uncletopia"],"game_id":440,"stv_port":27026,"stv_name":"Uncletopia | Chicago | 2 | All Maps | STV","players":[{"user_id":234,"name":"lego star wars on the psp","steam_id":76561198148014773,"connected_time":40000000000,"state":"active","ping":71},{"user_id":218,"name":"NighttimeNap","steam_id":76561198149183514,"connected_time":1140000000000,"state":"active","ping":108},{"user_id":232,"name":"fawn covered in paint thinner","steam_id":76561198043684960,"connected_time":64000000000,"state":"active","ping":60},{"user_id":6,"name":"daemon","steam_id":76561198001541433,"connected_time":19994000000000,"state":"active","ping":59},{"user_id":171,"name":"Brandino!","steam_id":76561198000446932,"connected_time":5570000000000,"state":"active","ping":78},{"user_id":210,"name":"Sensei Wu From Ninjago","steam_id":76561198424670596,"connected_time":1711000000000,"state":"active","ping":63},{"user_id":215,"name":"Mr. Pink","steam_id":76561198065858172,"connected_time":1261000000000,"state":"active","ping":60},{"user_id":214,"name":"divingmule","steam_id":76561197966679724,"connected_time":1381000000000,"state":"active","ping":58},{"user_id":186,"name":"Carson","steam_id":76561198076771071,"connected_time":4202000000000,"state":"active","ping":46},{"user_id":227,"name":"DenjiYui","steam_id":76561199081651988,"connected_time":750000000000,"state":"active","ping":89},{"user_id":201,"name":"Demon's Eye","steam_id":76561198190614021,"connected_time":2256000000000,"state":"active","ping":74},{"user_id":193,"name":"JPSS","steam_id":76561199239530493,"connected_time":3481000000000,"state":"active","ping":71},{"user_id":190,"name":"Katastrophizing","steam_id":76561198024222445,"connected_time":3733000000000,"state":"active","ping":80},{"user_id":229,"name":"❋Pfc. BFS","steam_id":76561198326359972,"connected_time":318000000000,"state":"active","ping":74},{"user_id":233,"name":"GuyGoom","steam_id":76561198254522178,"connected_time":62000000000,"state":"active","ping":54},{"user_id":230,"name":"Rein","steam_id":76561198300340427,"connected_time":88000000000,"state":"active","ping":65},{"user_id":211,"name":"Fredrick","steam_id":76561197981419964,"connected_time":1676000000000,"state":"active","ping":63},{"user_id":213,"name":"1-800-GHOST-DANCE","steam_id":76561198835430429,"connected_time":1573000000000,"state":"active","ping":76},{"user_id":228,"name":"crab","steam_id":76561199094011002,"connected_time":476000000000,"state":"active","ping":48},{"user_id":222,"name":"WHITE TEETH TEENS","steam_id":76561198072179483,"connected_time":982000000000,"state":"active","ping":93},{"user_id":197,"name":"Blueseer","steam_id":76561198060326533,"connected_time":2570000000000,"state":"active","ping":56},{"user_id":236,"name":"Cutovercarp","steam_id":76561199065978512,"connected_time":18000000000,"state":"active","ping":56},{"user_id":226,"name":"Lmnop","steam_id":76561198038458838,"connected_time":849000000000,"state":"active","ping":48},{"user_id":221,"name":"ShoottheEngineer™","steam_id":76561198354917827,"connected_time":1035000000000,"state":"active","ping":90}]},{"server_id":402,"name":"Uncletopia | Chicago | 3 | All Maps","name_short":"chi-3","host":"chi-1.us.uncletopia.com","port":27035,"enabled":true,"region":"us-central","cc":"us","latitude":41.881832,"longitude":-87.62318,"reserved":0,"last_update":"0001-01-01T00:00:00Z","name_a2s":"Uncletopia | Chicago | 3 | All Maps","protocol":17,"map":"koth_viaduct","folder":"tf","game":"Team Fortress","app_id":440,"player_count":3,"max_players":24,"Bots":0,"server_type":"Dedicated","server_os":"Linux","password":true,"vac":true,"version":"7961495","steam_id":85568392924515191,"keywords":["cp","nocrits","nodmgspread","uncletopia"],"game_id":440,"stv_port":27036,"stv_name":"Uncletopia | Chicago | 3 | All Maps | STV","players":[{"user_id":7,"name":"doamgeo468","steam_id":76561199485287045,"connected_time":356000000000,"state":"active","ping":54},{"user_id":8,"name":"dariusen1","steam_id":76561198930935285,"connected_time":319000000000,"state":"active","ping":79},{"user_id":9,"name":"gillmore.samuel","steam_id":76561198109742336,"connected_time":257000000000,"state":"active","ping":61}]},{"server_id":403,"name":"Uncletopia | Chicago | 4 | All Maps","name_short":"chi-4","host":"chi-1.us.uncletopia.com","port":27045,"enabled":true,"region":"us-central","cc":"us","latitude":41.881832,"longitude":-87.62318,"reserved":0,"last_update":"0001-01-01T00:00:00Z","name_a2s":"Uncletopia | Chicago | 4 | All Maps","protocol":17,"map":"koth_highpass","folder":"tf","game":"Team Fortress","app_id":440,"player_count":24,"max_players":24,"Bots":0,"server_type":"Dedicated","server_os":"Linux","password":true,"vac":true,"version":"7961495","steam_id":85568392924515193,"keywords":["cp","nocrits","nodmgspread","uncletopia"],"game_id":440,"stv_port":27046,"stv_name":"Uncletopia | Chicago | 4 | All Maps | STV","players":[{"user_id":38,"name":"EvilsConscience","steam_id":76561198073451760,"connected_time":1041000000000,"state":"active","ping":57},{"user_id":5,"name":"Captain_Shorts","steam_id":76561199097598023,"connected_time":1908000000000,"state":"active","ping":75},{"user_id":52,"name":"Sinister Sandwich","steam_id":76561198142327400,"connected_time":807000000000,"state":"active","ping":70},{"user_id":7,"name":"Whimsical Bruh","steam_id":76561199069973423,"connected_time":1746000000000,"state":"active","ping":57},{"user_id":65,"name":"Satan's Salad","steam_id":76561198043965827,"connected_time":69000000000,"state":"active","ping":57},{"user_id":9,"name":"Strawman","steam_id":76561199076392899,"connected_time":1711000000000,"state":"active","ping":63},{"user_id":58,"name":"hboflexin","steam_id":76561198323411839,"connected_time":465000000000,"state":"active","ping":75},{"user_id":56,"name":"Communist Killing Candy Cactus\ufffd","steam_id":76561198074980635,"connected_time":491000000000,"state":"active","ping":123},{"user_id":40,"name":"Nukem","steam_id":76561198166236574,"connected_time":973000000000,"state":"active","ping":85},{"user_id":47,"name":"Crabo Stabbo","steam_id":76561198061227228,"connected_time":897000000000,"state":"active","ping":57},{"user_id":59,"name":"Pablo","steam_id":76561198816448398,"connected_time":463000000000,"state":"active","ping":68},{"user_id":48,"name":"Butters495","steam_id":76561197998689042,"connected_time":873000000000,"state":"active","ping":80},{"user_id":29,"name":"El Jackso","steam_id":76561198126121555,"connected_time":1218000000000,"state":"active","ping":51},{"user_id":19,"name":"Your Loyal Familiar","steam_id":76561198106476075,"connected_time":1338000000000,"state":"active","ping":84},{"user_id":20,"name":"Pledged","steam_id":76561198055445036,"connected_time":1328000000000,"state":"active","ping":70},{"user_id":42,"name":"Chelo Jengo","steam_id":76561198426191363,"connected_time":959000000000,"state":"active","ping":62},{"user_id":49,"name":"Zeboto","steam_id":76561198078054459,"connected_time":854000000000,"state":"active","ping":71},{"user_id":57,"name":"Natsuki the Scunt","steam_id":76561199175922684,"connected_time":474000000000,"state":"active","ping":104},{"user_id":64,"name":"Morgster","steam_id":76561198131697761,"connected_time":84000000000,"state":"active","ping":77},{"user_id":53,"name":"Aztea","steam_id":76561198982089893,"connected_time":788000000000,"state":"active","ping":82},{"user_id":61,"name":"Styx","steam_id":76561198158334494,"connected_time":391000000000,"state":"active","ping":60},{"user_id":50,"name":"smoothdaddy123","steam_id":76561198986553109,"connected_time":849000000000,"state":"active","ping":57},{"user_id":62,"name":"Lenomon","steam_id":76561198287958321,"connected_time":378000000000,"state":"active","ping":99},{"user_id":63,"name":"Houdini","steam_id":76561199118569153,"connected_time":373000000000,"state":"active","ping":59}]},{"server_id":36,"name":"Uncletopia | Chicago | 5 | All Maps","name_short":"chi-5","host":"chi-2.us.uncletopia.com","port":27015,"enabled":true,"region":"us-central","cc":"us","latitude":41.881832,"longitude":-87.62318,"reserved":0,"last_update":"0001-01-01T00:00:00Z","name_a2s":"Uncletopia | Chicago | 5 | All Maps","protocol":17,"map":"cp_mercenarypark","folder":"tf","game":"Team Fortress","app_id":440,"player_count":0,"max_players":24,"Bots":0,"server_type":"Dedicated","server_os":"Linux","password":true,"vac":true,"version":"7961495","steam_id":85568392924866362,"keywords":["cp","nocrits","nodmgspread","uncletopia"],"game_id":440,"stv_port":27016,"stv_name":"Uncletopia | Chicago | 5 | All Maps | STV","players":null},{"server_id":37,"name":"Uncletopia | Chicago | 6 | All Maps","name_short":"chi-6","host":"chi-2.us.uncletopia.com","port":27025,"enabled":true,"region":"us-central","cc":"us","latitude":41.881832,"longitude":-87.62318,"reserved":0,"last_update":"0001-01-01T00:00:00Z","name_a2s":"Uncletopia | Chicago | 6 | All Maps","protocol":17,"map":"pl_badwater","folder":"tf","game":"Team Fortress","app_id":440,"player_count":2,"max_players":24,"Bots":0,"server_type":"Dedicated","server_os":"Linux","password":true,"vac":true,"version":"7961495","steam_id":85568392924866363,"keywords":["nocrits","nodmgspread","payload","uncletopia"],"game_id":440,"stv_port":27026,"stv_name":"Uncletopia | Chicago | 6 | All Maps | STV","players":[{"user_id":5,"name":"minecraft_2.0","steam_id":76561198391819120,"connected_time":795000000000,"state":"active","ping":99},{"user_id":6,"name":"Shady Businessman","steam_id":76561198143855968,"connected_time":75000000000,"state":"active","ping":80}]},{"server_id":38,"name":"Uncletopia | Chicago | 7 | Stopwatch","name_short":"chi-7","host":"chi-2.us.uncletopia.com","port":27035,"enabled":true,"region":"us-central","cc":"us","latitude":41.881832,"longitude":-87.62318,"reserved":0,"last_update":"0001-01-01T00:00:00Z","name_a2s":"Uncletopia | Chicago | 7 | Stopwatch","protocol":17,"map":"workshop/koth_ashville_final.ugc2130459942","folder":"tf","game":"Team Fortress","app_id":440,"player_count":0,"max_players":24,"Bots":0,"server_type":"Dedicated","server_os":"Linux","password":true,"vac":true,"version":"7961495","steam_id":85568392924866364,"keywords":["cp","nocrits","nodmgspread","uncletopia"],"game_id":440,"stv_port":27036,"stv_name":"Uncletopia | Chicago | 7 | Stopwatch | STV","players":null},{"server_id":39,"name":"Uncletopia | Chicago | 8 | Community","name_short":"chi-8","host":"chi-2.us.uncletopia.com","port":27045,"enabled":true,"region":"us-central","cc":"us","latitude":41.881832,"longitude":-87.62318,"reserved":0,"last_update":"0001-01-01T00:00:00Z","name_a2s":"Uncletopia | Chicago | 8 | Community","protocol":17,"map":"workshop/cp_caldera_rc3.ugc2834196889","folder":"tf","game":"Team Fortress","app_id":440,"player_count":0,"max_players":24,"Bots":0,"server_type":"Dedicated","server_os":"Linux","password":true,"vac":true,"version":"7961495","steam_id":85568392924866365,"keywords":["cp","nocrits","nodmgspread","uncletopia"],"game_id":440,"stv_port":27046,"stv_name":"Uncletopia | Chicago | 8 | Community | STV","players":null},{"server_id":8,"name":"Uncletopia | Dallas | 1 | All Maps","name_short":"dal-1","host":"dal-1.us.uncletopia.com","port":27015,"enabled":true,"region":"us-central","cc":"us","latitude":32.779167,"longitude":-96.80889,"reserved":0,"last_update":"0001-01-01T00:00:00Z","name_a2s":"Uncletopia | Dallas | 1 | All Maps","protocol":17,"map":"cp_dustbowl","folder":"tf","game":"Team Fortress","app_id":440,"player_count":23,"max_players":24,"Bots":0,"server_type":"Dedicated","server_os":"Linux","password":true,"vac":true,"version":"7961495","steam_id":85568392924469986,"keywords":["cp","nocrits","nodmgspread","uncletopia"],"game_id":440,"stv_port":27016,"stv_name":"Uncletopia | Dallas | 1 | All Maps | STV","players":[{"user_id":149,"name":"Bennet","steam_id":76561198194582382,"connected_time":1000000000000,"state":"active","ping":68},{"user_id":155,"name":"Albino Jellyfish","steam_id":76561198208561097,"connected_time":125000000000,"state":"active","ping":74},{"user_id":129,"name":"lampin","steam_id":76561197964367078,"connected_time":2334000000000,"state":"active","ping":71},{"user_id":134,"name":"Mazdamundi!","steam_id":76561198044691081,"connected_time":1744000000000,"state":"active","ping":60},{"user_id":121,"name":"BatMatt","steam_id":76561198045910433,"connected_time":3241000000000,"state":"active","ping":47},{"user_id":144,"name":"Jeiyo","steam_id":76561199070161957,"connected_time":1275000000000,"state":"active","ping":72},{"user_id":100,"name":"DMM","steam_id":76561198065426171,"connected_time":4705000000000,"state":"active","ping":55},{"user_id":127,"name":"Broadsword #LGM","steam_id":76561198011160411,"connected_time":2691000000000,"state":"active","ping":90},{"user_id":108,"name":"Deka","steam_id":76561198061243374,"connected_time":4230000000000,"state":"active","ping":85},{"user_id":147,"name":"zoom","steam_id":76561198036331926,"connected_time":1122000000000,"state":"active","ping":86},{"user_id":156,"name":"kaimann_25","steam_id":76561198867926098,"connected_time":70000000000,"state":"active","ping":74},{"user_id":135,"name":"Nathontin","steam_id":76561198263545504,"connected_time":1731000000000,"state":"active","ping":77},{"user_id":133,"name":"Pango","steam_id":76561198069811545,"connected_time":1756000000000,"state":"active","ping":59},{"user_id":136,"name":"Dakota","steam_id":76561198134092308,"connected_time":1729000000000,"state":"active","ping":64},{"user_id":141,"name":"dadgummit","steam_id":76561198005806915,"connected_time":1457000000000,"state":"active","ping":75},{"user_id":130,"name":"EbonyGreed","steam_id":76561198860058824,"connected_time":2321000000000,"state":"active","ping":93},{"user_id":138,"name":"chilis baby back ribs","steam_id":76561198813516435,"connected_time":1657000000000,"state":"active","ping":75},{"user_id":91,"name":"Uncle Danes Attic worker","steam_id":76561199043933182,"connected_time":5087000000000,"state":"active","ping":91},{"user_id":101,"name":"Raizen","steam_id":76561199092445367,"connected_time":4688000000000,"state":"active","ping":74},{"user_id":125,"name":"johnny wang","steam_id":76561198969143876,"connected_time":2940000000000,"state":"active","ping":55},{"user_id":150,"name":"God's Drunkest Driver","steam_id":76561198026527172,"connected_time":927000000000,"state":"active","ping":90},{"user_id":151,"name":"jaytheking05","steam_id":76561198856419769,"connected_time":906000000000,"state":"active","ping":92},{"user_id":153,"name":"Rob","steam_id":76561199187786660,"connected_time":197000000000,"state":"active","ping":54}]},{"server_id":108,"name":"Uncletopia | Dallas | 2 | All Maps","name_short":"dal-2","host":"dal-1.us.uncletopia.com","port":27025,"enabled":true,"region":"us-central","cc":"us","latitude":32.779167,"longitude":-96.80889,"reserved":0,"last_update":"0001-01-01T00:00:00Z","name_a2s":"Uncletopia | Dallas | 2 | All Maps","protocol":17,"map":"cp_snakewater_final1","folder":"tf","game":"Team Fortress","app_id":440,"player_count":0,"max_players":24,"Bots":0,"server_type":"Dedicated","server_os":"Linux","password":true,"vac":true,"version":"7961495","steam_id":85568392924469988,"keywords":["cp","nocrits","nodmgspread","uncletopia"],"game_id":440,"stv_port":27026,"stv_name":"Uncletopia | Dallas | 2 | All Maps | STV","players":null},{"server_id":404,"name":"Uncletopia | Dallas | 3 | All Maps","name_short":"dal-3","host":"dal-1.us.uncletopia.com","port":27035,"enabled":true,"region":"us-central","cc":"us","latitude":32.779167,"longitude":-96.80889,"reserved":0,"last_update":"0001-01-01T00:00:00Z","name_a2s":"Uncletopia | Dallas | 3 | All Maps","protocol":17,"map":"cp_mountainlab","folder":"tf","game":"Team Fortress","app_id":440,"player_count":24,"max_players":24,"Bots":0,"server_type":"Dedicated","server_os":"Linux","password":true,"vac":true,"version":"7961495","steam_id":85568392924515219,"keywords":["cp","nocrits","nodmgspread","uncletopia"],"game_id":440,"stv_port":27036,"stv_name":"Uncletopia | Dallas | 3 | All Maps | STV","players":[{"user_id":9,"name":"♥ Tomboy ♥","steam_id":76561198069881436,"connected_time":5202000000000,"state":"active","ping":73},{"user_id":61,"name":"Topaz Tom","steam_id":76561199214479904,"connected_time":520000000000,"state":"active","ping":73},{"user_id":57,"name":"Boring","steam_id":76561198827219701,"connected_time":582000000000,"state":"active","ping":180},{"user_id":62,"name":"Ray","steam_id":76561198048011618,"connected_time":508000000000,"state":"active","ping":82},{"user_id":64,"name":"ya ya breathe","steam_id":76561198075858067,"connected_time":399000000000,"state":"active","ping":97},{"user_id":21,"name":"Tim Williams","steam_id":76561198177327059,"connected_time":2831000000000,"state":"active","ping":90},{"user_id":56,"name":"Mix56374","steam_id":76561199093717909,"connected_time":836000000000,"state":"active","ping":83},{"user_id":22,"name":"The Shoveler","steam_id":76561198839907239,"connected_time":2817000000000,"state":"active","ping":75},{"user_id":19,"name":"Cazadon","steam_id":76561198131331701,"connected_time":3092000000000,"state":"active","ping":61},{"user_id":20,"name":"Sammi The Hylir","steam_id":76561198129848053,"connected_time":3057000000000,"state":"active","ping":181},{"user_id":24,"name":"beans","steam_id":76561199082781884,"connected_time":2783000000000,"state":"active","ping":65},{"user_id":47,"name":"Snoogs","steam_id":76561198444880931,"connected_time":1654000000000,"state":"active","ping":90},{"user_id":52,"name":"Woods","steam_id":76561198440012069,"connected_time":1244000000000,"state":"active","ping":91},{"user_id":66,"name":"Certified Hood Classic","steam_id":76561199086159354,"connected_time":102000000000,"state":"active","ping":53},{"user_id":33,"name":"ivel","steam_id":76561198288644172,"connected_time":2225000000000,"state":"active","ping":73},{"user_id":67,"name":"swooce","steam_id":76561198156232484,"connected_time":13000000000,"state":"active","ping":86},{"user_id":50,"name":"SaucyDaSquirrel","steam_id":76561197961441856,"connected_time":1561000000000,"state":"active","ping":89},{"user_id":38,"name":"noel","steam_id":76561198128280883,"connected_time":2094000000000,"state":"active","ping":102},{"user_id":59,"name":"Jesus","steam_id":76561198018890911,"connected_time":570000000000,"state":"active","ping":49},{"user_id":41,"name":"Rearranging furniture","steam_id":76561199054971009,"connected_time":2035000000000,"state":"active","ping":54},{"user_id":42,"name":"*FiddleFat*","steam_id":76561197964050544,"connected_time":2006000000000,"state":"active","ping":101},{"user_id":43,"name":"Peluche Marisa","steam_id":76561199011452659,"connected_time":1944000000000,"state":"active","ping":111},{"user_id":45,"name":"Dr.Blunt","steam_id":76561198096333958,"connected_time":1691000000000,"state":"active","ping":79},{"user_id":60,"name":"Weegee","steam_id":76561198140095755,"connected_time":570000000000,"state":"active","ping":87}]},{"server_id":405,"name":"Uncletopia | Dallas | 4 | Community","name_short":"dal-4","host":"dal-1.us.uncletopia.com","port":27045,"enabled":true,"region":"us-central","cc":"us","latitude":32.779167,"longitude":-96.80889,"reserved":0,"last_update":"0001-01-01T00:00:00Z","name_a2s":"Uncletopia | Dallas | 4 | Community","protocol":17,"map":"workshop/pl_vigil_rc10.ugc1266210012","folder":"tf","game":"Team Fortress","app_id":440,"player_count":0,"max_players":24,"Bots":0,"server_type":"Dedicated","server_os":"Linux","password":true,"vac":true,"version":"7961495","steam_id":85568392924515220,"keywords":["nocrits","nodmgspread","payload","uncletopia"],"game_id":440,"stv_port":27046,"stv_name":"Uncletopia | Dallas | 4 | Community | STV","players":null},{"server_id":5,"name":"Uncletopia | Frankfurt | 1 | All Maps","name_short":"frk-1","host":"frk-1.de.uncletopia.com","port":27015,"enabled":true,"region":"eu","cc":"de","latitude":50.110924,"longitude":8.682127,"reserved":0,"last_update":"0001-01-01T00:00:00Z","name_a2s":"Uncletopia | Frankfurt | 1 | All Maps","protocol":17,"map":"pl_swiftwater_final1","folder":"tf","game":"Team Fortress","app_id":440,"player_count":19,"max_players":24,"Bots":0,"server_type":"Dedicated","server_os":"Linux","password":true,"vac":true,"version":"7961495","steam_id":85568392924469989,"keywords":["nocrits","nodmgspread","payload","uncletopia"],"game_id":440,"stv_port":27016,"stv_name":"Uncletopia | Frankfurt | 1 | All Maps | STV","players":[{"user_id":458,"name":"watch thief","steam_id":76561198036730191,"connected_time":214000000000,"state":"active","ping":48},{"user_id":409,"name":"Duktigafred","steam_id":76561199211222396,"connected_time":2110000000000,"state":"active","ping":67},{"user_id":449,"name":"Kate The Wolf","steam_id":76561198345356650,"connected_time":1148000000000,"state":"active","ping":57},{"user_id":464,"name":"tealoverr.190","steam_id":76561199028497703,"connected_time":4000000000,"state":"spawning","ping":104},{"user_id":463,"name":"Peskyplumber64","steam_id":76561198044458330,"connected_time":37000000000,"state":"active","ping":52},{"user_id":462,"name":"Fatmagic Mukbang ASMR","steam_id":76561198063492110,"connected_time":85000000000,"state":"active","ping":72},{"user_id":413,"name":"Mitty","steam_id":76561198051182670,"connected_time":1949000000000,"state":"active","ping":50},{"user_id":438,"name":"Lennox","steam_id":76561198069063554,"connected_time":1246000000000,"state":"active","ping":36},{"user_id":435,"name":"Shlyk","steam_id":76561198333387103,"connected_time":1421000000000,"state":"active","ping":100},{"user_id":399,"name":"Leviticus Cornwall","steam_id":76561197993702685,"connected_time":2758000000000,"state":"active","ping":76},{"user_id":465,"name":"Transcendence Fernando","steam_id":76561197987115316,"connected_time":3000000000,"state":"spawning","ping":103},{"user_id":452,"name":"AgentKerbal","steam_id":76561198146360194,"connected_time":822000000000,"state":"active","ping":61},{"user_id":420,"name":"Fire Moon","steam_id":76561198145916155,"connected_time":1830000000000,"state":"active","ping":57},{"user_id":460,"name":",","steam_id":76561198347020945,"connected_time":139000000000,"state":"active","ping":77},{"user_id":424,"name":"Frying Pan gaming","steam_id":76561199230315253,"connected_time":1809000000000,"state":"spawning","ping":91},{"user_id":426,"name":"Charlie Brown","steam_id":76561199378865926,"connected_time":1782000000000,"state":"active","ping":87},{"user_id":453,"name":"MaxThoo","steam_id":76561198167904353,"connected_time":813000000000,"state":"active","ping":70},{"user_id":459,"name":"ToniGAM3S","steam_id":76561198128605351,"connected_time":184000000000,"state":"active","ping":47},{"user_id":429,"name":"simeswipe","steam_id":76561198188471097,"connected_time":1773000000000,"state":"active","ping":56}]},{"server_id":110,"name":"Uncletopia | Frankfurt | 2 | All Maps","name_short":"frk-2","host":"frk-1.de.uncletopia.com","port":27025,"enabled":true,"region":"eu","cc":"de","latitude":50.110924,"longitude":8.682127,"reserved":0,"last_update":"0001-01-01T00:00:00Z","name_a2s":"Uncletopia | Frankfurt | 2 | All Maps","protocol":17,"map":"cp_mountainlab","folder":"tf","game":"Team Fortress","app_id":440,"player_count":24,"max_players":24,"Bots":0,"server_type":"Dedicated","server_os":"Linux","password":true,"vac":true,"version":"7961495","steam_id":85568392924469990,"keywords":["cp","nocrits","nodmgspread","uncletopia"],"game_id":440,"stv_port":27026,"stv_name":"Uncletopia | Frankfurt | 2 | All Maps | STV","players":[{"user_id":254,"name":"Zulik92","steam_id":76561198152442373,"connected_time":1965000000000,"state":"active","ping":62},{"user_id":269,"name":"Mancomb Seepgood","steam_id":76561197974116369,"connected_time":1018000000000,"state":"active","ping":51},{"user_id":251,"name":"night.s","steam_id":76561198326287823,"connected_time":2066000000000,"state":"active","ping":82},{"user_id":243,"name":"Dzieciol","steam_id":76561198160237556,"connected_time":3095000000000,"state":"active","ping":63},{"user_id":193,"name":"RomAnjentululiantiarion","steam_id":76561198161417211,"connected_time":6768000000000,"state":"active","ping":84},{"user_id":201,"name":"Gordon Birdman","steam_id":76561198013382324,"connected_time":5804000000000,"state":"active","ping":69},{"user_id":256,"name":"Doggo","steam_id":76561198245583528,"connected_time":1902000000000,"state":"active","ping":49},{"user_id":270,"name":"Socks","steam_id":76561198255241161,"connected_time":977000000000,"state":"active","ping":154},{"user_id":194,"name":"war now","steam_id":76561198021572167,"connected_time":6759000000000,"state":"active","ping":60},{"user_id":215,"name":"You","steam_id":76561199022242155,"connected_time":5008000000000,"state":"active","ping":89},{"user_id":221,"name":"Sex Man TF2","steam_id":76561198798657045,"connected_time":4631000000000,"state":"active","ping":73},{"user_id":272,"name":"Waltuh","steam_id":76561198356880582,"connected_time":912000000000,"state":"active","ping":64},{"user_id":232,"name":"Kitfist","steam_id":76561198048559338,"connected_time":3903000000000,"state":"active","ping":52},{"user_id":266,"name":"HeroeN","steam_id":76561199243937265,"connected_time":1158000000000,"state":"active","ping":95},{"user_id":275,"name":"jur","steam_id":76561198096189399,"connected_time":862000000000,"state":"active","ping":45},{"user_id":283,"name":"asgamer333","steam_id":76561199071616018,"connected_time":399000000000,"state":"active","ping":167},{"user_id":276,"name":"CoDeX","steam_id":76561198354124601,"connected_time":787000000000,"state":"active","ping":76},{"user_id":231,"name":"Sicronici","steam_id":76561199054534566,"connected_time":4088000000000,"state":"active","ping":72},{"user_id":237,"name":"The Creator Of Sex","steam_id":76561198385989487,"connected_time":3739000000000,"state":"active","ping":62},{"user_id":284,"name":"sixhundredseventy","steam_id":76561199441772083,"connected_time":192000000000,"state":"active","ping":54},{"user_id":259,"name":"nice","steam_id":76561199102883421,"connected_time":1842000000000,"state":"active","ping":155},{"user_id":260,"name":"Snowy","steam_id":76561198169992461,"connected_time":1835000000000,"state":"active","ping":47},{"user_id":271,"name":"YolkOnYou","steam_id":76561198088760655,"connected_time":929000000000,"state":"active","ping":61},{"user_id":264,"name":"Einsamer_Keks","steam_id":76561198148828509,"connected_time":1533000000000,"state":"active","ping":61}]},{"server_id":308,"name":"Uncletopia | Frankfurt | 3 | All Maps","name_short":"frk-3","host":"frk-1.de.uncletopia.com","port":27035,"enabled":true,"region":"eu","cc":"de","latitude":50.110924,"longitude":8.682127,"reserved":0,"last_update":"0001-01-01T00:00:00Z","name_a2s":"Uncletopia | Frankfurt | 3 | All Maps","protocol":17,"map":"cp_gorge","folder":"tf","game":"Team Fortress","app_id":440,"player_count":24,"max_players":24,"Bots":0,"server_type":"Dedicated","server_os":"Linux","password":true,"vac":true,"version":"7961495","steam_id":85568392924504274,"keywords":["cp","nocrits","nodmgspread","uncletopia"],"game_id":440,"stv_port":27036,"stv_name":"Uncletopia | Frankfurt | 3 | All Maps | STV","players":[{"user_id":143,"name":"best player","steam_id":76561198078363186,"connected_time":1045000000000,"state":"active","ping":63},{"user_id":144,"name":"redditor_gaming","steam_id":76561198176507538,"connected_time":1040000000000,"state":"active","ping":70},{"user_id":127,"name":"kvlt","steam_id":76561198119420945,"connected_time":2231000000000,"state":"active","ping":79},{"user_id":134,"name":"Pringles","steam_id":76561198120850843,"connected_time":1772000000000,"state":"active","ping":104},{"user_id":164,"name":"aaaaaa","steam_id":76561198086304421,"connected_time":384000000000,"state":"active","ping":84},{"user_id":99,"name":"LivEssense","steam_id":76561198052476979,"connected_time":4364000000000,"state":"active","ping":75},{"user_id":161,"name":"fartificial insmelligence","steam_id":76561198350442800,"connected_time":408000000000,"state":"active","ping":63},{"user_id":145,"name":"ffmpreg","steam_id":76561198041960484,"connected_time":1026000000000,"state":"active","ping":81},{"user_id":112,"name":"|ATғ| tss, ¡eh tu!","steam_id":76561198122426371,"connected_time":3459000000000,"state":"active","ping":77},{"user_id":153,"name":"tete","steam_id":76561198045222850,"connected_time":784000000000,"state":"active","ping":79},{"user_id":123,"name":"Michalo","steam_id":76561198195021867,"connected_time":2533000000000,"state":"active","ping":81},{"user_id":130,"name":"morty","steam_id":76561199230137467,"connected_time":2005000000000,"state":"active","ping":140},{"user_id":156,"name":"TheRizzlerOfRizzmass","steam_id":76561198162462063,"connected_time":727000000000,"state":"active","ping":61},{"user_id":147,"name":"ксюша","steam_id":76561199149307190,"connected_time":1008000000000,"state":"active","ping":61},{"user_id":162,"name":"shapeshifter","steam_id":76561198052898368,"connected_time":398000000000,"state":"active","ping":72},{"user_id":158,"name":"hoho","steam_id":76561198237378014,"connected_time":581000000000,"state":"active","ping":63},{"user_id":152,"name":"_Chelik_","steam_id":76561199076069284,"connected_time":833000000000,"state":"active","ping":89},{"user_id":98,"name":"Optimist 50","steam_id":76561198039631442,"connected_time":4430000000000,"state":"active","ping":82},{"user_id":155,"name":"RoofRabbid","steam_id":76561198012821810,"connected_time":777000000000,"state":"active","ping":99},{"user_id":142,"name":"usuikui","steam_id":76561198093304268,"connected_time":1066000000000,"state":"active","ping":82},{"user_id":95,"name":"Metagamermario","steam_id":76561199417190355,"connected_time":4526000000000,"state":"active","ping":151},{"user_id":163,"name":"btrayed","steam_id":76561199498456546,"connected_time":393000000000,"state":"active","ping":60},{"user_id":131,"name":"Yuval","steam_id":76561198241802390,"connected_time":1882000000000,"state":"active","ping":97},{"user_id":166,"name":"jovi_","steam_id":76561198449280552,"connected_time":90000000000,"state":"active","ping":60}]},{"server_id":309,"name":"Uncletopia | Frankfurt | 4 | All Maps","name_short":"frk-4","host":"frk-1.de.uncletopia.com","port":27045,"enabled":true,"region":"eu","cc":"de","latitude":50.110924,"longitude":8.682127,"reserved":0,"last_update":"0001-01-01T00:00:00Z","name_a2s":"Uncletopia | Frankfurt | 4 | All Maps","protocol":17,"map":"cp_steel","folder":"tf","game":"Team Fortress","app_id":440,"player_count":22,"max_players":24,"Bots":0,"server_type":"Dedicated","server_os":"Linux","password":true,"vac":true,"version":"7961495","steam_id":85568392924504275,"keywords":["cp","nocrits","nodmgspread","uncletopia"],"game_id":440,"stv_port":27046,"stv_name":"Uncletopia | Frankfurt | 4 | All Maps | STV","players":[{"user_id":232,"name":"Rodia","steam_id":76561197968293161,"connected_time":153000000000,"state":"active","ping":63},{"user_id":234,"name":"BluDiamynt","steam_id":76561198894231340,"connected_time":91000000000,"state":"active","ping":69},{"user_id":219,"name":"Xx_LudZip_xX","steam_id":76561198321008764,"connected_time":845000000000,"state":"active","ping":59},{"user_id":233,"name":"The spit taster","steam_id":76561198338129578,"connected_time":132000000000,"state":"active","ping":59},{"user_id":211,"name":"markus","steam_id":76561198186791643,"connected_time":954000000000,"state":"active","ping":71},{"user_id":225,"name":"STiNGHAN","steam_id":76561198023989090,"connected_time":541000000000,"state":"active","ping":64},{"user_id":188,"name":"belja","steam_id":76561198148855193,"connected_time":2716000000000,"state":"active","ping":74},{"user_id":213,"name":"dakkafex","steam_id":76561198020254869,"connected_time":921000000000,"state":"active","ping":45},{"user_id":202,"name":"lillunya ♡","steam_id":76561198330418866,"connected_time":1726000000000,"state":"active","ping":54},{"user_id":235,"name":"Burpman","steam_id":76561198022897937,"connected_time":3000000000,"state":"spawning","ping":132},{"user_id":214,"name":"alicheek_86","steam_id":76561198253553809,"connected_time":905000000000,"state":"active","ping":58},{"user_id":228,"name":"iq drops","steam_id":76561198035795130,"connected_time":421000000000,"state":"active","ping":62},{"user_id":204,"name":"Spajro","steam_id":76561198257383813,"connected_time":1600000000000,"state":"active","ping":45},{"user_id":162,"name":"Jotun","steam_id":76561199015161498,"connected_time":4886000000000,"state":"active","ping":92},{"user_id":196,"name":"Nymph","steam_id":76561198042801329,"connected_time":2282000000000,"state":"active","ping":59},{"user_id":205,"name":"wildfire in my sock drawer","steam_id":76561198095560087,"connected_time":1560000000000,"state":"active","ping":74},{"user_id":191,"name":"Wardruna96","steam_id":76561199057083828,"connected_time":2661000000000,"state":"active","ping":88},{"user_id":216,"name":"ChesseKnight","steam_id":76561198102476339,"connected_time":901000000000,"state":"active","ping":79},{"user_id":171,"name":"6bIK_0CeMEHuTEJIb","steam_id":76561198992528373,"connected_time":3448000000000,"state":"active","ping":280},{"user_id":217,"name":"hog","steam_id":76561198857396812,"connected_time":896000000000,"state":"active","ping":45},{"user_id":227,"name":"Doctor Mobius","steam_id":76561197971281806,"connected_time":480000000000,"state":"active","ping":65},{"user_id":231,"name":"chonkster","steam_id":76561198316059681,"connected_time":268000000000,"state":"active","ping":50}]},{"server_id":310,"name":"Uncletopia | Frankfurt | 5 | All Maps","name_short":"frk-5","host":"frk-1.de.uncletopia.com","port":27055,"enabled":true,"region":"eu","cc":"de","latitude":50.110924,"longitude":8.682127,"reserved":0,"last_update":"0001-01-01T00:00:00Z","name_a2s":"Uncletopia | Frankfurt | 5 | All Maps","protocol":17,"map":"cp_gorge","folder":"tf","game":"Team Fortress","app_id":440,"player_count":23,"max_players":24,"Bots":0,"server_type":"Dedicated","server_os":"Linux","password":true,"vac":true,"version":"7961495","steam_id":85568392924504277,"keywords":["cp","nocrits","nodmgspread","uncletopia"],"game_id":440,"stv_port":27056,"stv_name":"Uncletopia | Frankfurt | 5 | All Maps | STV","players":[{"user_id":333,"name":"walter","steam_id":76561198021950957,"connected_time":10247000000000,"state":"active","ping":71},{"user_id":372,"name":"Scooty.","steam_id":76561198138990283,"connected_time":7746000000000,"state":"active","ping":138},{"user_id":452,"name":"System","steam_id":76561199442503973,"connected_time":65000000000,"state":"active","ping":47},{"user_id":388,"name":"Mega Man Legends 3","steam_id":76561198014110199,"connected_time":6226000000000,"state":"active","ping":60},{"user_id":447,"name":"below average medic player","steam_id":76561199095822539,"connected_time":625000000000,"state":"active","ping":79},{"user_id":397,"name":"help","steam_id":76561199056338917,"connected_time":5193000000000,"state":"active","ping":165},{"user_id":433,"name":"gracz.łatwy","steam_id":76561198850691862,"connected_time":1776000000000,"state":"active","ping":84},{"user_id":423,"name":"azzy","steam_id":76561198061293740,"connected_time":2739000000000,"state":"active","ping":84},{"user_id":451,"name":"heddwch","steam_id":76561198076097983,"connected_time":108000000000,"state":"active","ping":104},{"user_id":444,"name":"Dimi","steam_id":76561198070894569,"connected_time":758000000000,"state":"active","ping":106},{"user_id":431,"name":"András","steam_id":76561198096947288,"connected_time":1812000000000,"state":"active","ping":52},{"user_id":441,"name":"Skaza","steam_id":76561198010292540,"connected_time":1114000000000,"state":"active","ping":78},{"user_id":434,"name":"murderwow","steam_id":76561198024566944,"connected_time":1374000000000,"state":"active","ping":94},{"user_id":449,"name":"fernandobmwm355555","steam_id":76561198086609447,"connected_time":379000000000,"state":"active","ping":48},{"user_id":439,"name":"WannaBread","steam_id":76561198007009855,"connected_time":1204000000000,"state":"active","ping":80},{"user_id":446,"name":"the babadook","steam_id":76561198040168682,"connected_time":649000000000,"state":"active","ping":60},{"user_id":408,"name":"Nick","steam_id":76561198036109469,"connected_time":4528000000000,"state":"active","ping":77},{"user_id":448,"name":"Javier dorsaless","steam_id":76561198179324075,"connected_time":621000000000,"state":"active","ping":71},{"user_id":382,"name":"Urfangonultasadana","steam_id":76561199389286151,"connected_time":6763000000000,"state":"active","ping":93},{"user_id":407,"name":"Kolodziej","steam_id":76561198088672385,"connected_time":4542000000000,"state":"active","ping":68},{"user_id":443,"name":"pavel_mkd","steam_id":76561199088118112,"connected_time":894000000000,"state":"active","ping":82},{"user_id":450,"name":"SCaELS [TF2 BLENDER ART COMMS]","steam_id":76561199111725372,"connected_time":201000000000,"state":"active","ping":65},{"user_id":362,"name":"Mr. Mundy","steam_id":76561198132008918,"connected_time":8652000000000,"state":"active","ping":74}]},{"server_id":311,"name":"Uncletopia | Frankfurt | 6 | All Maps","name_short":"frk-6","host":"frk-1.de.uncletopia.com","port":27065,"enabled":true,"region":"eu","cc":"de","latitude":50.110924,"longitude":8.682127,"reserved":0,"last_update":"0001-01-01T00:00:00Z","name_a2s":"Uncletopia | Frankfurt | 6 | All Maps","protocol":17,"map":"pl_snowycoast","folder":"tf","game":"Team Fortress","app_id":440,"player_count":24,"max_players":24,"Bots":0,"server_type":"Dedicated","server_os":"Linux","password":true,"vac":true,"version":"7961495","steam_id":85568392924504278,"keywords":["nocrits","nodmgspread","payload","uncletopia"],"game_id":440,"stv_port":27066,"stv_name":"Uncletopia | Frankfurt | 6 | All Maps | STV","players":[{"user_id":271,"name":"hardstuck blubber last","steam_id":76561198963378933,"connected_time":387000000000,"state":"active","ping":54},{"user_id":249,"name":"sblorpo","steam_id":76561198846812546,"connected_time":1797000000000,"state":"active","ping":63},{"user_id":225,"name":"Efter","steam_id":76561198302457901,"connected_time":3441000000000,"state":"active","ping":90},{"user_id":245,"name":"mini jones","steam_id":76561199273446381,"connected_time":1907000000000,"state":"active","ping":82},{"user_id":262,"name":"Akisян","steam_id":76561198078706435,"connected_time":806000000000,"state":"active","ping":73},{"user_id":268,"name":"skai -TA-","steam_id":76561198184881255,"connected_time":537000000000,"state":"active","ping":71},{"user_id":257,"name":"Prawo Jazdy","steam_id":76561198121589024,"connected_time":1266000000000,"state":"active","ping":71},{"user_id":239,"name":"Lers","steam_id":76561198061619788,"connected_time":2534000000000,"state":"active","ping":54},{"user_id":273,"name":"stun","steam_id":76561198276681691,"connected_time":249000000000,"state":"active","ping":60},{"user_id":270,"name":"nordstream bomber","steam_id":76561199401283123,"connected_time":422000000000,"state":"active","ping":58},{"user_id":244,"name":"GrumpyGrey","steam_id":76561199504695656,"connected_time":1961000000000,"state":"active","ping":75},{"user_id":234,"name":"General Solemani from TF2","steam_id":76561198261001389,"connected_time":2737000000000,"state":"active","ping":55},{"user_id":174,"name":"Waltism","steam_id":76561199447676489,"connected_time":5757000000000,"state":"active","ping":84},{"user_id":267,"name":"Il Tempo Gigante","steam_id":76561198042468332,"connected_time":626000000000,"state":"active","ping":56},{"user_id":269,"name":"Hacker Studios","steam_id":76561199209653826,"connected_time":530000000000,"state":"active","ping":58},{"user_id":247,"name":"0\u003e0","steam_id":76561198049741238,"connected_time":1848000000000,"state":"active","ping":104},{"user_id":274,"name":"fl1p","steam_id":76561198148565659,"connected_time":184000000000,"state":"active","ping":81},{"user_id":254,"name":"Alyosha","steam_id":76561198032771167,"connected_time":1376000000000,"state":"active","ping":88},{"user_id":190,"name":"Begom","steam_id":76561199093369711,"connected_time":5349000000000,"state":"active","ping":94},{"user_id":276,"name":"Sumbody","steam_id":76561198155371407,"connected_time":117000000000,"state":"active","ping":97},{"user_id":275,"name":"Shireco","steam_id":76561198084899921,"connected_time":175000000000,"state":"active","ping":110},{"user_id":272,"name":"Bombilla","steam_id":76561198084281798,"connected_time":317000000000,"state":"active","ping":77},{"user_id":171,"name":"ggwp","steam_id":76561199141037141,"connected_time":5832000000000,"state":"active","ping":74},{"user_id":168,"name":"wavelength","steam_id":76561198154677956,"connected_time":5927000000000,"state":"active","ping":71}]},{"server_id":23,"name":"Uncletopia | Frankfurt | 7 | Stopwatch","name_short":"frk-7","host":"frk-1.de.uncletopia.com","port":27075,"enabled":true,"region":"eu","cc":"de","latitude":50.110924,"longitude":8.682127,"reserved":0,"last_update":"0001-01-01T00:00:00Z","name_a2s":"Uncletopia | Frankfurt | 7 | Stopwatch","protocol":17,"map":"workshop/koth_clearcut_b15.ugc2107050255","folder":"tf","game":"Team Fortress","app_id":440,"player_count":0,"max_players":24,"Bots":0,"server_type":"Dedicated","server_os":"Linux","password":true,"vac":true,"version":"7961495","steam_id":85568392924742827,"keywords":["cp","nocrits","nodmgspread","uncletopia"],"game_id":440,"stv_port":27076,"stv_name":"Uncletopia | Frankfurt | 7 | Stopwatch | STV","players":null},{"server_id":24,"name":"Uncletopia | Frankfurt | 8 | Community","name_short":"frk-8","host":"frk-1.de.uncletopia.com","port":27085,"enabled":true,"region":"eu","cc":"de","latitude":50.110924,"longitude":8.682127,"reserved":0,"last_update":"0001-01-01T00:00:00Z","name_a2s":"Uncletopia | Frankfurt | 8 | Community","protocol":17,"map":"workshop/koth_relic_rc3.ugc2965301326","folder":"tf","game":"Team Fortress","app_id":440,"player_count":0,"max_players":24,"Bots":0,"server_type":"Dedicated","server_os":"Linux","password":true,"vac":true,"version":"7961495","steam_id":85568392924742828,"keywords":["cp","nocrits","nodmgspread","uncletopia"],"game_id":440,"stv_port":27086,"stv_name":"Uncletopia | Frankfurt | 8 | Community | STV","players":null},{"server_id":202,"name":"Uncletopia | Hong Kong | 1 | All Maps","name_short":"hgk-1","host":"hgk-1.hk.uncletopia.com","port":27015,"enabled":true,"region":"asia","cc":"hk","latitude":22.302711,"longitude":114.177216,"reserved":0,"last_update":"0001-01-01T00:00:00Z","name_a2s":"Uncletopia | Hong Kong | 1 | All Maps","protocol":17,"map":"koth_cascade","folder":"tf","game":"Team Fortress","app_id":440,"player_count":4,"max_players":24,"Bots":0,"server_type":"Dedicated","server_os":"Linux","password":true,"vac":true,"version":"7961495","steam_id":85568392924494504,"keywords":["cp","nocrits","nodmgspread","uncletopia"],"game_id":440,"stv_port":27016,"stv_name":"Uncletopia | Hong Kong | 1 | All Maps | STV","players":[{"user_id":661,"name":"Django","steam_id":76561199183631944,"connected_time":1628000000000,"state":"active","ping":146},{"user_id":662,"name":"EndMaster","steam_id":76561199102180324,"connected_time":1549000000000,"state":"active","ping":59},{"user_id":649,"name":"Skyler White yo","steam_id":76561198895193247,"connected_time":2336000000000,"state":"active","ping":76},{"user_id":678,"name":"ZINJI","steam_id":76561198967270420,"connected_time":698000000000,"state":"active","ping":82}]},{"server_id":1,"name":"Uncletopia | Los Angeles | 1 | All Maps","name_short":"lax-1","host":"lax-1.us.uncletopia.com","port":27015,"enabled":true,"region":"us-west","cc":"us","latitude":33.94279,"longitude":-118.41004,"reserved":0,"last_update":"0001-01-01T00:00:00Z","name_a2s":"Uncletopia | Los Angeles | 1 | All Maps","protocol":17,"map":"koth_lakeside_final","folder":"tf","game":"Team Fortress","app_id":440,"player_count":0,"max_players":24,"Bots":0,"server_type":"Dedicated","server_os":"Linux","password":true,"vac":true,"version":"7961495","steam_id":85568392924469991,"keywords":["cp","nocrits","nodmgspread","uncletopia"],"game_id":440,"stv_port":27016,"stv_name":"Uncletopia | Los Angeles | 1 | All Maps | STV","players":null},{"server_id":112,"name":"Uncletopia | Los Angeles | 2 | All Maps","name_short":"lax-2","host":"lax-1.us.uncletopia.com","port":27025,"enabled":true,"region":"us-west","cc":"us","latitude":33.94279,"longitude":-118.41004,"reserved":0,"last_update":"0001-01-01T00:00:00Z","name_a2s":"Uncletopia | Los Angeles | 2 | All Maps","protocol":17,"map":"koth_lazarus","folder":"tf","game":"Team Fortress","app_id":440,"player_count":0,"max_players":24,"Bots":0,"server_type":"Dedicated","server_os":"Linux","password":true,"vac":true,"version":"7961495","steam_id":85568392924469992,"keywords":["cp","nocrits","nodmgspread","uncletopia"],"game_id":440,"stv_port":27026,"stv_name":"Uncletopia | Los Angeles | 2 | All Maps | STV","players":null},{"server_id":324,"name":"Uncletopia | Los Angeles | 3 | All Maps","name_short":"lax-3","host":"lax-1.us.uncletopia.com","port":27035,"enabled":true,"region":"us-west","cc":"us","latitude":33.94279,"longitude":-118.41004,"reserved":0,"last_update":"0001-01-01T00:00:00Z","name_a2s":"Uncletopia | Los Angeles | 3 | All Maps","protocol":17,"map":"pl_swiftwater_final1","folder":"tf","game":"Team Fortress","app_id":440,"player_count":24,"max_players":24,"Bots":0,"server_type":"Dedicated","server_os":"Linux","password":true,"vac":true,"version":"7961495","steam_id":85568392924510198,"keywords":["nocrits","nodmgspread","payload","uncletopia"],"game_id":440,"stv_port":27036,"stv_name":"Uncletopia | Los Angeles | 3 | All Maps | STV","players":[{"user_id":3,"name":"Hectic_Puppy (bday in 3 DAYS)","steam_id":76561198111645213,"connected_time":8936000000000,"state":"active","ping":47},{"user_id":114,"name":"airbudetc","steam_id":76561199125415611,"connected_time":17000000000,"state":"active","ping":69},{"user_id":77,"name":"jazztree14","steam_id":76561199239395356,"connected_time":2224000000000,"state":"active","ping":94},{"user_id":83,"name":"Giantbob","steam_id":76561199043760220,"connected_time":2040000000000,"state":"active","ping":64},{"user_id":104,"name":"The Squid Gamer™","steam_id":76561198340621517,"connected_time":454000000000,"state":"active","ping":77},{"user_id":79,"name":"Drinkable Milk","steam_id":76561199418706430,"connected_time":2162000000000,"state":"active","ping":86},{"user_id":94,"name":"Hazel (H.A.Z.E)","steam_id":76561199247095754,"connected_time":996000000000,"state":"active","ping":83},{"user_id":14,"name":"caRat","steam_id":76561198859267372,"connected_time":6065000000000,"state":"active","ping":92},{"user_id":50,"name":"ReDeMpTioN","steam_id":76561197963635567,"connected_time":3875000000000,"state":"active","ping":47},{"user_id":15,"name":"Sp0ons","steam_id":76561198844817638,"connected_time":6038000000000,"state":"active","ping":92},{"user_id":16,"name":"BrainlezBrainiac","steam_id":76561199193942805,"connected_time":5946000000000,"state":"active","ping":88},{"user_id":106,"name":"The Great Eagle Scourge of 1822","steam_id":76561198325086209,"connected_time":336000000000,"state":"active","ping":60},{"user_id":107,"name":"Speedy","steam_id":76561198873086850,"connected_time":321000000000,"state":"active","ping":71},{"user_id":96,"name":"ImKevin","steam_id":76561198031748642,"connected_time":957000000000,"state":"active","ping":110},{"user_id":102,"name":"eggo-on-a-stick","steam_id":76561198799357966,"connected_time":769000000000,"state":"active","ping":89},{"user_id":103,"name":"rmbl","steam_id":76561198150137369,"connected_time":523000000000,"state":"active","ping":48},{"user_id":105,"name":"rad killl raccoon","steam_id":76561198980975595,"connected_time":426000000000,"state":"active","ping":90},{"user_id":23,"name":"Alkimia","steam_id":76561198385763137,"connected_time":5414000000000,"state":"active","ping":96},{"user_id":87,"name":"ToonRandom","steam_id":76561198208689031,"connected_time":1629000000000,"state":"active","ping":42},{"user_id":90,"name":"BLU3","steam_id":76561198059652670,"connected_time":1190000000000,"state":"active","ping":70},{"user_id":85,"name":"Jayne Cobb","steam_id":76561198080585050,"connected_time":1966000000000,"state":"active","ping":120},{"user_id":112,"name":"ORANGE","steam_id":76561198000401769,"connected_time":56000000000,"state":"active","ping":74},{"user_id":99,"name":"carson","steam_id":76561198273784854,"connected_time":929000000000,"state":"active","ping":75},{"user_id":100,"name":"᠌","steam_id":76561198013782244,"connected_time":928000000000,"state":"active","ping":53}]},{"server_id":25,"name":"Uncletopia | Los Angeles | 4 | Stopwatch","name_short":"lax-4","host":"lax-1.us.uncletopia.com","port":27045,"enabled":true,"region":"us-west","cc":"us","latitude":33.94279,"longitude":-118.41004,"reserved":0,"last_update":"0001-01-01T00:00:00Z","name_a2s":"Uncletopia | Los Angeles | 4 | Stopwatch","protocol":17,"map":"workshop/koth_product_final.ugc454272353","folder":"tf","game":"Team Fortress","app_id":440,"player_count":0,"max_players":24,"Bots":0,"server_type":"Dedicated","server_os":"Linux","password":true,"vac":true,"version":"7961495","steam_id":85568392924510199,"keywords":["cp","nocrits","nodmgspread","uncletopia"],"game_id":440,"stv_port":27046,"stv_name":"Uncletopia | Los Angeles | 4 | Stopwatch | STV","players":null},{"server_id":11,"name":"Uncletopia | London | 1 | All Maps","name_short":"lon-1","host":"lon-1.uk.uncletopia.com","port":27015,"enabled":true,"region":"eu","cc":"gb","latitude":51.509865,"longitude":-0.118092,"reserved":0,"last_update":"0001-01-01T00:00:00Z","name_a2s":"Uncletopia | London | 1 | All Maps","protocol":17,"map":"pl_snowycoast","folder":"tf","game":"Team Fortress","app_id":440,"player_count":23,"max_players":24,"Bots":0,"server_type":"Dedicated","server_os":"Linux","password":true,"vac":true,"version":"7961495","steam_id":85568392924367362,"keywords":["nocrits","nodmgspread","payload","uncletopia"],"game_id":440,"stv_port":27016,"stv_name":"Uncletopia | London | 1 | All Maps | STV","players":[{"user_id":439,"name":"Zed","steam_id":76561198188643754,"connected_time":2347000000000,"state":"active","ping":85},{"user_id":466,"name":"Summer ♥","steam_id":76561198047723907,"connected_time":160000000000,"state":"active","ping":35},{"user_id":417,"name":"chocy milk addict","steam_id":76561199042178118,"connected_time":4546000000000,"state":"active","ping":62},{"user_id":457,"name":"That hamster has been dead for ","steam_id":76561198346638308,"connected_time":1383000000000,"state":"active","ping":47},{"user_id":446,"name":"Haha?","steam_id":76561198056882245,"connected_time":1729000000000,"state":"active","ping":33},{"user_id":453,"name":"A Monkey?","steam_id":76561198047600058,"connected_time":1509000000000,"state":"active","ping":64},{"user_id":447,"name":"Enda","steam_id":76561198202980164,"connected_time":1727000000000,"state":"active","ping":83},{"user_id":468,"name":"Your honor Freebird was playing","steam_id":76561198017513012,"connected_time":146000000000,"state":"active","ping":61},{"user_id":465,"name":"hmscole09","steam_id":76561198811362788,"connected_time":194000000000,"state":"active","ping":54},{"user_id":467,"name":"simpleaspossible","steam_id":76561198044827000,"connected_time":148000000000,"state":"active","ping":42},{"user_id":431,"name":"ABSOLUTE UNIT","steam_id":76561197972287320,"connected_time":3707000000000,"state":"active","ping":61},{"user_id":464,"name":"bright","steam_id":76561198323945338,"connected_time":677000000000,"state":"active","ping":125},{"user_id":364,"name":"Speed-Dial","steam_id":76561198012428315,"connected_time":9062000000000,"state":"active","ping":55},{"user_id":469,"name":"Haghehog","steam_id":76561198075729793,"connected_time":143000000000,"state":"active","ping":127},{"user_id":470,"name":"❖ RazzorBee","steam_id":76561198092493838,"connected_time":141000000000,"state":"active","ping":111},{"user_id":471,"name":"Sara_Ultimis","steam_id":76561198217182993,"connected_time":138000000000,"state":"active","ping":72},{"user_id":473,"name":"Falafel","steam_id":76561198043344845,"connected_time":124000000000,"state":"active","ping":54},{"user_id":474,"name":"MARKO","steam_id":76561198065127504,"connected_time":101000000000,"state":"active","ping":74},{"user_id":444,"name":"beef","steam_id":76561199047686063,"connected_time":1978000000000,"state":"active","ping":62},{"user_id":377,"name":"clunk","steam_id":76561198836460767,"connected_time":7754000000000,"state":"active","ping":63},{"user_id":456,"name":"𐂃","steam_id":76561198874987906,"connected_time":1425000000000,"state":"active","ping":68},{"user_id":475,"name":"slippin jimmy","steam_id":76561198090788590,"connected_time":15000000000,"state":"spawning","ping":43},{"user_id":459,"name":"❤Luna Bee❤","steam_id":76561199230209215,"connected_time":1157000000000,"state":"active","ping":55}]},{"server_id":114,"name":"Uncletopia | London | 2 | All Maps","name_short":"lon-2","host":"lon-1.uk.uncletopia.com","port":27025,"enabled":true,"region":"eu","cc":"gb","latitude":51.509865,"longitude":-0.118092,"reserved":0,"last_update":"0001-01-01T00:00:00Z","name_a2s":"Uncletopia | London | 2 | All Maps","protocol":17,"map":"cp_snakewater_final1","folder":"tf","game":"Team Fortress","app_id":440,"player_count":21,"max_players":24,"Bots":0,"server_type":"Dedicated","server_os":"Linux","password":true,"vac":true,"version":"7961495","steam_id":85568392924470941,"keywords":["cp","nocrits","nodmgspread","uncletopia"],"game_id":440,"stv_port":27026,"stv_name":"Uncletopia | London | 2 | All Maps | STV","players":[{"user_id":146,"name":"Dr. Cox","steam_id":76561198246629218,"connected_time":254000000000,"state":"active","ping":98},{"user_id":138,"name":"Raymus","steam_id":76561198021330407,"connected_time":708000000000,"state":"active","ping":51},{"user_id":144,"name":"Bladi","steam_id":76561198083358434,"connected_time":292000000000,"state":"active","ping":87},{"user_id":140,"name":"Cillian","steam_id":76561199471571148,"connected_time":665000000000,"state":"active","ping":61},{"user_id":145,"name":"Woman (Real)","steam_id":76561199151823932,"connected_time":263000000000,"state":"active","ping":86},{"user_id":126,"name":"The Nurse from Team Fortress 2","steam_id":76561198236833426,"connected_time":1158000000000,"state":"active","ping":89},{"user_id":83,"name":"Ullr","steam_id":76561198140547483,"connected_time":3827000000000,"state":"active","ping":44},{"user_id":147,"name":"mt","steam_id":76561197961319303,"connected_time":246000000000,"state":"active","ping":53},{"user_id":149,"name":"GazerBazer","steam_id":76561198879107565,"connected_time":166000000000,"state":"active","ping":56},{"user_id":98,"name":"Dr. Sus","steam_id":76561198344435644,"connected_time":2354000000000,"state":"active","ping":73},{"user_id":133,"name":"SoaCrow","steam_id":76561198069420717,"connected_time":1037000000000,"state":"active","ping":64},{"user_id":150,"name":"lokilolq","steam_id":76561198132316458,"connected_time":164000000000,"state":"active","ping":97},{"user_id":117,"name":"Seal","steam_id":76561198244988552,"connected_time":1678000000000,"state":"active","ping":73},{"user_id":135,"name":"Estyle","steam_id":76561198157804700,"connected_time":983000000000,"state":"active","ping":97},{"user_id":100,"name":"Bgm_","steam_id":76561198056452044,"connected_time":2324000000000,"state":"active","ping":75},{"user_id":139,"name":"Dukebox","steam_id":76561197977447291,"connected_time":705000000000,"state":"active","ping":62},{"user_id":151,"name":"ramunelis (ricardo edition)","steam_id":76561198103589961,"connected_time":160000000000,"state":"active","ping":80},{"user_id":141,"name":"Gaz","steam_id":76561199081356069,"connected_time":570000000000,"state":"active","ping":171},{"user_id":113,"name":"Zamorocian","steam_id":76561198076604017,"connected_time":1874000000000,"state":"active","ping":37},{"user_id":148,"name":"pijacka","steam_id":76561198103899658,"connected_time":242000000000,"state":"active","ping":61},{"user_id":115,"name":"Ned Ludd","steam_id":76561198104610203,"connected_time":1859000000000,"state":"active","ping":69}]},{"server_id":320,"name":"Uncletopia | London | 3 | All Maps","name_short":"lon-3","host":"lon-1.uk.uncletopia.com","port":27035,"enabled":true,"region":"eu","cc":"gb","latitude":51.509865,"longitude":-0.118092,"reserved":0,"last_update":"0001-01-01T00:00:00Z","name_a2s":"Uncletopia | London | 3 | All Maps","protocol":17,"map":"koth_lakeside_final","folder":"tf","game":"Team Fortress","app_id":440,"player_count":23,"max_players":24,"Bots":0,"server_type":"Dedicated","server_os":"Linux","password":true,"vac":true,"version":"7961495","steam_id":85568392924510192,"keywords":["cp","nocrits","nodmgspread","uncletopia"],"game_id":440,"stv_port":27036,"stv_name":"Uncletopia | London | 3 | All Maps | STV","players":[{"user_id":473,"name":"LeMustang","steam_id":76561198143497834,"connected_time":1326000000000,"state":"active","ping":52},{"user_id":481,"name":"AetheR","steam_id":76561198005418838,"connected_time":1202000000000,"state":"active","ping":71},{"user_id":454,"name":"Deez nuts","steam_id":76561199429562693,"connected_time":1508000000000,"state":"active","ping":73},{"user_id":497,"name":"Personano","steam_id":76561198994355577,"connected_time":700000000000,"state":"active","ping":56},{"user_id":442,"name":"Surrealistic_Ganerson","steam_id":76561198029591931,"connected_time":2030000000000,"state":"active","ping":91},{"user_id":493,"name":"PROFILE NAME","steam_id":76561198180056982,"connected_time":1034000000000,"state":"active","ping":45},{"user_id":443,"name":"Petight","steam_id":76561197999438798,"connected_time":1940000000000,"state":"active","ping":32},{"user_id":510,"name":"Vamp_Moira_TTV","steam_id":76561198206111420,"connected_time":75000000000,"state":"active","ping":71},{"user_id":499,"name":"blazeeight","steam_id":76561198159456502,"connected_time":598000000000,"state":"active","ping":61},{"user_id":400,"name":"BRM","steam_id":76561198453041505,"connected_time":4388000000000,"state":"active","ping":75},{"user_id":492,"name":"Kaza","steam_id":76561198033509686,"connected_time":1071000000000,"state":"active","ping":48},{"user_id":494,"name":"abra-kablam","steam_id":76561198195857751,"connected_time":1004000000000,"state":"active","ping":75},{"user_id":508,"name":"LOBZIK","steam_id":76561198114830120,"connected_time":172000000000,"state":"active","ping":86},{"user_id":507,"name":"VolcanicArts","steam_id":76561198063453246,"connected_time":234000000000,"state":"active","ping":57},{"user_id":463,"name":"L4gman","steam_id":76561198048227040,"connected_time":1425000000000,"state":"active","ping":73},{"user_id":496,"name":"After8","steam_id":76561198090750865,"connected_time":831000000000,"state":"active","ping":69},{"user_id":476,"name":"Yodas Brother","steam_id":76561197970375663,"connected_time":1281000000000,"state":"active","ping":80},{"user_id":501,"name":"Potato_gun","steam_id":76561198113462156,"connected_time":551000000000,"state":"active","ping":113},{"user_id":467,"name":"TheGonzDude","steam_id":76561198150280470,"connected_time":1409000000000,"state":"active","ping":83},{"user_id":468,"name":"Ween :0","steam_id":76561198073607799,"connected_time":1408000000000,"state":"active","ping":56},{"user_id":469,"name":"Captain Raccoon","steam_id":76561198121814752,"connected_time":1407000000000,"state":"active","ping":132},{"user_id":470,"name":"qnx","steam_id":76561197992304342,"connected_time":1385000000000,"state":"active","ping":71},{"user_id":505,"name":"Kenny_killer_69","steam_id":76561199465207725,"connected_time":433000000000,"state":"active","ping":82}]},{"server_id":321,"name":"Uncletopia | London | 4 | All Maps","name_short":"lon-4","host":"lon-1.uk.uncletopia.com","port":27045,"enabled":true,"region":"eu","cc":"gb","latitude":51.509865,"longitude":-0.118092,"reserved":0,"last_update":"0001-01-01T00:00:00Z","name_a2s":"Uncletopia | London | 4 | All Maps","protocol":17,"map":"cp_process_final","folder":"tf","game":"Team Fortress","app_id":440,"player_count":0,"max_players":24,"Bots":0,"server_type":"Dedicated","server_os":"Linux","password":true,"vac":true,"version":"7961495","steam_id":85568392924510193,"keywords":["cp","nocrits","nodmgspread","uncletopia"],"game_id":440,"stv_port":27046,"stv_name":"Uncletopia | London | 4 | All Maps | STV","players":null},{"server_id":21,"name":"Uncletopia | London | 5 | All Maps","name_short":"lon-5","host":"lon-1.uk.uncletopia.com","port":27055,"enabled":true,"region":"eu","cc":"gb","latitude":51.509865,"longitude":-0.118092,"reserved":0,"last_update":"0001-01-01T00:00:00Z","name_a2s":"Uncletopia | London | 5 | All Maps","protocol":17,"map":"pl_badwater","folder":"tf","game":"Team Fortress","app_id":440,"player_count":24,"max_players":24,"Bots":0,"server_type":"Dedicated","server_os":"Linux","password":true,"vac":true,"version":"7961495","steam_id":85568392924742829,"keywords":["nocrits","nodmgspread","payload","uncletopia"],"game_id":440,"stv_port":27056,"stv_name":"Uncletopia | London | 5 | All Maps | STV","players":[{"user_id":319,"name":"Fran","steam_id":76561199070516960,"connected_time":6745000000000,"state":"active","ping":70},{"user_id":413,"name":"CalzoneCarl456","steam_id":76561198846982793,"connected_time":815000000000,"state":"active","ping":46},{"user_id":402,"name":"shoras","steam_id":76561198019680159,"connected_time":1706000000000,"state":"active","ping":93},{"user_id":394,"name":"Reomk","steam_id":76561198309314129,"connected_time":1896000000000,"state":"active","ping":81},{"user_id":391,"name":"Edsuedi","steam_id":76561198074722832,"connected_time":1970000000000,"state":"active","ping":60},{"user_id":378,"name":"DeterminedXD[HUN]","steam_id":76561199469006453,"connected_time":2442000000000,"state":"active","ping":86},{"user_id":414,"name":"Minus-Abinus","steam_id":76561199383437138,"connected_time":502000000000,"state":"active","ping":126},{"user_id":392,"name":"static","steam_id":76561198836825741,"connected_time":1959000000000,"state":"active","ping":43},{"user_id":387,"name":"sareena","steam_id":76561198810194062,"connected_time":2099000000000,"state":"active","ping":64},{"user_id":395,"name":"Deeber","steam_id":76561198043957106,"connected_time":1826000000000,"state":"active","ping":59},{"user_id":390,"name":"RAT BASTARD","steam_id":76561199195985387,"connected_time":1988000000000,"state":"active","ping":94},{"user_id":353,"name":"Lux","steam_id":76561198060417740,"connected_time":4603000000000,"state":"active","ping":45},{"user_id":281,"name":"fence_","steam_id":76561198150386379,"connected_time":9029000000000,"state":"active","ping":51},{"user_id":388,"name":"lumiukko","steam_id":76561199103891073,"connected_time":2044000000000,"state":"active","ping":102},{"user_id":411,"name":"medick","steam_id":76561199380849468,"connected_time":1045000000000,"state":"active","ping":62},{"user_id":418,"name":"Wattseyy","steam_id":76561198248567360,"connected_time":104000000000,"state":"active","ping":43},{"user_id":398,"name":"Bob D","steam_id":76561198026375630,"connected_time":1759000000000,"state":"active","ping":58},{"user_id":373,"name":"TranvesTito","steam_id":76561198140034262,"connected_time":3014000000000,"state":"active","ping":80},{"user_id":223,"name":"The Subway Scientist","steam_id":76561198193757646,"connected_time":10643000000000,"state":"active","ping":45},{"user_id":399,"name":"Supercoxylac","steam_id":76561198376300138,"connected_time":1734000000000,"state":"active","ping":74},{"user_id":389,"name":"*Stare*","steam_id":76561199072209884,"connected_time":2043000000000,"state":"active","ping":50},{"user_id":407,"name":"Protector.CZ","steam_id":76561197972341084,"connected_time":1472000000000,"state":"active","ping":79},{"user_id":405,"name":"F L A T","steam_id":76561198196623310,"connected_time":1543000000000,"state":"active","ping":54},{"user_id":417,"name":"Grillem Dafoe","steam_id":76561198306874574,"connected_time":331000000000,"state":"active","ping":63}]},{"server_id":22,"name":"Uncletopia | London | 6 | All Maps","name_short":"lon-6","host":"lon-1.uk.uncletopia.com","port":27065,"enabled":true,"region":"eu","cc":"gb","latitude":51.509865,"longitude":-0.118092,"reserved":0,"last_update":"0001-01-01T00:00:00Z","name_a2s":"Uncletopia | London | 6 | All Maps","protocol":17,"map":"koth_viaduct","folder":"tf","game":"Team Fortress","app_id":440,"player_count":21,"max_players":24,"Bots":0,"server_type":"Dedicated","server_os":"Linux","password":true,"vac":true,"version":"7961495","steam_id":85568392924742830,"keywords":["cp","nocrits","nodmgspread","uncletopia"],"game_id":440,"stv_port":27066,"stv_name":"Uncletopia | London | 6 | All Maps | STV","players":[{"user_id":73,"name":"Froenzi","steam_id":76561198168841723,"connected_time":224000000000,"state":"active","ping":55},{"user_id":78,"name":"Space","steam_id":76561198378357559,"connected_time":79000000000,"state":"active","ping":40},{"user_id":27,"name":"600µg weed paracetamol mixture","steam_id":76561198281256009,"connected_time":1116000000000,"state":"active","ping":90},{"user_id":28,"name":"baithoven","steam_id":76561198226926932,"connected_time":1113000000000,"state":"active","ping":47},{"user_id":79,"name":"Rei Ayanami","steam_id":76561198405980575,"connected_time":25000000000,"state":"active","ping":67},{"user_id":80,"name":"Inky (She)","steam_id":76561198334042273,"connected_time":11000000000,"state":"spawning","ping":29},{"user_id":64,"name":"Kenny Savage","steam_id":76561199049383900,"connected_time":517000000000,"state":"active","ping":75},{"user_id":39,"name":"lordd2647","steam_id":76561199433534405,"connected_time":944000000000,"state":"active","ping":76},{"user_id":66,"name":"TheMytant","steam_id":76561198407880855,"connected_time":459000000000,"state":"active","ping":138},{"user_id":40,"name":"The legendery balls","steam_id":76561199139344747,"connected_time":916000000000,"state":"active","ping":102},{"user_id":41,"name":"HopeDaGamer","steam_id":76561199487262348,"connected_time":879000000000,"state":"active","ping":104},{"user_id":68,"name":"Flashback","steam_id":76561197973978552,"connected_time":416000000000,"state":"active","ping":61},{"user_id":70,"name":"asu","steam_id":76561197994492154,"connected_time":274000000000,"state":"active","ping":75},{"user_id":61,"name":"Ransu","steam_id":76561198211750823,"connected_time":609000000000,"state":"active","ping":75},{"user_id":49,"name":"Mandele","steam_id":76561199183213205,"connected_time":816000000000,"state":"active","ping":55},{"user_id":50,"name":"dima_gorgon","steam_id":76561198205824409,"connected_time":797000000000,"state":"active","ping":68},{"user_id":56,"name":"るるち","steam_id":76561198311570846,"connected_time":718000000000,"state":"active","ping":45},{"user_id":52,"name":"Fabric","steam_id":76561198118742661,"connected_time":779000000000,"state":"active","ping":84},{"user_id":53,"name":"Qdarks","steam_id":76561198013391340,"connected_time":772000000000,"state":"active","ping":142},{"user_id":54,"name":"googoo ginga gagaga googoo gaga","steam_id":76561198349648942,"connected_time":771000000000,"state":"active","ping":75},{"user_id":76,"name":"Anabolic minion","steam_id":76561198377533237,"connected_time":185000000000,"state":"active","ping":64}]},{"server_id":40,"name":"Uncletopia | London | 7 | Stopwatch","name_short":"lon-7","host":"lon-1.uk.uncletopia.com","port":27075,"enabled":true,"region":"eu","cc":"gb","latitude":51.509865,"longitude":-0.118092,"reserved":0,"last_update":"0001-01-01T00:00:00Z","name_a2s":"Uncletopia | London | 7 | Stopwatch","protocol":17,"map":"workshop/pl_vigil_rc10.ugc1266210012","folder":"tf","game":"Team Fortress","app_id":440,"player_count":0,"max_players":24,"Bots":0,"server_type":"Dedicated","server_os":"Linux","password":true,"vac":true,"version":"7961495","steam_id":85568392924964314,"keywords":["nocrits","nodmgspread","payload","uncletopia"],"game_id":440,"stv_port":27076,"stv_name":"Uncletopia | London | 7 | Stopwatch | STV","players":null},{"server_id":41,"name":"Uncletopia | London | 8 | Community","name_short":"lon-8","host":"lon-1.uk.uncletopia.com","port":27085,"enabled":true,"region":"eu","cc":"gb","latitude":51.509865,"longitude":-0.118092,"reserved":0,"last_update":"0001-01-01T00:00:00Z","name_a2s":"Uncletopia | London | 8 | Community","protocol":17,"map":"workshop/cp_hazyfort_rc6.ugc1365963729","folder":"tf","game":"Team Fortress","app_id":440,"player_count":5,"max_players":24,"Bots":0,"server_type":"Dedicated","server_os":"Linux","password":true,"vac":true,"version":"7961495","steam_id":85568392924964315,"keywords":["cp","nocrits","nodmgspread","uncletopia"],"game_id":440,"stv_port":27086,"stv_name":"Uncletopia | London | 8 | Community | STV","players":[{"user_id":12,"name":"red texan","steam_id":76561199193957264,"connected_time":525000000000,"state":"active","ping":41},{"user_id":13,"name":"Boba Swaggins","steam_id":76561199112380997,"connected_time":414000000000,"state":"active","ping":64},{"user_id":10,"name":"maxman","steam_id":76561198985017935,"connected_time":901000000000,"state":"active","ping":59},{"user_id":11,"name":"Ravna","steam_id":76561199464032789,"connected_time":877000000000,"state":"active","ping":52},{"user_id":14,"name":"breadbear \u003c3","steam_id":76561198036895007,"connected_time":311000000000,"state":"active","ping":88}]},{"server_id":300,"name":"Uncletopia | Montréal | 1 | One Thousand Uncles","name_short":"mtl-1","host":"mtl-1.ca.uncletopia.com","port":27015,"enabled":true,"region":"us-east","cc":"ca","latitude":45.50889,"longitude":-73.56167,"reserved":0,"last_update":"0001-01-01T00:00:00Z","name_a2s":"Uncletopia | Montréal | 1 | One Thousand Uncles","protocol":17,"map":"cp_mossrock","folder":"tf","game":"Team Fortress","app_id":440,"player_count":30,"max_players":32,"Bots":20,"server_type":"Dedicated","server_os":"Linux","password":true,"vac":true,"version":"7961495","steam_id":85568392924500087,"keywords":["alltalk","bots","cp","danepve","increased_maxplayers","norespawntime","uncletopia"],"game_id":440,"stv_port":0,"stv_name":"","players":[{"user_id":67,"name":"oofy1820","steam_id":76561199164952300,"connected_time":3467000000000,"state":"active","ping":65},{"user_id":131,"name":"Femboy Gaming","steam_id":76561199382783363,"connected_time":456000000000,"state":"active","ping":116},{"user_id":132,"name":"Heartgold","steam_id":76561199062592062,"connected_time":217000000000,"state":"active","ping":74},{"user_id":133,"name":"cold","steam_id":76561199017901552,"connected_time":211000000000,"state":"active","ping":90},{"user_id":99,"name":"chrisd149","steam_id":76561198018710480,"connected_time":1462000000000,"state":"active","ping":99},{"user_id":134,"name":"Captaindux","steam_id":76561198045390541,"connected_time":201000000000,"state":"active","ping":51},{"user_id":101,"name":"DjFloppy","steam_id":76561198212014625,"connected_time":1280000000000,"state":"active","ping":120},{"user_id":104,"name":"mosquito","steam_id":76561198055638231,"connected_time":1207000000000,"state":"active","ping":62},{"user_id":103,"name":"TROLLDIER","steam_id":76561199455249068,"connected_time":1264000000000,"state":"active","ping":52},{"user_id":105,"name":"Soviet Hoovy™","steam_id":76561198367792271,"connected_time":1198000000000,"state":"active","ping":80}]},{"server_id":301,"name":"Uncletopia | Montréal | 2 | One Thousand Uncles","name_short":"mtl-2","host":"mtl-1.ca.uncletopia.com","port":27025,"enabled":true,"region":"us-east","cc":"ca","latitude":45.50889,"longitude":-73.56167,"reserved":0,"last_update":"0001-01-01T00:00:00Z","name_a2s":"Uncletopia | Montréal | 2 | One Thousand Uncles","protocol":17,"map":"cp_mossrock","folder":"tf","game":"Team Fortress","app_id":440,"player_count":0,"max_players":32,"Bots":0,"server_type":"Dedicated","server_os":"Linux","password":true,"vac":true,"version":"7961495","steam_id":85568392924500088,"keywords":["alltalk","cp","danepve","increased_maxplayers","norespawntime","uncletopia"],"game_id":440,"stv_port":0,"stv_name":"","players":null},{"server_id":302,"name":"Uncletopia | Montréal | 3 | One Thousand Uncles","name_short":"mtl-3","host":"mtl-1.ca.uncletopia.com","port":27035,"enabled":true,"region":"us-east","cc":"ca","latitude":45.50889,"longitude":-73.56167,"reserved":0,"last_update":"0001-01-01T00:00:00Z","name_a2s":"Uncletopia | Montréal | 3 | One Thousand Uncles","protocol":17,"map":"pl_pier","folder":"tf","game":"Team Fortress","app_id":440,"player_count":0,"max_players":32,"Bots":0,"server_type":"Dedicated","server_os":"Linux","password":true,"vac":true,"version":"7961495","steam_id":85568392924500089,"keywords":["alltalk","danepve","increased_maxplayers","norespawntime","payload","uncletopia"],"game_id":440,"stv_port":0,"stv_name":"","players":null},{"server_id":13,"name":"Uncletopia | New York City | 1 | All Maps","name_short":"nyc-1","host":"nyc-1.us.uncletopia.com","port":27015,"enabled":true,"region":"us-east","cc":"us","latitude":40.73061,"longitude":-73.93524,"reserved":0,"last_update":"0001-01-01T00:00:00Z","name_a2s":"Uncletopia | New York City | 1 | All Maps","protocol":17,"map":"pl_thundermountain","folder":"tf","game":"Team Fortress","app_id":440,"player_count":24,"max_players":24,"Bots":0,"server_type":"Dedicated","server_os":"Linux","password":true,"vac":true,"version":"7961495","steam_id":85568392924469993,"keywords":["nocrits","nodmgspread","payload","uncletopia"],"game_id":440,"stv_port":27016,"stv_name":"Uncletopia | New York City | 1 | All Maps | STV","players":[{"user_id":192,"name":"Mocha","steam_id":76561198368999744,"connected_time":1599000000000,"state":"active","ping":58},{"user_id":201,"name":"Tropic Bird","steam_id":76561199136498585,"connected_time":1214000000000,"state":"active","ping":49},{"user_id":210,"name":"Top Frog","steam_id":76561198072793446,"connected_time":644000000000,"state":"active","ping":64},{"user_id":202,"name":"The Notorious RBG","steam_id":76561198014275148,"connected_time":1156000000000,"state":"active","ping":54},{"user_id":211,"name":"tommy","steam_id":76561198111753974,"connected_time":642000000000,"state":"active","ping":35},{"user_id":194,"name":"Local Eliksni Enjoyer","steam_id":76561198122725834,"connected_time":1571000000000,"state":"active","ping":59},{"user_id":188,"name":"ToyBox","steam_id":76561199074735423,"connected_time":1942000000000,"state":"active","ping":58},{"user_id":217,"name":"Sean","steam_id":76561198023624342,"connected_time":170000000000,"state":"active","ping":73},{"user_id":156,"name":"b4rry","steam_id":76561198365887154,"connected_time":4467000000000,"state":"active","ping":53},{"user_id":216,"name":"1000 Gigglebytes of clown girls","steam_id":76561198290719848,"connected_time":368000000000,"state":"active","ping":89},{"user_id":218,"name":"War on Drugs Fighter","steam_id":76561198103211035,"connected_time":97000000000,"state":"active","ping":56},{"user_id":206,"name":"SmiGuy","steam_id":76561198058474433,"connected_time":1023000000000,"state":"active","ping":52},{"user_id":204,"name":"Gaming","steam_id":76561198107080532,"connected_time":1049000000000,"state":"active","ping":69},{"user_id":155,"name":"OdysseyTen","steam_id":76561198133082665,"connected_time":4503000000000,"state":"active","ping":47},{"user_id":175,"name":"totalhipstercrusher","steam_id":76561198061738700,"connected_time":3421000000000,"state":"active","ping":60},{"user_id":187,"name":"Nuclear Toaster Oven","steam_id":76561199121752841,"connected_time":2042000000000,"state":"active","ping":56},{"user_id":212,"name":"LordZ19","steam_id":76561198401058967,"connected_time":626000000000,"state":"active","ping":50},{"user_id":208,"name":"Nabsin","steam_id":76561198208345304,"connected_time":1001000000000,"state":"active","ping":59},{"user_id":109,"name":"pea ttv/peabeanz","steam_id":76561198119551968,"connected_time":8075000000000,"state":"active","ping":69},{"user_id":193,"name":"UberDog","steam_id":76561198978172607,"connected_time":1592000000000,"state":"active","ping":72},{"user_id":199,"name":"QuackRick","steam_id":76561198005514341,"connected_time":1397000000000,"state":"active","ping":64},{"user_id":213,"name":"TheRamenYouAteYesterday","steam_id":76561199474398508,"connected_time":584000000000,"state":"active","ping":71},{"user_id":176,"name":"Wizard of Loneliness","steam_id":76561198031493107,"connected_time":2346000000000,"state":"active","ping":73},{"user_id":215,"name":"the keebler","steam_id":76561199486326945,"connected_time":544000000000,"state":"active","ping":75}]},{"server_id":14,"name":"Uncletopia | New York City | 2 | All Maps","name_short":"nyc-2","host":"nyc-1.us.uncletopia.com","port":27025,"enabled":true,"region":"us-east","cc":"us","latitude":40.73061,"longitude":-73.93524,"reserved":0,"last_update":"0001-01-01T00:00:00Z","name_a2s":"Uncletopia | New York City | 2 | All Maps","protocol":17,"map":"pl_frontier_final","folder":"tf","game":"Team Fortress","app_id":440,"player_count":21,"max_players":24,"Bots":0,"server_type":"Dedicated","server_os":"Linux","password":true,"vac":true,"version":"7961495","steam_id":85568392924469994,"keywords":["nocrits","nodmgspread","payload","uncletopia"],"game_id":440,"stv_port":27026,"stv_name":"Uncletopia | New York City | 2 | All Maps | STV","players":[{"user_id":141,"name":"Sexual Intellectual","steam_id":76561198065684638,"connected_time":1855000000000,"state":"active","ping":46},{"user_id":152,"name":"CyberKing","steam_id":76561198891407538,"connected_time":1650000000000,"state":"active","ping":40},{"user_id":147,"name":"SpidorZ","steam_id":76561199085789238,"connected_time":1734000000000,"state":"active","ping":83},{"user_id":132,"name":"No","steam_id":76561199064277946,"connected_time":3251000000000,"state":"active","ping":73},{"user_id":107,"name":"Mr. Luggy","steam_id":76561198072723392,"connected_time":6140000000000,"state":"active","ping":119},{"user_id":167,"name":"luigiloverscout","steam_id":76561198379272142,"connected_time":32000000000,"state":"spawning","ping":31},{"user_id":138,"name":"TRIPLE AAARON","steam_id":76561198066835150,"connected_time":2392000000000,"state":"active","ping":39},{"user_id":142,"name":"[DataRefracted]","steam_id":76561199262579270,"connected_time":1825000000000,"state":"active","ping":66},{"user_id":153,"name":"Roseboy gaming","steam_id":76561199013287774,"connected_time":1644000000000,"state":"active","ping":88},{"user_id":168,"name":"Militant Pacifist","steam_id":76561198290691432,"connected_time":6000000000,"state":"spawning","ping":91},{"user_id":164,"name":"OKAY","steam_id":76561198091980659,"connected_time":174000000000,"state":"active","ping":56},{"user_id":163,"name":"your very own pocket medic","steam_id":76561199489320369,"connected_time":206000000000,"state":"active","ping":60},{"user_id":47,"name":"Cellus","steam_id":76561198067204847,"connected_time":10027000000000,"state":"active","ping":52},{"user_id":165,"name":"Baron von Whoopsie","steam_id":76561197996691013,"connected_time":102000000000,"state":"active","ping":61},{"user_id":148,"name":"Ligmus Sigmus","steam_id":76561198168946002,"connected_time":1719000000000,"state":"active","ping":43},{"user_id":133,"name":"Bluedot","steam_id":76561198019909639,"connected_time":3235000000000,"state":"active","ping":45},{"user_id":154,"name":"Hi, I'm Jesus","steam_id":76561198015327152,"connected_time":1640000000000,"state":"active","ping":48},{"user_id":160,"name":"emotional suppport e-cigarette","steam_id":76561198172120615,"connected_time":402000000000,"state":"active","ping":42},{"user_id":146,"name":"grandes pechos naturales","steam_id":76561198194471251,"connected_time":1784000000000,"state":"active","ping":57},{"user_id":157,"name":"Caribou","steam_id":76561197997211265,"connected_time":1422000000000,"state":"active","ping":60},{"user_id":124,"name":"icecxld","steam_id":76561198079018805,"connected_time":4851000000000,"state":"active","ping":86}]},{"server_id":15,"name":"Uncletopia | New York City | 3 | Stopwatch","name_short":"nyc-3","host":"nyc-1.us.uncletopia.com","port":27035,"enabled":true,"region":"us-east","cc":"us","latitude":40.73061,"longitude":-73.93524,"reserved":0,"last_update":"0001-01-01T00:00:00Z","name_a2s":"Uncletopia | New York City | 3 | Stopwatch","protocol":17,"map":"pl_upward","folder":"tf","game":"Team Fortress","app_id":440,"player_count":0,"max_players":24,"Bots":0,"server_type":"Dedicated","server_os":"Linux","password":true,"vac":true,"version":"7961495","steam_id":85568392924742820,"keywords":["nocrits","nodmgspread","payload","uncletopia"],"game_id":440,"stv_port":27036,"stv_name":"Uncletopia | New York City | 3 | Stopwatch | STV","players":null},{"server_id":16,"name":"Uncletopia | New York City | 4 | Community","name_short":"nyc-4","host":"nyc-1.us.uncletopia.com","port":27045,"enabled":true,"region":"us-east","cc":"us","latitude":40.73061,"longitude":-73.93524,"reserved":0,"last_update":"0001-01-01T00:00:00Z","name_a2s":"Uncletopia | New York City | 4 | Community","protocol":17,"map":"workshop/pl_shoreleave_rc2.ugc1238849347","folder":"tf","game":"Team Fortress","app_id":440,"player_count":0,"max_players":24,"Bots":0,"server_type":"Dedicated","server_os":"Linux","password":true,"vac":true,"version":"7961495","steam_id":85568392924742821,"keywords":["nocrits","nodmgspread","payload","uncletopia"],"game_id":440,"stv_port":27046,"stv_name":"Uncletopia | New York City | 4 | Community | STV","players":null},{"server_id":142,"name":"Uncletopia | São Paulo | 1 | All Maps","name_short":"sao-1","host":"sao-1.br.uncletopia.com","port":27015,"enabled":true,"region":"sa","cc":"br","latitude":-23.533773,"longitude":-46.62529,"reserved":0,"last_update":"0001-01-01T00:00:00Z","name_a2s":"Uncletopia | São Paulo | 1 | All Maps","protocol":17,"map":"cp_dustbowl","folder":"tf","game":"Team Fortress","app_id":440,"player_count":5,"max_players":24,"Bots":0,"server_type":"Dedicated","server_os":"Linux","password":true,"vac":true,"version":"7961495","steam_id":85568392924469996,"keywords":["cp","nocrits","nodmgspread","uncletopia"],"game_id":440,"stv_port":27016,"stv_name":"Uncletopia | São Paulo | 1 | All Maps | STV","players":[{"user_id":54,"name":"massie ♥","steam_id":76561198409331049,"connected_time":685000000000,"state":"active","ping":87},{"user_id":56,"name":"Eggbert","steam_id":76561198379513346,"connected_time":521000000000,"state":"active","ping":61},{"user_id":46,"name":"eles pegaram minha maconha","steam_id":76561199359501901,"connected_time":1028000000000,"state":"active","ping":44},{"user_id":34,"name":"luizkw","steam_id":76561199075167426,"connected_time":1754000000000,"state":"active","ping":45},{"user_id":50,"name":"opapa4733","steam_id":76561199490378877,"connected_time":890000000000,"state":"active","ping":52}]},{"server_id":143,"name":"Uncletopia | São Paulo | 2 | Community","name_short":"sao-2","host":"sao-2.br.uncletopia.com","port":27015,"enabled":true,"region":"sa","cc":"br","latitude":-23.533773,"longitude":-46.62529,"reserved":0,"last_update":"0001-01-01T00:00:00Z","name_a2s":"Uncletopia | São Paulo | 2 | Community","protocol":17,"map":"workshop/koth_slaughter_rc1.ugc1712845210","folder":"tf","game":"Team Fortress","app_id":440,"player_count":0,"max_players":24,"Bots":0,"server_type":"Dedicated","server_os":"Linux","password":true,"vac":true,"version":"7961495","steam_id":85568392924485349,"keywords":["cp","nocrits","nodmgspread","uncletopia"],"game_id":440,"stv_port":27016,"stv_name":"Uncletopia | São Paulo | 2 | Community | STV","players":null},{"server_id":7,"name":"Uncletopia | Seattle | 1 | All Maps","name_short":"sea-1","host":"sea-1.us.uncletopia.com","port":27015,"enabled":true,"region":"us-west","cc":"us","latitude":47.608013,"longitude":-122.33517,"reserved":0,"last_update":"0001-01-01T00:00:00Z","name_a2s":"Uncletopia | Seattle | 1 | All Maps","protocol":17,"map":"koth_lakeside_final","folder":"tf","game":"Team Fortress","app_id":440,"player_count":0,"max_players":24,"Bots":0,"server_type":"Dedicated","server_os":"Linux","password":true,"vac":true,"version":"7961495","steam_id":85568392924469997,"keywords":["cp","nocrits","nodmgspread","uncletopia"],"game_id":440,"stv_port":27016,"stv_name":"Uncletopia | Seattle | 1 | All Maps | STV","players":null},{"server_id":119,"name":"Uncletopia | Seattle | 2 | All Maps","name_short":"sea-2","host":"sea-1.us.uncletopia.com","port":27025,"enabled":true,"region":"us-west","cc":"us","latitude":47.608013,"longitude":-122.33517,"reserved":0,"last_update":"0001-01-01T00:00:00Z","name_a2s":"Uncletopia | Seattle | 2 | All Maps","protocol":17,"map":"cp_mountainlab","folder":"tf","game":"Team Fortress","app_id":440,"player_count":0,"max_players":24,"Bots":0,"server_type":"Dedicated","server_os":"Linux","password":true,"vac":true,"version":"7961495","steam_id":85568392924469998,"keywords":["cp","nocrits","nodmgspread","uncletopia"],"game_id":440,"stv_port":27026,"stv_name":"Uncletopia | Seattle | 2 | All Maps | STV","players":null},{"server_id":406,"name":"Uncletopia | Seattle | 3 | Stopwatch","name_short":"sea-3","host":"sea-1.us.uncletopia.com","port":27035,"enabled":true,"region":"us-west","cc":"us","latitude":47.608013,"longitude":-122.33517,"reserved":0,"last_update":"0001-01-01T00:00:00Z","name_a2s":"Uncletopia | Seattle | 3 | Stopwatch","protocol":17,"map":"cp_gullywash_final1","folder":"tf","game":"Team Fortress","app_id":440,"player_count":0,"max_players":24,"Bots":0,"server_type":"Dedicated","server_os":"Linux","password":true,"vac":true,"version":"7961495","steam_id":85568392924515217,"keywords":["cp","nocrits","nodmgspread","uncletopia"],"game_id":440,"stv_port":27036,"stv_name":"Uncletopia | Seattle | 3 | Stopwatch | STV","players":null},{"server_id":17,"name":"Uncletopia | San Francisco | 1 | All Maps","name_short":"sfo-1","host":"sfo-1.us.uncletopia.com","port":27015,"enabled":true,"region":"us-west","cc":"us","latitude":37.77397,"longitude":-122.4313,"reserved":0,"last_update":"0001-01-01T00:00:00Z","name_a2s":"Uncletopia | San Francisco | 1 | All Maps","protocol":17,"map":"cp_sunshine","folder":"tf","game":"Team Fortress","app_id":440,"player_count":0,"max_players":24,"Bots":0,"server_type":"Dedicated","server_os":"Linux","password":true,"vac":true,"version":"7961495","steam_id":85568392924469999,"keywords":["cp","nocrits","nodmgspread","uncletopia"],"game_id":440,"stv_port":27016,"stv_name":"Uncletopia | San Francisco | 1 | All Maps | STV","players":null},{"server_id":18,"name":"Uncletopia | San Francisco | 2 | All Maps","name_short":"sfo-2","host":"sfo-1.us.uncletopia.com","port":27025,"enabled":true,"region":"us-west","cc":"us","latitude":37.77397,"longitude":-122.4313,"reserved":0,"last_update":"0001-01-01T00:00:00Z","name_a2s":"Uncletopia | San Francisco | 2 | All Maps","protocol":17,"map":"pl_hoodoo_final","folder":"tf","game":"Team Fortress","app_id":440,"player_count":0,"max_players":24,"Bots":0,"server_type":"Dedicated","server_os":"Linux","password":true,"vac":true,"version":"7961495","steam_id":85568392924470000,"keywords":["nocrits","nodmgspread","payload","uncletopia"],"game_id":440,"stv_port":27026,"stv_name":"Uncletopia | San Francisco | 2 | All Maps | STV","players":null},{"server_id":19,"name":"Uncletopia | San Francisco | 3 | Stopwatch","name_short":"sfo-3","host":"sfo-1.us.uncletopia.com","port":27035,"enabled":true,"region":"us-west","cc":"us","latitude":37.77397,"longitude":-122.4313,"reserved":0,"last_update":"0001-01-01T00:00:00Z","name_a2s":"Uncletopia | San Francisco | 3 | Stopwatch","protocol":17,"map":"workshop/koth_clearcut_b15.ugc2107050255","folder":"tf","game":"Team Fortress","app_id":440,"player_count":0,"max_players":24,"Bots":0,"server_type":"Dedicated","server_os":"Linux","password":true,"vac":true,"version":"7961495","steam_id":85568392924742824,"keywords":["cp","nocrits","nodmgspread","uncletopia"],"game_id":440,"stv_port":27036,"stv_name":"Uncletopia | San Francisco | 3 | Stopwatch | STV","players":null},{"server_id":20,"name":"Uncletopia | San Francisco | 4 | Community","name_short":"sfo-4","host":"sfo-1.us.uncletopia.com","port":27045,"enabled":true,"region":"us-west","cc":"us","latitude":37.77397,"longitude":-122.4313,"reserved":0,"last_update":"0001-01-01T00:00:00Z","name_a2s":"Uncletopia | San Francisco | 4 | Community","protocol":17,"map":"workshop/pl_vigil_rc10.ugc1266210012","folder":"tf","game":"Team Fortress","app_id":440,"player_count":0,"max_players":24,"Bots":0,"server_type":"Dedicated","server_os":"Linux","password":true,"vac":true,"version":"7961495","steam_id":85568392924742826,"keywords":["nocrits","nodmgspread","payload","uncletopia"],"game_id":440,"stv_port":27046,"stv_name":"Uncletopia | San Francisco | 4 | Community | STV","players":null},{"server_id":141,"name":"Uncletopia | Sydney | 1 | All Maps","name_short":"syd-1","host":"syd-1.au.uncletopia.com","port":27015,"enabled":true,"region":"au","cc":"au","latitude":-33.865143,"longitude":151.2099,"reserved":0,"last_update":"0001-01-01T00:00:00Z","name_a2s":"Uncletopia | Sydney | 1 | All Maps","protocol":17,"map":"cp_sunshine","folder":"tf","game":"Team Fortress","app_id":440,"player_count":0,"max_players":24,"Bots":0,"server_type":"Dedicated","server_os":"Linux","password":true,"vac":true,"version":"7961495","steam_id":85568392924470001,"keywords":["cp","nocrits","nodmgspread","uncletopia"],"game_id":440,"stv_port":27016,"stv_name":"Uncletopia | Sydney | 1 | All Maps | STV","players":null},{"server_id":123,"name":"Uncletopia | Sydney | 2 | All Maps","name_short":"syd-2","host":"syd-1.au.uncletopia.com","port":27025,"enabled":true,"region":"au","cc":"au","latitude":-33.865143,"longitude":151.2099,"reserved":0,"last_update":"0001-01-01T00:00:00Z","name_a2s":"Uncletopia | Sydney | 2 | All Maps","protocol":17,"map":"pl_swiftwater_final1","folder":"tf","game":"Team Fortress","app_id":440,"player_count":0,"max_players":24,"Bots":0,"server_type":"Dedicated","server_os":"Linux","password":true,"vac":true,"version":"7961495","steam_id":85568392924470002,"keywords":["nocrits","nodmgspread","payload","uncletopia"],"game_id":440,"stv_port":27026,"stv_name":"Uncletopia | Sydney | 2 | All Maps | STV","players":null},{"server_id":395,"name":"Uncletopia | Sydney | 3 | All Maps","name_short":"syd-3","host":"syd-1.au.uncletopia.com","port":27035,"enabled":true,"region":"au","cc":"au","latitude":-33.865143,"longitude":151.2099,"reserved":0,"last_update":"0001-01-01T00:00:00Z","name_a2s":"Uncletopia | Sydney | 3 | All Maps","protocol":17,"map":"koth_highpass","folder":"tf","game":"Team Fortress","app_id":440,"player_count":0,"max_players":24,"Bots":0,"server_type":"Dedicated","server_os":"Linux","password":true,"vac":true,"version":"7961495","steam_id":85568392925194467,"keywords":["cp","nocrits","nodmgspread","uncletopia"],"game_id":440,"stv_port":27036,"stv_name":"Uncletopia | Sydney | 3 | All Maps | STV","players":null},{"server_id":396,"name":"Uncletopia | Sydney | 4 | All Maps","name_short":"syd-4","host":"syd-1.au.uncletopia.com","port":27045,"enabled":true,"region":"au","cc":"au","latitude":-33.865143,"longitude":151.2099,"reserved":0,"last_update":"0001-01-01T00:00:00Z","name_a2s":"Uncletopia | Sydney | 4 | All Maps","protocol":17,"map":"koth_cascade","folder":"tf","game":"Team Fortress","app_id":440,"player_count":0,"max_players":24,"Bots":0,"server_type":"Dedicated","server_os":"Linux","password":true,"vac":true,"version":"7961495","steam_id":85568392925397958,"keywords":["cp","nocrits","nodmgspread","uncletopia"],"game_id":440,"stv_port":27046,"stv_name":"Uncletopia | Sydney | 4 | All Maps | STV","players":null},{"server_id":58,"name":"Uncletopia | Sydney | 5 | Stopwatch","name_short":"syd-5","host":"syd-1.au.uncletopia.com","port":27055,"enabled":true,"region":"au","cc":"au","latitude":-33.865143,"longitude":151.2099,"reserved":0,"last_update":"0001-01-01T00:00:00Z","name_a2s":"Uncletopia | Sydney | 5 | Stopwatch","protocol":17,"map":"workshop/koth_product_final.ugc454272353","folder":"tf","game":"Team Fortress","app_id":440,"player_count":0,"max_players":24,"Bots":0,"server_type":"Dedicated","server_os":"Linux","password":true,"vac":true,"version":"7961495","steam_id":85568392925397959,"keywords":["cp","nocrits","nodmgspread","uncletopia"],"game_id":440,"stv_port":27056,"stv_name":"Uncletopia | Sydney | 5 | Stopwatch | STV","players":null},{"server_id":59,"name":"Uncletopia | Sydney | 6 | Community","name_short":"syd-6","host":"syd-1.au.uncletopia.com","port":27065,"enabled":true,"region":"au","cc":"au","latitude":-33.865143,"longitude":151.2099,"reserved":0,"last_update":"0001-01-01T00:00:00Z","name_a2s":"Uncletopia | Sydney | 6 | Community","protocol":17,"map":"workshop/cp_mannbase_rc2a.ugc1900737467","folder":"tf","game":"Team Fortress","app_id":440,"player_count":0,"max_players":24,"Bots":0,"server_type":"Dedicated","server_os":"Linux","password":true,"vac":true,"version":"7961495","steam_id":85568392925397960,"keywords":["cp","nocrits","nodmgspread","uncletopia"],"game_id":440,"stv_port":27066,"stv_name":"Uncletopia | Sydney | 6 | Community | STV","players":null},{"server_id":49,"name":"Uncletopia | Warsaw | 1 | One Thousand Uncles","name_short":"waw-1","host":"waw-1.pl.uncletopia.com","port":27015,"enabled":true,"region":"eu","cc":"pl","latitude":52.2297,"longitude":21.017532,"reserved":0,"last_update":"0001-01-01T00:00:00Z","name_a2s":"Uncletopia | Warsaw | 1 | One Thousand Uncles","protocol":17,"map":"cp_dustbowl","folder":"tf","game":"Team Fortress","app_id":440,"player_count":0,"max_players":32,"Bots":0,"server_type":"Dedicated","server_os":"Linux","password":true,"vac":true,"version":"7961495","steam_id":85568392925397850,"keywords":["alltalk","cp","danepve","increased_maxplayers","norespawntime","uncletopia"],"game_id":440,"stv_port":0,"stv_name":"","players":null},{"server_id":50,"name":"Uncletopia | Warsaw | 2 | One Thousand Uncles","name_short":"waw-2","host":"waw-1.pl.uncletopia.com","port":27025,"enabled":true,"region":"eu","cc":"pl","latitude":52.2297,"longitude":21.017532,"reserved":0,"last_update":"0001-01-01T00:00:00Z","name_a2s":"Uncletopia | Warsaw | 2 | One Thousand Uncles","protocol":17,"map":"pl_upward","folder":"tf","game":"Team Fortress","app_id":440,"player_count":30,"max_players":32,"Bots":20,"server_type":"Dedicated","server_os":"Linux","password":true,"vac":true,"version":"7961495","steam_id":85568392925397851,"keywords":["alltalk","bots","danepve","increased_maxplayers","norespawntime","payload","uncletopia"],"game_id":440,"stv_port":0,"stv_name":"","players":[{"user_id":497,"name":"Kotlet schabowy","steam_id":76561198048983509,"connected_time":659000000000,"state":"active","ping":55},{"user_id":494,"name":"Squidiot","steam_id":76561198042754907,"connected_time":702000000000,"state":"active","ping":83},{"user_id":503,"name":"The one True Mads","steam_id":76561197999204692,"connected_time":283000000000,"state":"active","ping":80},{"user_id":499,"name":"CEO of Autism","steam_id":76561198073687587,"connected_time":633000000000,"state":"active","ping":56},{"user_id":498,"name":"C.E.O. of stab industry","steam_id":76561198242840202,"connected_time":646000000000,"state":"active","ping":78},{"user_id":504,"name":"cof","steam_id":76561199128417805,"connected_time":233000000000,"state":"active","ping":81},{"user_id":501,"name":"Leo","steam_id":76561199487278056,"connected_time":624000000000,"state":"active","ping":79},{"user_id":506,"name":"SWG","steam_id":76561199106685853,"connected_time":128000000000,"state":"active","ping":65},{"user_id":507,"name":"Gandhi36","steam_id":76561198863280994,"connected_time":95000000000,"state":"active","ping":74},{"user_id":508,"name":"AnalBypass1989","steam_id":76561198052356557,"connected_time":55000000000,"state":"active","ping":127}]},{"server_id":51,"name":"Uncletopia | Warsaw | 3 | All Maps","name_short":"waw-3","host":"waw-1.pl.uncletopia.com","port":27035,"enabled":true,"region":"eu","cc":"pl","latitude":52.2297,"longitude":21.017532,"reserved":0,"last_update":"0001-01-01T00:00:00Z","name_a2s":"Uncletopia | Warsaw | 3 | All Maps","protocol":17,"map":"cp_process_final","folder":"tf","game":"Team Fortress","app_id":440,"player_count":0,"max_players":24,"Bots":0,"server_type":"Dedicated","server_os":"Linux","password":true,"vac":true,"version":"7961495","steam_id":85568392925397852,"keywords":["cp","nocrits","nodmgspread","uncletopia"],"game_id":440,"stv_port":27036,"stv_name":"Uncletopia | Warsaw | 3 | All Maps | STV","players":null},{"server_id":52,"name":"Uncletopia | Warsaw | 4 | All Maps","name_short":"waw-4","host":"waw-1.pl.uncletopia.com","port":27045,"enabled":true,"region":"eu","cc":"pl","latitude":52.2297,"longitude":21.017532,"reserved":0,"last_update":"0001-01-01T00:00:00Z","name_a2s":"Uncletopia | Warsaw | 4 | All Maps","protocol":17,"map":"koth_viaduct","folder":"tf","game":"Team Fortress","app_id":440,"player_count":0,"max_players":24,"Bots":0,"server_type":"Dedicated","server_os":"Linux","password":true,"vac":true,"version":"7961495","steam_id":85568392925397853,"keywords":["cp","nocrits","nodmgspread","uncletopia"],"game_id":440,"stv_port":27046,"stv_name":"Uncletopia | Warsaw | 4 | All Maps | STV","players":null},{"server_id":53,"name":"Uncletopia | Warsaw | 5 | Stopwatch","name_short":"waw-5","host":"waw-1.pl.uncletopia.com","port":27055,"enabled":true,"region":"eu","cc":"pl","latitude":52.2297,"longitude":21.017532,"reserved":0,"last_update":"0001-01-01T00:00:00Z","name_a2s":"Uncletopia | Warsaw | 5 | Stopwatch","protocol":17,"map":"workshop/koth_product_final.ugc454272353","folder":"tf","game":"Team Fortress","app_id":440,"player_count":0,"max_players":24,"Bots":0,"server_type":"Dedicated","server_os":"Linux","password":true,"vac":true,"version":"7961495","steam_id":85568392925397854,"keywords":["cp","nocrits","nodmgspread","uncletopia"],"game_id":440,"stv_port":27056,"stv_name":"Uncletopia | Warsaw | 5 | Stopwatch | STV","players":null},{"server_id":54,"name":"Uncletopia | Warsaw | 6 | Community","name_short":"waw-6","host":"waw-1.pl.uncletopia.com","port":27065,"enabled":true,"region":"eu","cc":"pl","latitude":52.2297,"longitude":21.017532,"reserved":0,"last_update":"0001-01-01T00:00:00Z","name_a2s":"Uncletopia | Warsaw | 6 | Community","protocol":17,"map":"workshop/cp_fulgur_rc2a.ugc2068252300","folder":"tf","game":"Team Fortress","app_id":440,"player_count":0,"max_players":24,"Bots":0,"server_type":"Dedicated","server_os":"Linux","password":true,"vac":true,"version":"7961495","steam_id":85568392925397856,"keywords":["cp","nocrits","nodmgspread","uncletopia"],"game_id":440,"stv_port":27066,"stv_name":"Uncletopia | Warsaw | 6 | Community | STV","players":null}]}