{"status":true,"message":"","result":[{"server_id":9,"name":"Uncletopia | Atlanta | 1 | All Maps","name_short":"atl-1","host":"atl-1.us.uncletopia.com","port":27015,"enabled":true,"region":"us-east","cc":"us","latitude":33.753746,"longitude":-84.38633,"reserved":0,"last_update":"0001-01-01T00:00:00Z","name_a2s":"Uncletopia | Atlanta | 1 | All Maps","protocol":17,"map":"pl_snowycoast","folder":"tf","game":"Team Fortress","app_id":440,"player_count":24,"max_players":24,"Bots":0,"server_type":"Dedicated","server_os":"Linux","password":true,"vac":true,"version":"7961495","steam_id":85568392924469982,"keywords":["nocrits","nodmgspread","payload","uncletopia"],"game_id":440,"stv_port":27016,"stv_name":"Uncletopia | Atlanta | 1 | All Maps | STV","players":[{"user_id":563,"name":"freyja","steam_id":76561198249206656,"connected_time":393000000000,"state":"active","ping":88},{"user_id":575,"name":"Albino Jellyfish","steam_id":76561198208561097,"connected_time":295000000000,"state":"active","ping":52},{"user_id":468,"name":"DeezNoodlez","steam_id":76561198246700372,"connected_time":4417000000000,"state":"active","ping":60},{"user_id":479,"name":"BIG HOG","steam_id":76561198079923652,"connected_time":3323000000000,"state":"active","ping":74},{"user_id":576,"name":"iluvtoust","steam_id":76561198869269207,"connected_time":290000000000,"state":"active","ping":68},{"user_id":489,"name":"KingGriffin","steam_id":76561197982413494,"connected_time":2480000000000,"state":"active","ping":74},{"user_id":577,"name":"CHIEF_JUSTICE_FUCKASS","steam_id":76561199261675844,"connected_time":287000000000,"state":"active","ping":105},{"user_id":474,"name":"lemme get a bbl the ocky way","steam_id":76561198115458307,"connected_time":3687000000000,"state":"active","ping":119},{"user_id":480,"name":"cp_stealyourgirl","steam_id":76561198092135570,"connected_time":3316000000000,"state":"active","ping":60},{"user_id":493,"name":"Temina","steam_id":76561198978778718,"connected_time":1829000000000,"state":"active","ping":122},{"user_id":494,"name":"Willly the WHALE","steam_id":76561198927517471,"connected_time":1355000000000,"state":"active","ping":46},{"user_id":444,"name":"rose","steam_id":76561198048882285,"connected_time":9115000000000,"state":"active","ping":68},{"user_id":572,"name":"stink","steam_id":76561198099318923,"connected_time":324000000000,"state":"active","ping":78},{"user_id":574,"name":"PinkLemonade","steam_id":76561198799286228,"connected_time":312000000000,"state":"active","ping":81},{"user_id":457,"name":"Le4n!!!","steam_id":76561198045522596,"connected_time":6881000000000,"state":"active","ping":73},{"user_id":422,"name":"lil hog","steam_id":76561199230929836,"connected_time":11115000000000,"state":"active","ping":100},{"user_id":569,"name":"Erchius (she/her)","steam_id":76561198256892300,"connected_time":327000000000,"state":"active","ping":49},{"user_id":495,"name":"Tay1Qr","steam_id":76561198082809935,"connected_time":1283000000000,"state":"active","ping":62},{"user_id":578,"name":"eat salad","steam_id":76561198960183175,"connected_time":271000000000,"state":"active","ping":100},{"user_id":465,"name":"DuckMann","steam_id":76561198197058638,"connected_time":4431000000000,"state":"active","ping":47},{"user_id":455,"name":"frog from pond AT","steam_id":76561198184900753,"connected_time":7533000000000,"state":"active","ping":74},{"user_id":490,"name":"VidzCMC","steam_id":76561198848142973,"connected_time":2460000000000,"state":"active","ping":80},{"user_id":483,"name":"otwtomarsoffdabars(spacecore)","steam_id":76561199085974120,"connected_time":3223000000000,"state":"active","ping":66},{"user_id":473,"name":"substance","steam_id":76561198050103868,"connected_time":3968000000000,"state":"active","ping":98}]},{"server_id":104,"name":"Uncletopia | Atlanta | 2 | All Maps","name_short":"atl-2","host":"atl-1.us.uncletopia.com","port":27025,"enabled":true,"region":"us-east","cc":"us","latitude":33.753746,"longitude":-84.38633,"reserved":0,"last_update":"0001-01-01T00:00:00Z","name_a2s":"Uncletopia | Atlanta | 2 | All Maps","protocol":17,"map":"koth_lakeside_final","folder":"tf","game":"Team Fortress","app_id":440,"player_count":0,"max_players":24,"Bots":0,"server_type":"Dedicated","server_os":"Linux","password":true,"vac":true,"version":"7961495","steam_id":85568392924469983,"keywords":["cp","nocrits","nodmgspread","uncletopia"],"game_id":440,"stv_port":27026,"stv_name":"Uncletopia | Atlanta | 2 | All Maps | STV","players":null},{"server_id":400,"name":"Uncletopia | Atlanta | 3 | Stopwatch","name_short":"atl-3","host":"atl-1.us.uncletopia.com","port":27035,"enabled":true,"region":"us-east","cc":"us","latitude":33.753746,"longitude":-84.38633,"reserved":0,"last_update":"0001-01-01T00:00:00Z","name_a2s":"Uncletopia | Atlanta | 3 | Stopwatch","protocol":17,"map":"koth_highpass","folder":"tf","game":"Team Fortress","app_id":440,"player_count":0,"max_players":24,"Bots":0,"server_type":"Dedicated","server_os":"Linux","password":true,"vac":true,"version":"7961495","steam_id":85568392924515187,"keywords":["cp","nocrits","nodmgspread","uncletopia"],"game_id":440,"stv_port":27036,"stv_name":"Uncletopia | Atlanta | 3 | Stopwatch | STV","players":null},{"server_id":401,"name":"Uncletopia | Atlanta | 4 | Community","name_short":"atl-4","host":"atl-1.us.uncletopia.com","port":27045,"enabled":true,"region":"us-east","cc":"us","latitude":33.753746,"longitude":-84.38633,"reserved":0,"last_update":"0001-01-01T00:00:00Z","name_a2s":"Uncletopia | Atlanta | 4 | Community","protocol":17,"map":"workshop/cp_glassworks_rc7a.ugc454118349","folder":"tf","game":"Team Fortress","app_id":440,"player_count":0,"max_players":24,"Bots":0,"server_type":"Dedicated","server_os":"Linux","password":true,"vac":true,"version":"7961495","steam_id":85568392924515188,"keywords":["cp","nocrits","nodmgspread","uncletopia"],"game_id":440,"stv_port":27046,"stv_name":"Uncletopia | Atlanta | 4 | Community | STV","players":null},{"server_id":2,"name":"Uncletopia | Chicago | 1 | All Maps","name_short":"chi-1","host":"chi-1.us.uncletopia.com","port":27015,"enabled":true,"region":"us-central","cc":"us","latitude":41.881832,"longitude":-87.62318,"reserved":0,"last_update":"0001-01-01T00:00:00Z","name_a2s":"Uncletopia | Chicago | 1 | All Maps","protocol":17,"map":"pl_pier","folder":"tf","game":"Team Fortress","app_id":440,"player_count":20,"max_players":24,"Bots":0,"server_type":"Dedicated","server_os":"Linux","password":true,"vac":true,"version":"7961495","steam_id":85568392924469984,"keywords":["nocrits","nodmgspread","payload","uncletopia"],"game_id":440,"stv_port":27016,"stv_name":"Uncletopia | Chicago | 1 | All Maps | STV","players":[{"user_id":983,"name":"Forgy!!! :D üÉè","steam_id":76561198079405234,"connected_time":74000000000,"state":"active","ping":45},{"user_id":976,"name":"*chu*","steam_id":76561198116115189,"connected_time":369000000000,"state":"active","ping":75},{"user_id":960,"name":"dunky donut","steam_id":76561198070574618,"connected_time":936000000000,"state":"active","ping":80},{"user_id":979,"name":"vulcan nightclub pon farr night","steam_id":76561197974283797,"connected_time":235000000000,"state":"active","ping":44},{"user_id":935,"name":"Boofenshmirtz","steam_id":76561198071649858,"connected_time":3088000000000,"state":"active","ping":47},{"user_id":985,"name":"Scotty","steam_id":76561198268006443,"connected_time":15000000000,"state":"spawning","ping":84},{"user_id":955,"name":"SN0W","steam_id":76561198153665468,"connected_time":1673000000000,"state":"active","ping":42},{"user_id":984,"name":"Vittripps","steam_id":76561198346614672,"connected_time":34000000000,"state":"active","ping":94},{"user_id":962,"name":"ERR://23¬§Y/","steam_id":76561197991015780,"connected_time":856000000000,"state":"active","ping":73},{"user_id":973,"name":"Gorilla","steam_id":76561198140261408,"connected_time":558000000000,"state":"active","ping":46},{"user_id":964,"name":"lcy13vv","steam_id":76561197995997446,"connected_time":801000000000,"state":"active","ping":57},{"user_id":965,"name":"jb","steam_id":76561198038607085,"connected_time":787000000000,"state":"active","ping":66},{"user_id":956,"name":"Waffle","steam_id":76561199000034608,"connected_time":1670000000000,"state":"active","ping":48},{"user_id":871,"name":"guy","steam_id":76561198138186442,"connected_time":5741000000000,"state":"active","ping":90},{"user_id":986,"name":"Daksuki","steam_id":76561198084127751,"connected_time":11000000000,"state":"spawning","ping":79},{"user_id":939,"name":"beep","steam_id":76561199096448766,"connected_time":3000000000000,"state":"active","ping":56},{"user_id":950,"name":"Bullahorns","steam_id":76561197997138052,"connected_time":2245000000000,"state":"active","ping":55},{"user_id":941,"name":"Dwanor","steam_id":76561198039571887,"connected_time":2979000000000,"state":"active","ping":75},{"user_id":931,"name":"pathways","steam_id":76561198054832333,"connected_time":3495000000000,"state":"active","ping":35},{"user_id":918,"name":"DevoutPage14990","steam_id":76561198831347354,"connected_time":4038000000000,"state":"active","ping":62}]},{"server_id":106,"name":"Uncletopia | Chicago | 2 | All Maps","name_short":"chi-2","host":"chi-1.us.uncletopia.com","port":27025,"enabled":true,"region":"us-central","cc":"us","latitude":41.881832,"longitude":-87.62318,"reserved":0,"last_update":"0001-01-01T00:00:00Z","name_a2s":"Uncletopia | Chicago | 2 | All Maps","protocol":17,"map":"koth_viaduct","folder":"tf","game":"Team Fortress","app_id":440,"player_count":0,"max_players":24,"Bots":0,"server_type":"Dedicated","server_os":"Linux","password":true,"vac":true,"version":"7961495","steam_id":85568392924469985,"keywords":["cp","nocrits","nodmgspread","uncletopia"],"game_id":440,"stv_port":27026,"stv_name":"Uncletopia | Chicago | 2 | All Maps | STV","players":null},{"server_id":402,"name":"Uncletopia | Chicago | 3 | All Maps","name_short":"chi-3","host":"chi-1.us.uncletopia.com","port":27035,"enabled":true,"region":"us-central","cc":"us","latitude":41.881832,"longitude":-87.62318,"reserved":0,"last_update":"0001-01-01T00:00:00Z","name_a2s":"Uncletopia | Chicago | 3 | All Maps","protocol":17,"map":"cp_snakewater_final1","folder":"tf","game":"Team Fortress","app_id":440,"player_count":24,"max_players":24,"Bots":0,"server_type":"Dedicated","server_os":"Linux","password":true,"vac":true,"version":"7961495","steam_id":85568392924515191,"keywords":["cp","nocrits","nodmgspread","uncletopia"],"game_id":440,"stv_port":27036,"stv_name":"Uncletopia | Chicago | 3 | All Maps | STV","players":[{"user_id":315,"name":"Zeelidox","steam_id":76561198110613375,"connected_time":3752000000000,"state":"active","ping":62},{"user_id":362,"name":"brotalium","steam_id":76561198055439054,"connected_time":326000000000,"state":"active","ping":62},{"user_id":364,"name":"james_bondage","steam_id":76561199476062624,"connected_time":309000000000,"state":"active","ping":60},{"user_id":363,"name":"living in mushroom park","steam_id":76561198097588802,"connected_time":311000000000,"state":"active","ping":45},{"user_id":351,"name":"Windup Monkey in a Human Suit","steam_id":76561198119501444,"connected_time":993000000000,"state":"active","ping":105},{"user_id":350,"name":"CupFruit","steam_id":76561198983993193,"connected_time":1005000000000,"state":"active","ping":61},{"user_id":368,"name":"BRONY POWER","steam_id":76561198075510786,"connected_time":265000000000,"state":"active","ping":64},{"user_id":369,"name":"BrownMemeSter","steam_id":76561198113745020,"connected_time":234000000000,"state":"active","ping":59},{"user_id":370,"name":"Gugomo","steam_id":76561198121428316,"connected_time":226000000000,"state":"active","ping":91},{"user_id":311,"name":"him/her","steam_id":76561198122238340,"connected_time":4247000000000,"state":"active","ping":76},{"user_id":366,"name":"Fortuys77","steam_id":76561198007313473,"connected_time":295000000000,"state":"active","ping":122},{"user_id":339,"name":"drats!!!","steam_id":76561198072179483,"connected_time":1710000000000,"state":"active","ping":91},{"user_id":367,"name":"Mix56374","steam_id":76561199093717909,"connected_time":290000000000,"state":"active","ping":105},{"user_id":354,"name":"Zoramine Fae","steam_id":76561198346753422,"connected_time":971000000000,"state":"active","ping":43},{"user_id":371,"name":"Man On Night Mode","steam_id":76561198012469076,"connected_time":217000000000,"state":"active","ping":65},{"user_id":373,"name":"Pizza Party","steam_id":76561198165730754,"connected_time":49000000000,"state":"active","ping":71},{"user_id":372,"name":"WhatisKetchup","steam_id":76561199211104298,"connected_time":217000000000,"state":"active","ping":76},{"user_id":343,"name":"kratomSnorter.1quarter","steam_id":76561198946987511,"connected_time":1606000000000,"state":"active","ping":87},{"user_id":326,"name":"Rukks","steam_id":76561197993918954,"connected_time":3252000000000,"state":"active","ping":104},{"user_id":355,"name":"Renegade","steam_id":76561198066847055,"connected_time":952000000000,"state":"active","ping":54},{"user_id":374,"name":"(vc off) Niterux","steam_id":76561198101291574,"connected_time":44000000000,"state":"active","ping":72},{"user_id":357,"name":"Vind Gnyr","steam_id":76561198042641211,"connected_time":949000000000,"state":"active","ping":72},{"user_id":316,"name":"Kel","steam_id":76561198046283896,"connected_time":3706000000000,"state":"active","ping":75},{"user_id":361,"name":"Thot Tactician","steam_id":76561198049653122,"connected_time":489000000000,"state":"active","ping":77}]},{"server_id":403,"name":"Uncletopia | Chicago | 4 | All Maps","name_short":"chi-4","host":"chi-1.us.uncletopia.com","port":27045,"enabled":true,"region":"us-central","cc":"us","latitude":41.881832,"longitude":-87.62318,"reserved":0,"last_update":"0001-01-01T00:00:00Z","name_a2s":"Uncletopia | Chicago | 4 | All Maps","protocol":17,"map":"cp_sunshine","folder":"tf","game":"Team Fortress","app_id":440,"player_count":0,"max_players":24,"Bots":0,"server_type":"Dedicated","server_os":"Linux","password":true,"vac":true,"version":"7961495","steam_id":85568392924515193,"keywords":["cp","nocrits","nodmgspread","uncletopia"],"game_id":440,"stv_port":27046,"stv_name":"Uncletopia | Chicago | 4 | All Maps | STV","players":null},{"server_id":36,"name":"Uncletopia | Chicago | 5 | All Maps","name_short":"chi-5","host":"chi-2.us.uncletopia.com","port":27015,"enabled":true,"region":"us-central","cc":"us","latitude":41.881832,"longitude":-87.62318,"reserved":0,"last_update":"0001-01-01T00:00:00Z","name_a2s":"Uncletopia | Chicago | 5 | All Maps","protocol":17,"map":"pl_snowycoast","folder":"tf","game":"Team Fortress","app_id":440,"player_count":22,"max_players":24,"Bots":0,"server_type":"Dedicated","server_os":"Linux","password":true,"vac":true,"version":"7961495","steam_id":85568392924866362,"keywords":["nocrits","nodmgspread","payload","uncletopia"],"game_id":440,"stv_port":27016,"stv_name":"Uncletopia | Chicago | 5 | All Maps | STV","players":[{"user_id":498,"name":"Ssmerff","steam_id":76561198130365619,"connected_time":3084000000000,"state":"active","ping":60},{"user_id":542,"name":"friends forever","steam_id":76561198282764599,"connected_time":453000000000,"state":"active","ping":52},{"user_id":535,"name":"KATSURB","steam_id":76561199172118456,"connected_time":823000000000,"state":"active","ping":66},{"user_id":547,"name":"Jw. www.vaticancatholic.com","steam_id":76561198190170075,"connected_time":25000000000,"state":"spawning","ping":69},{"user_id":537,"name":"Big Chungus Gaming","steam_id":76561198068794194,"connected_time":745000000000,"state":"active","ping":58},{"user_id":499,"name":"chiswola","steam_id":76561198046920142,"connected_time":2961000000000,"state":"active","ping":60},{"user_id":529,"name":"Thunder","steam_id":76561198097721532,"connected_time":1812000000000,"state":"active","ping":105},{"user_id":534,"name":"Arg Noit","steam_id":76561198356729767,"connected_time":918000000000,"state":"active","ping":76},{"user_id":544,"name":"LoyalFGC","steam_id":76561198364004871,"connected_time":200000000000,"state":"active","ping":74},{"user_id":502,"name":"3rooks","steam_id":76561199079002400,"connected_time":2850000000000,"state":"active","ping":60},{"user_id":438,"name":"No, this is Patrick","steam_id":76561198058776774,"connected_time":7427000000000,"state":"active","ping":53},{"user_id":523,"name":"Q47","steam_id":76561198087128341,"connected_time":2211000000000,"state":"active","ping":135},{"user_id":506,"name":"Fiebs","steam_id":76561198073881842,"connected_time":2737000000000,"state":"active","ping":75},{"user_id":508,"name":"SCROWEN","steam_id":76561198150382695,"connected_time":2698000000000,"state":"active","ping":75},{"user_id":509,"name":"aidonz","steam_id":76561198066395960,"connected_time":2696000000000,"state":"active","ping":60},{"user_id":510,"name":"young \u0026 happy","steam_id":76561198017002344,"connected_time":2696000000000,"state":"active","ping":58},{"user_id":546,"name":"M-Looskinator","steam_id":76561198135649941,"connected_time":164000000000,"state":"active","ping":115},{"user_id":531,"name":"Jeremiah Finch","steam_id":76561198046899113,"connected_time":1635000000000,"state":"active","ping":63},{"user_id":478,"name":"Gremsheker","steam_id":76561198068025153,"connected_time":5447000000000,"state":"active","ping":69},{"user_id":539,"name":"outplayed","steam_id":76561198260527412,"connected_time":725000000000,"state":"active","ping":84},{"user_id":528,"name":"bansheerubber","steam_id":76561198042009362,"connected_time":1832000000000,"state":"active","ping":101},{"user_id":526,"name":"xFactr","steam_id":76561198129007422,"connected_time":1874000000000,"state":"active","ping":64}]},{"server_id":37,"name":"Uncletopia | Chicago | 6 | All Maps","name_short":"chi-6","host":"chi-2.us.uncletopia.com","port":27025,"enabled":true,"region":"us-central","cc":"us","latitude":41.881832,"longitude":-87.62318,"reserved":0,"last_update":"0001-01-01T00:00:00Z","name_a2s":"Uncletopia | Chicago | 6 | All Maps","protocol":17,"map":"cp_sunshine","folder":"tf","game":"Team Fortress","app_id":440,"player_count":23,"max_players":24,"Bots":0,"server_type":"Dedicated","server_os":"Linux","password":true,"vac":true,"version":"7961495","steam_id":85568392924866363,"keywords":["cp","nocrits","nodmgspread","uncletopia"],"game_id":440,"stv_port":27026,"stv_name":"Uncletopia | Chicago | 6 | All Maps | STV","players":[{"user_id":497,"name":"thecal","steam_id":76561198307893384,"connected_time":272000000000,"state":"active","ping":53},{"user_id":496,"name":"VeloCity","steam_id":76561198148688626,"connected_time":346000000000,"state":"active","ping":56},{"user_id":491,"name":"hoos","steam_id":76561198045985910,"connected_time":505000000000,"state":"active","ping":63},{"user_id":475,"name":"We Make It Look Easy‚Ñ¢","steam_id":76561198024442760,"connected_time":1204000000000,"state":"active","ping":55},{"user_id":487,"name":"Zeek","steam_id":76561197987204351,"connected_time":737000000000,"state":"active","ping":59},{"user_id":469,"name":"sithreis","steam_id":76561198000564263,"connected_time":1310000000000,"state":"active","ping":72},{"user_id":450,"name":"lanoc","steam_id":76561198055415367,"connected_time":2951000000000,"state":"active","ping":60},{"user_id":468,"name":"AlecTheNefarious","steam_id":76561198035291230,"connected_time":1345000000000,"state":"active","ping":60},{"user_id":451,"name":"King","steam_id":76561198010019214,"connected_time":2951000000000,"state":"active","ping":63},{"user_id":470,"name":"Vava","steam_id":76561199061877557,"connected_time":1275000000000,"state":"active","ping":74},{"user_id":486,"name":"viedoamges","steam_id":76561198025295263,"connected_time":750000000000,"state":"active","ping":77},{"user_id":493,"name":"TOBY!!!","steam_id":76561199380822531,"connected_time":486000000000,"state":"active","ping":45},{"user_id":499,"name":"madmuffin","steam_id":76561199235773615,"connected_time":96000000000,"state":"active","ping":117},{"user_id":489,"name":"wooper","steam_id":76561198953870572,"connected_time":726000000000,"state":"active","ping":60},{"user_id":500,"name":"illa D","steam_id":76561198041468375,"connected_time":77000000000,"state":"active","ping":75},{"user_id":473,"name":"Shrebbie","steam_id":76561198875230824,"connected_time":1241000000000,"state":"active","ping":57},{"user_id":474,"name":"bladees realest, saddest verse","steam_id":76561198098099826,"connected_time":1207000000000,"state":"active","ping":95},{"user_id":501,"name":"xxxsinpadres","steam_id":76561198366873419,"connected_time":71000000000,"state":"active","ping":56},{"user_id":494,"name":"29palms","steam_id":76561198095104925,"connected_time":416000000000,"state":"active","ping":105},{"user_id":463,"name":"Delta","steam_id":76561198158985472,"connected_time":2238000000000,"state":"active","ping":121},{"user_id":495,"name":"Angrod","steam_id":76561198007447333,"connected_time":389000000000,"state":"active","ping":120},{"user_id":482,"name":"the grunch","steam_id":76561199013160273,"connected_time":1063000000000,"state":"active","ping":71},{"user_id":478,"name":"potato_games","steam_id":76561199120708182,"connected_time":1161000000000,"state":"active","ping":119}]},{"server_id":38,"name":"Uncletopia | Chicago | 7 | Stopwatch","name_short":"chi-7","host":"chi-2.us.uncletopia.com","port":27035,"enabled":true,"region":"us-central","cc":"us","latitude":41.881832,"longitude":-87.62318,"reserved":0,"last_update":"0001-01-01T00:00:00Z","name_a2s":"Uncletopia | Chicago | 7 | Stopwatch","protocol":17,"map":"workshop/koth_clearcut_b15.ugc2107050255","folder":"tf","game":"Team Fortress","app_id":440,"player_count":0,"max_players":24,"Bots":0,"server_type":"Dedicated","server_os":"Linux","password":true,"vac":true,"version":"7961495","steam_id":85568392924866364,"keywords":["cp","nocrits","nodmgspread","uncletopia"],"game_id":440,"stv_port":27036,"stv_name":"Uncletopia | Chicago | 7 | Stopwatch | STV","players":null},{"server_id":39,"name":"Uncletopia | Chicago | 8 | Community","name_short":"chi-8","host":"chi-2.us.uncletopia.com","port":27045,"enabled":true,"region":"us-central","cc":"us","latitude":41.881832,"longitude":-87.62318,"reserved":0,"last_update":"0001-01-01T00:00:00Z","name_a2s":"Uncletopia | Chicago | 8 | Community","protocol":17,"map":"workshop/koth_slaughter_rc1.ugc1712845210","folder":"tf","game":"Team Fortress","app_id":440,"player_count":0,"max_players":24,"Bots":0,"server_type":"Dedicated","server_os":"Linux","password":true,"vac":true,"version":"7961495","steam_id":85568392924866365,"keywords":["cp","nocrits","nodmgspread","uncletopia"],"game_id":440,"stv_port":27046,"stv_name":"Uncletopia | Chicago | 8 | Community | STV","players":null},{"server_id":8,"name":"Uncletopia | Dallas | 1 | All Maps","name_short":"dal-1","host":"dal-1.us.uncletopia.com","port":27015,"enabled":true,"region":"us-central","cc":"us","latitude":32.779167,"longitude":-96.80889,"reserved":0,"last_update":"0001-01-01T00:00:00Z","name_a2s":"Uncletopia | Dallas | 1 | All Maps","protocol":17,"map":"koth_cascade","folder":"tf","game":"Team Fortress","app_id":440,"player_count":20,"max_players":24,"Bots":0,"server_type":"Dedicated","server_os":"Linux","password":true,"vac":true,"version":"7961495","steam_id":85568392924469986,"keywords":["cp","nocrits","nodmgspread","uncletopia"],"game_id":440,"stv_port":27016,"stv_name":"Uncletopia | Dallas | 1 | All Maps | STV","players":[{"user_id":943,"name":"Chicago Shoplifter","steam_id":76561197986530028,"connected_time":493000000000,"state":"active","ping":78},{"user_id":938,"name":"Microsoft Word","steam_id":76561198797633439,"connected_time":831000000000,"state":"active","ping":91},{"user_id":932,"name":"HEE HOO DUSTBOWL!","steam_id":76561199389985063,"connected_time":2063000000000,"state":"active","ping":106},{"user_id":941,"name":"skegeton","steam_id":76561198095581099,"connected_time":602000000000,"state":"active","ping":55},{"user_id":936,"name":"Car Insurance","steam_id":76561198379549507,"connected_time":925000000000,"state":"active","ping":112},{"user_id":950,"name":"Burny Sanders","steam_id":76561197961879048,"connected_time":101000000000,"state":"active","ping":45},{"user_id":944,"name":"milk then cereal","steam_id":76561198047168548,"connected_time":465000000000,"state":"active","ping":73},{"user_id":945,"name":"paypur -rng","steam_id":76561198214370515,"connected_time":408000000000,"state":"active","ping":95},{"user_id":949,"name":"in","steam_id":76561197995469460,"connected_time":326000000000,"state":"active","ping":60},{"user_id":934,"name":"ZILICON","steam_id":76561199044705592,"connected_time":1063000000000,"state":"active","ping":98},{"user_id":942,"name":"Hunter","steam_id":76561198071823667,"connected_time":549000000000,"state":"active","ping":76},{"user_id":928,"name":"Hatter","steam_id":76561198010341986,"connected_time":2333000000000,"state":"active","ping":75},{"user_id":896,"name":"Gl√ºhbirne","steam_id":76561198189278869,"connected_time":4982000000000,"state":"active","ping":63},{"user_id":908,"name":"bad spy player","steam_id":76561198873699671,"connected_time":3740000000000,"state":"active","ping":97},{"user_id":819,"name":"Transgender Guy Fieri","steam_id":76561198801467075,"connected_time":7248000000000,"state":"active","ping":46},{"user_id":922,"name":"Michaelpc1","steam_id":76561198088365519,"connected_time":2622000000000,"state":"active","ping":90},{"user_id":812,"name":"Shipmunk","steam_id":76561198063062670,"connected_time":7603000000000,"state":"active","ping":74},{"user_id":930,"name":"FinalFlash9000","steam_id":76561199092775051,"connected_time":2185000000000,"state":"active","ping":90},{"user_id":923,"name":"Alfonso Molestro","steam_id":76561197998677099,"connected_time":2618000000000,"state":"active","ping":114},{"user_id":925,"name":"honked off the bobo","steam_id":76561198123287268,"connected_time":2387000000000,"state":"active","ping":75}]},{"server_id":108,"name":"Uncletopia | Dallas | 2 | All Maps","name_short":"dal-2","host":"dal-1.us.uncletopia.com","port":27025,"enabled":true,"region":"us-central","cc":"us","latitude":32.779167,"longitude":-96.80889,"reserved":0,"last_update":"0001-01-01T00:00:00Z","name_a2s":"Uncletopia | Dallas | 2 | All Maps","protocol":17,"map":"cp_dustbowl","folder":"tf","game":"Team Fortress","app_id":440,"player_count":24,"max_players":24,"Bots":0,"server_type":"Dedicated","server_os":"Linux","password":true,"vac":true,"version":"7961495","steam_id":85568392924469988,"keywords":["cp","nocrits","nodmgspread","uncletopia"],"game_id":440,"stv_port":27026,"stv_name":"Uncletopia | Dallas | 2 | All Maps | STV","players":[{"user_id":669,"name":"gretchling","steam_id":76561198046111695,"connected_time":668000000000,"state":"active","ping":48},{"user_id":672,"name":"Satan-2","steam_id":76561199231742764,"connected_time":254000000000,"state":"active","ping":90},{"user_id":615,"name":"Zomb3Red","steam_id":76561198075677894,"connected_time":3178000000000,"state":"active","ping":64},{"user_id":632,"name":"snek  \"Ozehk\" –îpy–≥","steam_id":76561198086681225,"connected_time":2630000000000,"state":"active","ping":46},{"user_id":668,"name":"L-","steam_id":76561198046074220,"connected_time":853000000000,"state":"active","ping":76},{"user_id":670,"name":"Big Chad","steam_id":76561198015304658,"connected_time":283000000000,"state":"active","ping":65},{"user_id":666,"name":"ketamine gaming","steam_id":76561198051250642,"connected_time":921000000000,"state":"active","ping":104},{"user_id":673,"name":"Flerps","steam_id":76561197979279110,"connected_time":60000000000,"state":"active","ping":64},{"user_id":662,"name":"Pie‚Ñ¢","steam_id":76561198158312625,"connected_time":1098000000000,"state":"active","ping":105},{"user_id":659,"name":"porz","steam_id":76561198195711453,"connected_time":1257000000000,"state":"active","ping":45},{"user_id":663,"name":"MasterGeek.MX","steam_id":76561198063355220,"connected_time":1094000000000,"state":"active","ping":85},{"user_id":661,"name":"Jebbe","steam_id":76561198240835684,"connected_time":1237000000000,"state":"active","ping":61},{"user_id":631,"name":"FleurDeLys","steam_id":76561198060364393,"connected_time":2709000000000,"state":"active","ping":60},{"user_id":609,"name":"penzfan","steam_id":76561198230422640,"connected_time":3639000000000,"state":"active","ping":75},{"user_id":653,"name":"Queuetimeevent","steam_id":76561198079438423,"connected_time":1961000000000,"state":"active","ping":59},{"user_id":634,"name":"SgT_Spam","steam_id":76561198275753768,"connected_time":2591000000000,"state":"active","ping":59},{"user_id":667,"name":"LikeASir","steam_id":76561198042209721,"connected_time":918000000000,"state":"active","ping":79},{"user_id":638,"name":"nick","steam_id":76561198041362771,"connected_time":2428000000000,"state":"active","ping":81},{"user_id":644,"name":"Madgabadaba","steam_id":76561198041435754,"connected_time":2243000000000,"state":"active","ping":69},{"user_id":640,"name":"Dumbbell Door","steam_id":76561198058255051,"connected_time":2400000000000,"state":"active","ping":67},{"user_id":671,"name":"Wild Meep","steam_id":76561198199271438,"connected_time":276000000000,"state":"active","ping":100},{"user_id":655,"name":"Ghostmeal","steam_id":76561198042380299,"connected_time":1783000000000,"state":"active","ping":44},{"user_id":664,"name":"trainmarine -bt","steam_id":76561198341784551,"connected_time":1085000000000,"state":"active","ping":61},{"user_id":651,"name":"Gavil√°n","steam_id":76561198285212453,"connected_time":2055000000000,"state":"active","ping":60}]},{"server_id":404,"name":"Uncletopia | Dallas | 3 | All Maps","name_short":"dal-3","host":"dal-1.us.uncletopia.com","port":27035,"enabled":true,"region":"us-central","cc":"us","latitude":32.779167,"longitude":-96.80889,"reserved":0,"last_update":"0001-01-01T00:00:00Z","name_a2s":"Uncletopia | Dallas | 3 | All Maps","protocol":17,"map":"cp_dustbowl","folder":"tf","game":"Team Fortress","app_id":440,"player_count":23,"max_players":24,"Bots":0,"server_type":"Dedicated","server_os":"Linux","password":true,"vac":true,"version":"7961495","steam_id":85568392924515219,"keywords":["cp","nocrits","nodmgspread","uncletopia"],"game_id":440,"stv_port":27036,"stv_name":"Uncletopia | Dallas | 3 | All Maps | STV","players":[{"user_id":369,"name":"Grim","steam_id":76561198158911860,"connected_time":302000000000,"state":"active","ping":98},{"user_id":370,"name":"standing here,","steam_id":76561198066315453,"connected_time":282000000000,"state":"active","ping":77},{"user_id":371,"name":"Sallah Goodmuslim","steam_id":76561198209153291,"connected_time":191000000000,"state":"active","ping":67},{"user_id":349,"name":"Satori Komeiji","steam_id":76561198158211423,"connected_time":3302000000000,"state":"active","ping":71},{"user_id":382,"name":"hotdog","steam_id":76561198052576687,"connected_time":21000000000,"state":"active","ping":84},{"user_id":350,"name":"ZaffreIndigo","steam_id":76561198046724290,"connected_time":2949000000000,"state":"active","ping":88},{"user_id":366,"name":"DesolateCabbage","steam_id":76561198064467423,"connected_time":367000000000,"state":"active","ping":47},{"user_id":373,"name":"Snapdragon the Snapdragon","steam_id":76561198832442139,"connected_time":181000000000,"state":"active","ping":63},{"user_id":353,"name":"Gay Loogi Gang","steam_id":76561198097031529,"connected_time":2286000000000,"state":"active","ping":68},{"user_id":376,"name":"Jibanyanlnewells69","steam_id":76561198337420431,"connected_time":103000000000,"state":"active","ping":74},{"user_id":375,"name":"Yume","steam_id":76561198018060136,"connected_time":146000000000,"state":"active","ping":83},{"user_id":365,"name":"Lezabel","steam_id":76561198970753261,"connected_time":382000000000,"state":"active","ping":82},{"user_id":367,"name":"Yosh","steam_id":76561198027078899,"connected_time":358000000000,"state":"active","ping":74},{"user_id":377,"name":"CheeZeyRat","steam_id":76561199473394284,"connected_time":73000000000,"state":"connecting","ping":0},{"user_id":378,"name":"wenk","steam_id":76561198103361095,"connected_time":52000000000,"state":"active","ping":179},{"user_id":380,"name":"backshot overlord","steam_id":76561198984612489,"connected_time":36000000000,"state":"active","ping":90},{"user_id":356,"name":"Unlicensed Fed","steam_id":76561198166040449,"connected_time":1831000000000,"state":"active","ping":71},{"user_id":221,"name":"runescape legend","steam_id":76561198077791373,"connected_time":15300000000000,"state":"active","ping":75},{"user_id":368,"name":"[DFC] j_yuuki","steam_id":76561198864314450,"connected_time":356000000000,"state":"active","ping":86},{"user_id":344,"name":"-Sp√Æd√™r-","steam_id":76561198064531248,"connected_time":3653000000000,"state":"active","ping":71},{"user_id":355,"name":"Pinetree w/ apples.","steam_id":76561198105411709,"connected_time":1905000000000,"state":"active","ping":103},{"user_id":381,"name":"mild","steam_id":76561198082470182,"connected_time":25000000000,"state":"active","ping":96},{"user_id":351,"name":"Bullwinkle J. Moose","steam_id":76561198075977196,"connected_time":2458000000000,"state":"active","ping":61}]},{"server_id":405,"name":"Uncletopia | Dallas | 4 | Community","name_short":"dal-4","host":"dal-1.us.uncletopia.com","port":27045,"enabled":true,"region":"us-central","cc":"us","latitude":32.779167,"longitude":-96.80889,"reserved":0,"last_update":"0001-01-01T00:00:00Z","name_a2s":"Uncletopia | Dallas | 4 | Community","protocol":17,"map":"workshop/cp_reckoner_rc6.ugc674719999","folder":"tf","game":"Team Fortress","app_id":440,"player_count":0,"max_players":24,"Bots":0,"server_type":"Dedicated","server_os":"Linux","password":true,"vac":true,"version":"7961495","steam_id":85568392924515220,"keywords":["cp","nocrits","nodmgspread","uncletopia"],"game_id":440,"stv_port":27046,"stv_name":"Uncletopia | Dallas | 4 | Community | STV","players":null},{"server_id":5,"name":"Uncletopia | Frankfurt | 1 | All Maps","name_short":"frk-1","host":"frk-1.de.uncletopia.com","port":27015,"enabled":true,"region":"eu","cc":"de","latitude":50.110924,"longitude":8.682127,"reserved":0,"last_update":"0001-01-01T00:00:00Z","name_a2s":"Uncletopia | Frankfurt | 1 | All Maps","protocol":17,"map":"cp_badlands","folder":"tf","game":"Team Fortress","app_id":440,"player_count":0,"max_players":24,"Bots":0,"server_type":"Dedicated","server_os":"Linux","password":true,"vac":true,"version":"7961495","steam_id":85568392924469989,"keywords":["cp","nocrits","nodmgspread","uncletopia"],"game_id":440,"stv_port":27016,"stv_name":"Uncletopia | Frankfurt | 1 | All Maps | STV","players":null},{"server_id":110,"name":"Uncletopia | Frankfurt | 2 | All Maps","name_short":"frk-2","host":"frk-1.de.uncletopia.com","port":27025,"enabled":true,"region":"eu","cc":"de","latitude":50.110924,"longitude":8.682127,"reserved":0,"last_update":"0001-01-01T00:00:00Z","name_a2s":"Uncletopia | Frankfurt | 2 | All Maps","protocol":17,"map":"plr_hightower","folder":"tf","game":"Team Fortress","app_id":440,"player_count":0,"max_players":24,"Bots":0,"server_type":"Dedicated","server_os":"Linux","password":true,"vac":true,"version":"7961495","steam_id":85568392924469990,"keywords":["nocrits","nodmgspread","payload","uncletopia"],"game_id":440,"stv_port":27026,"stv_name":"Uncletopia | Frankfurt | 2 | All Maps | STV","players":null},{"server_id":308,"name":"Uncletopia | Frankfurt | 3 | All Maps","name_short":"frk-3","host":"frk-1.de.uncletopia.com","port":27035,"enabled":true,"region":"eu","cc":"de","latitude":50.110924,"longitude":8.682127,"reserved":0,"last_update":"0001-01-01T00:00:00Z","name_a2s":"Uncletopia | Frankfurt | 3 | All Maps","protocol":17,"map":"cp_metalworks","folder":"tf","game":"Team Fortress","app_id":440,"player_count":0,"max_players":24,"Bots":0,"server_type":"Dedicated","server_os":"Linux","password":true,"vac":true,"version":"7961495","steam_id":85568392924504274,"keywords":["cp","nocrits","nodmgspread","uncletopia"],"game_id":440,"stv_port":27036,"stv_name":"Uncletopia | Frankfurt | 3 | All Maps | STV","players":null},{"server_id":309,"name":"Uncletopia | Frankfurt | 4 | All Maps","name_short":"frk-4","host":"frk-1.de.uncletopia.com","port":27045,"enabled":true,"region":"eu","cc":"de","latitude":50.110924,"longitude":8.682127,"reserved":0,"last_update":"0001-01-01T00:00:00Z","name_a2s":"Uncletopia | Frankfurt | 4 | All Maps","protocol":17,"map":"cp_gorge","folder":"tf","game":"Team Fortress","app_id":440,"player_count":0,"max_players":24,"Bots":0,"server_type":"Dedicated","server_os":"Linux","password":true,"vac":true,"version":"7961495","steam_id":85568392924504275,"keywords":["cp","nocrits","nodmgspread","uncletopia"],"game_id":440,"stv_port":27046,"stv_name":"Uncletopia | Frankfurt | 4 | All Maps | STV","players":null},{"server_id":310,"name":"Uncletopia | Frankfurt | 5 | All Maps","name_short":"frk-5","host":"frk-1.de.uncletopia.com","port":27055,"enabled":true,"region":"eu","cc":"de","latitude":50.110924,"longitude":8.682127,"reserved":0,"last_update":"0001-01-01T00:00:00Z","name_a2s":"Uncletopia | Frankfurt | 5 | All Maps","protocol":17,"map":"cp_mountainlab","folder":"tf","game":"Team Fortress","app_id":440,"player_count":0,"max_players":24,"Bots":0,"server_type":"Dedicated","server_os":"Linux","password":true,"vac":true,"version":"7961495","steam_id":85568392924504277,"keywords":["cp","nocrits","nodmgspread","uncletopia"],"game_id":440,"stv_port":27056,"stv_name":"Uncletopia | Frankfurt | 5 | All Maps | STV","players":null},{"server_id":311,"name":"Uncletopia | Frankfurt | 6 | All Maps","name_short":"frk-6","host":"frk-1.de.uncletopia.com","port":27065,"enabled":true,"region":"eu","cc":"de","latitude":50.110924,"longitude":8.682127,"reserved":0,"last_update":"0001-01-01T00:00:00Z","name_a2s":"Uncletopia | Frankfurt | 6 | All Maps","protocol":17,"map":"cp_coldfront","folder":"tf","game":"Team Fortress","app_id":440,"player_count":0,"max_players":24,"Bots":0,"server_type":"Dedicated","server_os":"Linux","password":true,"vac":true,"version":"7961495","steam_id":85568392924504278,"keywords":["cp","nocrits","nodmgspread","uncletopia"],"game_id":440,"stv_port":27066,"stv_name":"Uncletopia | Frankfurt | 6 | All Maps | STV","players":null},{"server_id":23,"name":"Uncletopia | Frankfurt | 7 | Stopwatch","name_short":"frk-7","host":"frk-1.de.uncletopia.com","port":27075,"enabled":true,"region":"eu","cc":"de","latitude":50.110924,"longitude":8.682127,"reserved":0,"last_update":"0001-01-01T00:00:00Z","name_a2s":"Uncletopia | Frankfurt | 7 | Stopwatch","protocol":17,"map":"workshop/pl_vigil_rc10.ugc1266210012","folder":"tf","game":"Team Fortress","app_id":440,"player_count":0,"max_players":24,"Bots":0,"server_type":"Dedicated","server_os":"Linux","password":true,"vac":true,"version":"7961495","steam_id":85568392924742827,"keywords":["nocrits","nodmgspread","payload","uncletopia"],"game_id":440,"stv_port":27076,"stv_name":"Uncletopia | Frankfurt | 7 | Stopwatch | STV","players":null},{"server_id":24,"name":"Uncletopia | Frankfurt | 8 | Community","name_short":"frk-8","host":"frk-1.de.uncletopia.com","port":27085,"enabled":true,"region":"eu","cc":"de","latitude":50.110924,"longitude":8.682127,"reserved":0,"last_update":"0001-01-01T00:00:00Z","name_a2s":"Uncletopia | Frankfurt | 8 | Community","protocol":17,"map":"workshop/pl_boundary_final1.ugc456799153","folder":"tf","game":"Team Fortress","app_id":440,"player_count":0,"max_players":24,"Bots":0,"server_type":"Dedicated","server_os":"Linux","password":true,"vac":true,"version":"7961495","steam_id":85568392924742828,"keywords":["nocrits","nodmgspread","payload","uncletopia"],"game_id":440,"stv_port":27086,"stv_name":"Uncletopia | Frankfurt | 8 | Community | STV","players":null},{"server_id":202,"name":"Uncletopia | Hong Kong | 1 | All Maps","name_short":"hgk-1","host":"hgk-1.hk.uncletopia.com","port":27015,"enabled":true,"region":"asia","cc":"hk","latitude":22.302711,"longitude":114.177216,"reserved":0,"last_update":"0001-01-01T00:00:00Z","name_a2s":"Uncletopia | Hong Kong | 1 | All Maps","protocol":17,"map":"pl_badwater","folder":"tf","game":"Team Fortress","app_id":440,"player_count":24,"max_players":24,"Bots":0,"server_type":"Dedicated","server_os":"Linux","password":true,"vac":true,"version":"7961495","steam_id":85568392924494504,"keywords":["nocrits","nodmgspread","payload","uncletopia"],"game_id":440,"stv_port":27016,"stv_name":"Uncletopia | Hong Kong | 1 | All Maps | STV","players":[{"user_id":83,"name":"3wfFbdrjEze5d2G","steam_id":76561198435900451,"connected_time":4531000000000,"state":"active","ping":112},{"user_id":62,"name":"Oag","steam_id":76561199466006054,"connected_time":6057000000000,"state":"active","ping":77},{"user_id":92,"name":"qingque","steam_id":76561198230213828,"connected_time":3918000000000,"state":"active","ping":61},{"user_id":98,"name":"QWQ","steam_id":76561198886731650,"connected_time":2875000000000,"state":"active","ping":100},{"user_id":31,"name":"ryder","steam_id":76561198797699056,"connected_time":8778000000000,"state":"active","ping":92},{"user_id":114,"name":"Hay","steam_id":76561199438952901,"connected_time":1264000000000,"state":"active","ping":39},{"user_id":102,"name":"ArcticDolphin","steam_id":76561198203626319,"connected_time":2315000000000,"state":"active","ping":153},{"user_id":108,"name":"2 fists and the urge to kill","steam_id":76561198324008555,"connected_time":1378000000000,"state":"active","ping":57},{"user_id":122,"name":"STARDUST","steam_id":76561198843556568,"connected_time":725000000000,"state":"active","ping":41},{"user_id":104,"name":"Momoi","steam_id":76561198083999038,"connected_time":2061000000000,"state":"active","ping":94},{"user_id":95,"name":"Ivy's evil clone","steam_id":76561199219484527,"connected_time":3421000000000,"state":"active","ping":115},{"user_id":56,"name":"p1st0n","steam_id":76561198992723983,"connected_time":6444000000000,"state":"active","ping":96},{"user_id":121,"name":"Minos Prime Reaction","steam_id":76561199475974790,"connected_time":859000000000,"state":"active","ping":68},{"user_id":103,"name":"toad‚ô°","steam_id":76561198082199290,"connected_time":2183000000000,"state":"active","ping":45},{"user_id":70,"name":"Corbezy","steam_id":76561197993398349,"connected_time":5817000000000,"state":"active","ping":91},{"user_id":73,"name":"BURN PYGMALION!!!","steam_id":76561198074339034,"connected_time":5617000000000,"state":"active","ping":73},{"user_id":123,"name":"Emesis¬Æ Diazepam","steam_id":76561199137872034,"connected_time":431000000000,"state":"active","ping":66},{"user_id":125,"name":"cocksucker479","steam_id":76561198055553140,"connected_time":49000000000,"state":"active","ping":81},{"user_id":119,"name":"yw","steam_id":76561199382726488,"connected_time":1220000000000,"state":"active","ping":45},{"user_id":124,"name":"Revenaline","steam_id":76561198964762311,"connected_time":405000000000,"state":"active","ping":75},{"user_id":67,"name":"Sayo-Nara","steam_id":76561198005744733,"connected_time":5941000000000,"state":"active","ping":105},{"user_id":120,"name":"Sizable Chief","steam_id":76561198306574432,"connected_time":1021000000000,"state":"active","ping":65},{"user_id":87,"name":"Haru","steam_id":76561198240627872,"connected_time":4109000000000,"state":"active","ping":49},{"user_id":91,"name":"no vc no c","steam_id":76561197989503095,"connected_time":3936000000000,"state":"active","ping":92}]},{"server_id":1,"name":"Uncletopia | Los Angeles | 1 | All Maps","name_short":"lax-1","host":"lax-1.us.uncletopia.com","port":27015,"enabled":true,"region":"us-west","cc":"us","latitude":33.94279,"longitude":-118.41004,"reserved":0,"last_update":"0001-01-01T00:00:00Z","name_a2s":"Uncletopia | Los Angeles | 1 | All Maps","protocol":17,"map":"cp_sunshine","folder":"tf","game":"Team Fortress","app_id":440,"player_count":22,"max_players":24,"Bots":0,"server_type":"Dedicated","server_os":"Linux","password":true,"vac":true,"version":"7961495","steam_id":85568392924469991,"keywords":["cp","nocrits","nodmgspread","uncletopia"],"game_id":440,"stv_port":27016,"stv_name":"Uncletopia | Los Angeles | 1 | All Maps | STV","players":[{"user_id":185,"name":"Sasuri","steam_id":76561198404769732,"connected_time":503000000000,"state":"active","ping":48},{"user_id":153,"name":"rocket1714","steam_id":76561198255152396,"connected_time":1927000000000,"state":"active","ping":102},{"user_id":174,"name":"Eden","steam_id":76561198081284664,"connected_time":1181000000000,"state":"active","ping":57},{"user_id":123,"name":"chimplicity","steam_id":76561198012097062,"connected_time":5300000000000,"state":"active","ping":75},{"user_id":180,"name":"barks","steam_id":76561198283462369,"connected_time":580000000000,"state":"active","ping":60},{"user_id":186,"name":"Squatter1","steam_id":76561198078987734,"connected_time":439000000000,"state":"active","ping":65},{"user_id":145,"name":"heck","steam_id":76561198315694520,"connected_time":2402000000000,"state":"active","ping":50},{"user_id":157,"name":"Ya_Boi_Clapitao","steam_id":76561198274969584,"connected_time":1760000000000,"state":"active","ping":55},{"user_id":179,"name":"ack.awesome676","steam_id":76561199109415958,"connected_time":719000000000,"state":"active","ping":45},{"user_id":167,"name":":)","steam_id":76561198138478512,"connected_time":1400000000000,"state":"active","ping":75},{"user_id":146,"name":"Sak","steam_id":76561198307655707,"connected_time":2356000000000,"state":"active","ping":41},{"user_id":159,"name":"MineOpal","steam_id":76561198044716407,"connected_time":1665000000000,"state":"active","ping":43},{"user_id":181,"name":"uzr_n3m","steam_id":76561198799343084,"connected_time":551000000000,"state":"active","ping":55},{"user_id":165,"name":"oobner","steam_id":76561198864545608,"connected_time":1437000000000,"state":"active","ping":59},{"user_id":187,"name":"DarkestSideOfTheMoon","steam_id":76561199198320337,"connected_time":58000000000,"state":"active","ping":45},{"user_id":168,"name":"Warbomb","steam_id":76561198004312859,"connected_time":1399000000000,"state":"active","ping":110},{"user_id":175,"name":"SgtSardine","steam_id":76561198254729868,"connected_time":977000000000,"state":"active","ping":50},{"user_id":169,"name":"vso","steam_id":76561198070377392,"connected_time":1392000000000,"state":"active","ping":75},{"user_id":183,"name":"what're ya buyin","steam_id":76561199277633460,"connected_time":548000000000,"state":"active","ping":45},{"user_id":117,"name":"HAT-WEARING‚Ñ¢ Maggot Gamer Cat","steam_id":76561197973992705,"connected_time":6034000000000,"state":"active","ping":57},{"user_id":184,"name":"wugmup","steam_id":76561199096287734,"connected_time":546000000000,"state":"active","ping":54},{"user_id":118,"name":"Why Me...","steam_id":76561199124019937,"connected_time":5319000000000,"state":"active","ping":60}]},{"server_id":112,"name":"Uncletopia | Los Angeles | 2 | All Maps","name_short":"lax-2","host":"lax-1.us.uncletopia.com","port":27025,"enabled":true,"region":"us-west","cc":"us","latitude":33.94279,"longitude":-118.41004,"reserved":0,"last_update":"0001-01-01T00:00:00Z","name_a2s":"Uncletopia | Los Angeles | 2 | All Maps","protocol":17,"map":"cp_powerhouse","folder":"tf","game":"Team Fortress","app_id":440,"player_count":5,"max_players":24,"Bots":0,"server_type":"Dedicated","server_os":"Linux","password":true,"vac":true,"version":"7961495","steam_id":85568392924469992,"keywords":["cp","nocrits","nodmgspread","uncletopia"],"game_id":440,"stv_port":27026,"stv_name":"Uncletopia | Los Angeles | 2 | All Maps | STV","players":[{"user_id":44,"name":"0ll0","steam_id":76561198841446030,"connected_time":3007000000000,"state":"active","ping":41},{"user_id":48,"name":"NotWobs","steam_id":76561199087891992,"connected_time":574000000000,"state":"active","ping":47},{"user_id":49,"name":"iatrites","steam_id":76561199175698424,"connected_time":411000000000,"state":"active","ping":63},{"user_id":50,"name":"Robogineer","steam_id":76561198026994739,"connected_time":381000000000,"state":"active","ping":44},{"user_id":51,"name":"Pyrolimited","steam_id":76561198195455657,"connected_time":321000000000,"state":"active","ping":65}]},{"server_id":324,"name":"Uncletopia | Los Angeles | 3 | All Maps","name_short":"lax-3","host":"lax-1.us.uncletopia.com","port":27035,"enabled":true,"region":"us-west","cc":"us","latitude":33.94279,"longitude":-118.41004,"reserved":0,"last_update":"0001-01-01T00:00:00Z","name_a2s":"Uncletopia | Los Angeles | 3 | All Maps","protocol":17,"map":"pl_snowycoast","folder":"tf","game":"Team Fortress","app_id":440,"player_count":0,"max_players":24,"Bots":0,"server_type":"Dedicated","server_os":"Linux","password":true,"vac":true,"version":"7961495","steam_id":85568392924510198,"keywords":["nocrits","nodmgspread","payload","uncletopia"],"game_id":440,"stv_port":27036,"stv_name":"Uncletopia | Los Angeles | 3 | All Maps | STV","players":null},{"server_id":25,"name":"Uncletopia | Los Angeles | 4 | Stopwatch","name_short":"lax-4","host":"lax-1.us.uncletopia.com","port":27045,"enabled":true,"region":"us-west","cc":"us","latitude":33.94279,"longitude":-118.41004,"reserved":0,"last_update":"0001-01-01T00:00:00Z","name_a2s":"Uncletopia | Los Angeles | 4 | Stopwatch","protocol":17,"map":"workshop/cp_process_f12.ugc2302948105","folder":"tf","game":"Team Fortress","app_id":440,"player_count":19,"max_players":24,"Bots":0,"server_type":"Dedicated","server_os":"Linux","password":true,"vac":true,"version":"7961495","steam_id":85568392924510199,"keywords":["cp","nocrits","nodmgspread","uncletopia"],"game_id":440,"stv_port":27046,"stv_name":"Uncletopia | Los Angeles | 4 | Stopwatch | STV","players":[{"user_id":85,"name":"Mr. Noodle","steam_id":76561198025280658,"connected_time":2402000000000,"state":"active","ping":46},{"user_id":83,"name":"foofydafoofer","steam_id":76561199395830278,"connected_time":2474000000000,"state":"active","ping":54},{"user_id":75,"name":"Arenaid","steam_id":76561198159312934,"connected_time":2750000000000,"state":"active","ping":84},{"user_id":102,"name":"a highly probable flip","steam_id":76561198045964573,"connected_time":1416000000000,"state":"active","ping":54},{"user_id":25,"name":"Reisen Udongein Inaba","steam_id":76561198051082314,"connected_time":6147000000000,"state":"active","ping":56},{"user_id":82,"name":"RedWireFTW","steam_id":76561198139267825,"connected_time":2616000000000,"state":"active","ping":60},{"user_id":26,"name":"Junko","steam_id":76561198146089003,"connected_time":6121000000000,"state":"active","ping":49},{"user_id":27,"name":"UltShuip","steam_id":76561198074339262,"connected_time":6105000000000,"state":"active","ping":60},{"user_id":28,"name":"Dreamy Sweat from 2hu","steam_id":76561198094602446,"connected_time":6083000000000,"state":"active","ping":73},{"user_id":81,"name":"triph","steam_id":76561198067196509,"connected_time":2637000000000,"state":"active","ping":45},{"user_id":30,"name":"TopSir","steam_id":76561198125493359,"connected_time":6020000000000,"state":"active","ping":45},{"user_id":108,"name":"RELAX","steam_id":76561198080940210,"connected_time":754000000000,"state":"active","ping":119},{"user_id":32,"name":"keiki haniyasussy","steam_id":76561198418992185,"connected_time":5868000000000,"state":"active","ping":104},{"user_id":103,"name":"Seanvich","steam_id":76561198065805500,"connected_time":1285000000000,"state":"active","ping":92},{"user_id":92,"name":"Randle of John","steam_id":76561198328210524,"connected_time":2077000000000,"state":"active","ping":47},{"user_id":37,"name":"RyCeBread","steam_id":76561198152822390,"connected_time":5682000000000,"state":"active","ping":102},{"user_id":63,"name":"rhsiegetank","steam_id":76561198359829118,"connected_time":3429000000000,"state":"active","ping":50},{"user_id":105,"name":"Melon","steam_id":76561199202306398,"connected_time":1204000000000,"state":"active","ping":37},{"user_id":106,"name":"Rollo","steam_id":76561198064812108,"connected_time":1191000000000,"state":"active","ping":75}]},{"server_id":11,"name":"Uncletopia | London | 1 | All Maps","name_short":"lon-1","host":"lon-1.uk.uncletopia.com","port":27015,"enabled":true,"region":"eu","cc":"gb","latitude":51.509865,"longitude":-0.118092,"reserved":0,"last_update":"0001-01-01T00:00:00Z","name_a2s":"Uncletopia | London | 1 | All Maps","protocol":17,"map":"cp_powerhouse","folder":"tf","game":"Team Fortress","app_id":440,"player_count":17,"max_players":24,"Bots":0,"server_type":"Dedicated","server_os":"Linux","password":true,"vac":true,"version":"7961495","steam_id":85568392924367362,"keywords":["cp","nocrits","nodmgspread","uncletopia"],"game_id":440,"stv_port":27016,"stv_name":"Uncletopia | London | 1 | All Maps | STV","players":[{"user_id":3,"name":"Marcel","steam_id":76561198348686648,"connected_time":1805000000000,"state":"active","ping":41},{"user_id":6,"name":"Lewylow","steam_id":76561198005425686,"connected_time":1799000000000,"state":"active","ping":67},{"user_id":5,"name":"George W Bush","steam_id":76561198846784757,"connected_time":1800000000000,"state":"active","ping":39},{"user_id":7,"name":"antlionguard","steam_id":76561198072747143,"connected_time":1799000000000,"state":"active","ping":122},{"user_id":8,"name":"FoxyTheFish","steam_id":76561199074190919,"connected_time":1791000000000,"state":"active","ping":47},{"user_id":9,"name":"sokige","steam_id":76561198167112371,"connected_time":1782000000000,"state":"active","ping":106},{"user_id":10,"name":"ja","steam_id":76561199228540618,"connected_time":1778000000000,"state":"active","ping":63},{"user_id":11,"name":"Ôº≠ÔΩÅÔΩÉÔΩâÔΩéÔΩîÔΩèÔΩìÔΩà","steam_id":76561198074294565,"connected_time":1771000000000,"state":"active","ping":77},{"user_id":12,"name":"Coac","steam_id":76561198085265740,"connected_time":1752000000000,"state":"active","ping":67},{"user_id":13,"name":"FanFish","steam_id":76561199389558024,"connected_time":1741000000000,"state":"active","ping":60},{"user_id":17,"name":"Alyx","steam_id":76561198064654326,"connected_time":709000000000,"state":"active","ping":61},{"user_id":15,"name":"Canis[Magnus]Pectus","steam_id":76561198363775072,"connected_time":1161000000000,"state":"active","ping":119},{"user_id":16,"name":"asiboe","steam_id":76561198873040495,"connected_time":1108000000000,"state":"active","ping":98},{"user_id":18,"name":"BoneHead","steam_id":76561198032755387,"connected_time":534000000000,"state":"active","ping":86},{"user_id":25,"name":"Hox","steam_id":76561198977801115,"connected_time":112000000000,"state":"active","ping":82},{"user_id":21,"name":"JustinTheGamer","steam_id":76561199113815596,"connected_time":401000000000,"state":"active","ping":114},{"user_id":22,"name":"kernstjean97","steam_id":76561199216661045,"connected_time":340000000000,"state":"active","ping":148}]},{"server_id":114,"name":"Uncletopia | London | 2 | All Maps","name_short":"lon-2","host":"lon-1.uk.uncletopia.com","port":27025,"enabled":true,"region":"eu","cc":"gb","latitude":51.509865,"longitude":-0.118092,"reserved":0,"last_update":"0001-01-01T00:00:00Z","name_a2s":"Uncletopia | London | 2 | All Maps","protocol":17,"map":"pl_snowycoast","folder":"tf","game":"Team Fortress","app_id":440,"player_count":0,"max_players":24,"Bots":0,"server_type":"Dedicated","server_os":"Linux","password":true,"vac":true,"version":"7961495","steam_id":85568392924470941,"keywords":["nocrits","nodmgspread","payload","uncletopia"],"game_id":440,"stv_port":27026,"stv_name":"Uncletopia | London | 2 | All Maps | STV","players":null},{"server_id":320,"name":"Uncletopia | London | 3 | All Maps","name_short":"lon-3","host":"lon-1.uk.uncletopia.com","port":27035,"enabled":true,"region":"eu","cc":"gb","latitude":51.509865,"longitude":-0.118092,"reserved":0,"last_update":"0001-01-01T00:00:00Z","name_a2s":"Uncletopia | London | 3 | All Maps","protocol":17,"map":"koth_lakeside_final","folder":"tf","game":"Team Fortress","app_id":440,"player_count":0,"max_players":24,"Bots":0,"server_type":"Dedicated","server_os":"Linux","password":true,"vac":true,"version":"7961495","steam_id":85568392924510192,"keywords":["cp","nocrits","nodmgspread","uncletopia"],"game_id":440,"stv_port":27036,"stv_name":"Uncletopia | London | 3 | All Maps | STV","players":null},{"server_id":321,"name":"Uncletopia | London | 4 | All Maps","name_short":"lon-4","host":"lon-1.uk.uncletopia.com","port":27045,"enabled":true,"region":"eu","cc":"gb","latitude":51.509865,"longitude":-0.118092,"reserved":0,"last_update":"0001-01-01T00:00:00Z","name_a2s":"Uncletopia | London | 4 | All Maps","protocol":17,"map":"pl_badwater","folder":"tf","game":"Team Fortress","app_id":440,"player_count":0,"max_players":24,"Bots":0,"server_type":"Dedicated","server_os":"Linux","password":true,"vac":true,"version":"7961495","steam_id":85568392924510193,"keywords":["nocrits","nodmgspread","payload","uncletopia"],"game_id":440,"stv_port":27046,"stv_name":"Uncletopia | London | 4 | All Maps | STV","players":null},{"server_id":21,"name":"Uncletopia | London | 5 | All Maps","name_short":"lon-5","host":"lon-1.uk.uncletopia.com","port":27055,"enabled":true,"region":"eu","cc":"gb","latitude":51.509865,"longitude":-0.118092,"reserved":0,"last_update":"0001-01-01T00:00:00Z","name_a2s":"Uncletopia | London | 5 | All Maps","protocol":17,"map":"koth_lazarus","folder":"tf","game":"Team Fortress","app_id":440,"player_count":0,"max_players":24,"Bots":0,"server_type":"Dedicated","server_os":"Linux","password":true,"vac":true,"version":"7961495","steam_id":85568392924742829,"keywords":["cp","nocrits","nodmgspread","uncletopia"],"game_id":440,"stv_port":27056,"stv_name":"Uncletopia | London | 5 | All Maps | STV","players":null},{"server_id":22,"name":"Uncletopia | London | 6 | All Maps","name_short":"lon-6","host":"lon-1.uk.uncletopia.com","port":27065,"enabled":true,"region":"eu","cc":"gb","latitude":51.509865,"longitude":-0.118092,"reserved":0,"last_update":"0001-01-01T00:00:00Z","name_a2s":"Uncletopia | London | 6 | All Maps","protocol":17,"map":"cp_snakewater_final1","folder":"tf","game":"Team Fortress","app_id":440,"player_count":0,"max_players":24,"Bots":0,"server_type":"Dedicated","server_os":"Linux","password":true,"vac":true,"version":"7961495","steam_id":85568392924742830,"keywords":["cp","nocrits","nodmgspread","uncletopia"],"game_id":440,"stv_port":27066,"stv_name":"Uncletopia | London | 6 | All Maps | STV","players":null},{"server_id":40,"name":"Uncletopia | London | 7 | Stopwatch","name_short":"lon-7","host":"lon-1.uk.uncletopia.com","port":27075,"enabled":true,"region":"eu","cc":"gb","latitude":51.509865,"longitude":-0.118092,"reserved":0,"last_update":"0001-01-01T00:00:00Z","name_a2s":"Uncletopia | London | 7 | Stopwatch","protocol":17,"map":"workshop/pl_badwater_pro_v12.ugc2142942074","folder":"tf","game":"Team Fortress","app_id":440,"player_count":0,"max_players":24,"Bots":0,"server_type":"Dedicated","server_os":"Linux","password":true,"vac":true,"version":"7961495","steam_id":85568392924964314,"keywords":["nocrits","nodmgspread","payload","uncletopia"],"game_id":440,"stv_port":27076,"stv_name":"Uncletopia | London | 7 | Stopwatch | STV","players":null},{"server_id":41,"name":"Uncletopia | London | 8 | Community","name_short":"lon-8","host":"lon-1.uk.uncletopia.com","port":27085,"enabled":true,"region":"eu","cc":"gb","latitude":51.509865,"longitude":-0.118092,"reserved":0,"last_update":"0001-01-01T00:00:00Z","name_a2s":"Uncletopia | London | 8 | Community","protocol":17,"map":"workshop/cp_villa_b19.ugc2113052569","folder":"tf","game":"Team Fortress","app_id":440,"player_count":0,"max_players":24,"Bots":0,"server_type":"Dedicated","server_os":"Linux","password":true,"vac":true,"version":"7961495","steam_id":85568392924964315,"keywords":["cp","nocrits","nodmgspread","uncletopia"],"game_id":440,"stv_port":27086,"stv_name":"Uncletopia | London | 8 | Community | STV","players":null},{"server_id":300,"name":"Uncletopia | Montr√©al | 1 | One Thousand Uncles","name_short":"mtl-1","host":"mtl-1.ca.uncletopia.com","port":27015,"enabled":true,"region":"us-east","cc":"ca","latitude":45.50889,"longitude":-73.56167,"reserved":0,"last_update":"0001-01-01T00:00:00Z","name_a2s":"Uncletopia | Montr√©al | 1 | One Thousand Uncles","protocol":17,"map":"pl_hoodoo_final","folder":"tf","game":"Team Fortress","app_id":440,"player_count":0,"max_players":32,"Bots":0,"server_type":"Dedicated","server_os":"Linux","password":true,"vac":true,"version":"7961495","steam_id":85568392924500087,"keywords":["alltalk","danepve","increased_maxplayers","norespawntime","payload","uncletopia"],"game_id":440,"stv_port":0,"stv_name":"","players":null},{"server_id":301,"name":"Uncletopia | Montr√©al | 2 | One Thousand Uncles","name_short":"mtl-2","host":"mtl-1.ca.uncletopia.com","port":27025,"enabled":true,"region":"us-east","cc":"ca","latitude":45.50889,"longitude":-73.56167,"reserved":0,"last_update":"0001-01-01T00:00:00Z","name_a2s":"Uncletopia | Montr√©al | 2 | One Thousand Uncles","protocol":17,"map":"pl_snowycoast","folder":"tf","game":"Team Fortress","app_id":440,"player_count":0,"max_players":32,"Bots":0,"server_type":"Dedicated","server_os":"Linux","password":true,"vac":true,"version":"7961495","steam_id":85568392924500088,"keywords":["alltalk","danepve","increased_maxplayers","norespawntime","payload","uncletopia"],"game_id":440,"stv_port":0,"stv_name":"","players":null},{"server_id":302,"name":"Uncletopia | Montr√©al | 3 | One Thousand Uncles","name_short":"mtl-3","host":"mtl-1.ca.uncletopia.com","port":27035,"enabled":true,"region":"us-east","cc":"ca","latitude":45.50889,"longitude":-73.56167,"reserved":0,"last_update":"0001-01-01T00:00:00Z","name_a2s":"Uncletopia | Montr√©al | 3 | One Thousand Uncles","protocol":17,"map":"cp_dustbowl","folder":"tf","game":"Team Fortress","app_id":440,"player_count":22,"max_players":32,"Bots":16,"server_type":"Dedicated","server_os":"Linux","password":true,"vac":true,"version":"7961495","steam_id":85568392924500089,"keywords":["alltalk","bots","cp","danepve","increased_maxplayers","norespawntime","uncletopia"],"game_id":440,"stv_port":0,"stv_name":"","players":[{"user_id":324,"name":"Why not Zoidberg?","steam_id":76561197982207556,"connected_time":2424000000000,"state":"active","ping":82},{"user_id":327,"name":"the_Wong","steam_id":76561199435837292,"connected_time":1758000000000,"state":"active","ping":59},{"user_id":330,"name":"Jouva Moufette","steam_id":76561198013813685,"connected_time":808000000000,"state":"active","ping":50},{"user_id":329,"name":"Terrywastaken","steam_id":76561199168605068,"connected_time":1231000000000,"state":"active","ping":162},{"user_id":331,"name":"owlbortch","steam_id":76561198042849350,"connected_time":428000000000,"state":"active","ping":90},{"user_id":332,"name":"Aristotle Voulton","steam_id":76561198100174923,"connected_time":94000000000,"state":"active","ping":133}]},{"server_id":13,"name":"Uncletopia | New York City | 1 | All Maps","name_short":"nyc-1","host":"nyc-1.us.uncletopia.com","port":27015,"enabled":true,"region":"us-east","cc":"us","latitude":40.73061,"longitude":-73.93524,"reserved":0,"last_update":"0001-01-01T00:00:00Z","name_a2s":"Uncletopia | New York City | 1 | All Maps","protocol":17,"map":"pl_upward","folder":"tf","game":"Team Fortress","app_id":440,"player_count":24,"max_players":24,"Bots":0,"server_type":"Dedicated","server_os":"Linux","password":true,"vac":true,"version":"7961495","steam_id":85568392924469993,"keywords":["nocrits","nodmgspread","payload","uncletopia"],"game_id":440,"stv_port":27016,"stv_name":"Uncletopia | New York City | 1 | All Maps | STV","players":[{"user_id":611,"name":"Wique","steam_id":76561198071217597,"connected_time":699000000000,"state":"active","ping":52},{"user_id":615,"name":"Sprit ‚ô•","steam_id":76561198268780781,"connected_time":317000000000,"state":"active","ping":63},{"user_id":589,"name":"Pomegranate88","steam_id":76561198056385456,"connected_time":2958000000000,"state":"active","ping":60},{"user_id":592,"name":"Marqui√±os","steam_id":76561198260311802,"connected_time":2727000000000,"state":"active","ping":157},{"user_id":598,"name":"summer time has come for frosty","steam_id":76561198830243167,"connected_time":2115000000000,"state":"active","ping":63},{"user_id":599,"name":"white b4nny","steam_id":76561198307516731,"connected_time":2110000000000,"state":"active","ping":92},{"user_id":622,"name":"parasike","steam_id":76561198029319041,"connected_time":155000000000,"state":"active","ping":75},{"user_id":623,"name":"hamster dance gaming","steam_id":76561198040597288,"connected_time":143000000000,"state":"active","ping":63},{"user_id":601,"name":"uhooter","steam_id":76561198007829078,"connected_time":2062000000000,"state":"active","ping":65},{"user_id":552,"name":"Chicken Burger","steam_id":76561198358529311,"connected_time":6506000000000,"state":"active","ping":56},{"user_id":607,"name":"Rat Queen Emily","steam_id":76561198232446788,"connected_time":1892000000000,"state":"active","ping":61},{"user_id":617,"name":"Truly Cryo","steam_id":76561198347497484,"connected_time":278000000000,"state":"active","ping":110},{"user_id":618,"name":"deadpixel","steam_id":76561198150249843,"connected_time":261000000000,"state":"active","ping":71},{"user_id":590,"name":"Fish Fisherman","steam_id":76561198018656022,"connected_time":2956000000000,"state":"active","ping":49},{"user_id":594,"name":"Dr Gregory House, MD","steam_id":76561198986281248,"connected_time":2650000000000,"state":"active","ping":73},{"user_id":532,"name":"Rambly Dambly","steam_id":76561198844496567,"connected_time":8142000000000,"state":"active","ping":38},{"user_id":593,"name":"RollingCow","steam_id":76561198067114237,"connected_time":2724000000000,"state":"active","ping":63},{"user_id":595,"name":"Myx (eviler version)","steam_id":76561198256889832,"connected_time":2533000000000,"state":"active","ping":60},{"user_id":588,"name":"PurPle","steam_id":76561198050393396,"connected_time":2998000000000,"state":"active","ping":58},{"user_id":619,"name":"Chumster","steam_id":76561199120624891,"connected_time":228000000000,"state":"active","ping":117},{"user_id":620,"name":"Belvidere","steam_id":76561198121336953,"connected_time":203000000000,"state":"active","ping":93},{"user_id":621,"name":"MrYackles","steam_id":76561199095650797,"connected_time":203000000000,"state":"active","ping":80},{"user_id":624,"name":"yung lean","steam_id":76561198838284038,"connected_time":126000000000,"state":"active","ping":52},{"user_id":606,"name":"DoorDash Delivery Guy","steam_id":76561198454208495,"connected_time":1916000000000,"state":"active","ping":70}]},{"server_id":14,"name":"Uncletopia | New York City | 2 | All Maps","name_short":"nyc-2","host":"nyc-1.us.uncletopia.com","port":27025,"enabled":true,"region":"us-east","cc":"us","latitude":40.73061,"longitude":-73.93524,"reserved":0,"last_update":"0001-01-01T00:00:00Z","name_a2s":"Uncletopia | New York City | 2 | All Maps","protocol":17,"map":"koth_cascade","folder":"tf","game":"Team Fortress","app_id":440,"player_count":0,"max_players":24,"Bots":0,"server_type":"Dedicated","server_os":"Linux","password":true,"vac":true,"version":"7961495","steam_id":85568392924469994,"keywords":["cp","nocrits","nodmgspread","uncletopia"],"game_id":440,"stv_port":27026,"stv_name":"Uncletopia | New York City | 2 | All Maps | STV","players":null},{"server_id":15,"name":"Uncletopia | New York City | 3 | Stopwatch","name_short":"nyc-3","host":"nyc-1.us.uncletopia.com","port":27035,"enabled":true,"region":"us-east","cc":"us","latitude":40.73061,"longitude":-73.93524,"reserved":0,"last_update":"0001-01-01T00:00:00Z","name_a2s":"Uncletopia | New York City | 3 | Stopwatch","protocol":17,"map":"workshop/koth_product_final.ugc454272353","folder":"tf","game":"Team Fortress","app_id":440,"player_count":3,"max_players":24,"Bots":0,"server_type":"Dedicated","server_os":"Linux","password":true,"vac":true,"version":"7961495","steam_id":85568392924742820,"keywords":["cp","nocrits","nodmgspread","uncletopia"],"game_id":440,"stv_port":27036,"stv_name":"Uncletopia | New York City | 3 | Stopwatch | STV","players":[{"user_id":32,"name":"Dukman","steam_id":76561198258522599,"connected_time":5450000000000,"state":"active","ping":64},{"user_id":39,"name":"Harry S. Truman","steam_id":76561197993339757,"connected_time":121000000000,"state":"active","ping":48},{"user_id":28,"name":"Joe Biden","steam_id":76561198151426128,"connected_time":6644000000000,"state":"active","ping":90}]},{"server_id":16,"name":"Uncletopia | New York City | 4 | Community","name_short":"nyc-4","host":"nyc-1.us.uncletopia.com","port":27045,"enabled":true,"region":"us-east","cc":"us","latitude":40.73061,"longitude":-73.93524,"reserved":0,"last_update":"0001-01-01T00:00:00Z","name_a2s":"Uncletopia | New York City | 4 | Community","protocol":17,"map":"workshop/koth_ashville_final.ugc2130459942","folder":"tf","game":"Team Fortress","app_id":440,"player_count":0,"max_players":24,"Bots":0,"server_type":"Dedicated","server_os":"Linux","password":true,"vac":true,"version":"7961495","steam_id":85568392924742821,"keywords":["cp","nocrits","nodmgspread","uncletopia"],"game_id":440,"stv_port":27046,"stv_name":"Uncletopia | New York City | 4 | Community | STV","players":null},{"server_id":142,"name":"Uncletopia | S√£o Paulo | 1 | All Maps","name_short":"sao-1","host":"sao-1.br.uncletopia.com","port":27015,"enabled":true,"region":"sa","cc":"br","latitude":-23.533773,"longitude":-46.62529,"reserved":0,"last_update":"0001-01-01T00:00:00Z","name_a2s":"Uncletopia | S√£o Paulo | 1 | All Maps","protocol":17,"map":"koth_highpass","folder":"tf","game":"Team Fortress","app_id":440,"player_count":0,"max_players":24,"Bots":0,"server_type":"Dedicated","server_os":"Linux","password":true,"vac":true,"version":"7961495","steam_id":85568392924469996,"keywords":["cp","nocrits","nodmgspread","uncletopia"],"game_id":440,"stv_port":27016,"stv_name":"Uncletopia | S√£o Paulo | 1 | All Maps | STV","players":null},{"server_id":143,"name":"Uncletopia | S√£o Paulo | 2 | Community","name_short":"sao-2","host":"sao-2.br.uncletopia.com","port":27015,"enabled":true,"region":"sa","cc":"br","latitude":-23.533773,"longitude":-46.62529,"reserved":0,"last_update":"0001-01-01T00:00:00Z","name_a2s":"Uncletopia | S√£o Paulo | 2 | Community","protocol":17,"map":"workshop/pl_divulgence_b4b.ugc2884808746","folder":"tf","game":"Team Fortress","app_id":440,"player_count":0,"max_players":24,"Bots":0,"server_type":"Dedicated","server_os":"Linux","password":true,"vac":true,"version":"7961495","steam_id":85568392924485349,"keywords":["nocrits","nodmgspread","payload","uncletopia"],"game_id":440,"stv_port":27016,"stv_name":"Uncletopia | S√£o Paulo | 2 | Community | STV","players":null},{"server_id":7,"name":"Uncletopia | Seattle | 1 | All Maps","name_short":"sea-1","host":"sea-1.us.uncletopia.com","port":27015,"enabled":true,"region":"us-west","cc":"us","latitude":47.608013,"longitude":-122.33517,"reserved":0,"last_update":"0001-01-01T00:00:00Z","name_a2s":"Uncletopia | Seattle | 1 | All Maps","protocol":17,"map":"pl_borneo","folder":"tf","game":"Team Fortress","app_id":440,"player_count":24,"max_players":24,"Bots":0,"server_type":"Dedicated","server_os":"Linux","password":true,"vac":true,"version":"7961495","steam_id":85568392924469997,"keywords":["nocrits","nodmgspread","payload","uncletopia"],"game_id":440,"stv_port":27016,"stv_name":"Uncletopia | Seattle | 1 | All Maps | STV","players":[{"user_id":463,"name":"Nom Skirrett","steam_id":76561198014600788,"connected_time":118000000000,"state":"active","ping":60},{"user_id":361,"name":"Level 99 Mudcrab","steam_id":76561198077452771,"connected_time":11027000000000,"state":"active","ping":66},{"user_id":462,"name":"UV","steam_id":76561198083936918,"connected_time":124000000000,"state":"active","ping":45},{"user_id":449,"name":"Thanks Ants","steam_id":76561197966221018,"connected_time":1640000000000,"state":"active","ping":39},{"user_id":461,"name":"goofy goober","steam_id":76561199024079388,"connected_time":461000000000,"state":"active","ping":45},{"user_id":442,"name":"Sweeeeee","steam_id":76561198998446307,"connected_time":2875000000000,"state":"active","ping":64},{"user_id":398,"name":"Doctor Dick","steam_id":76561198001913735,"connected_time":7582000000000,"state":"active","ping":67},{"user_id":454,"name":"Ayayayayayayayayayayayayahuasca","steam_id":76561199002906056,"connected_time":1495000000000,"state":"active","ping":48},{"user_id":422,"name":"lavender","steam_id":76561199069518286,"connected_time":4582000000000,"state":"active","ping":73},{"user_id":450,"name":"Brathic","steam_id":76561198966232163,"connected_time":1619000000000,"state":"active","ping":77},{"user_id":404,"name":"mega","steam_id":76561198089520959,"connected_time":7001000000000,"state":"active","ping":70},{"user_id":411,"name":"fwoov","steam_id":76561198129166260,"connected_time":6520000000000,"state":"active","ping":75},{"user_id":447,"name":"Sarbanes-Oxley","steam_id":76561197975898479,"connected_time":2472000000000,"state":"active","ping":109},{"user_id":439,"name":"S Q U I S H E  T H A T  C A T","steam_id":76561198293865429,"connected_time":2899000000000,"state":"active","ping":37},{"user_id":421,"name":"cream of the crop","steam_id":76561198268581959,"connected_time":4773000000000,"state":"active","ping":48},{"user_id":437,"name":"Amazing476","steam_id":76561198103937489,"connected_time":3488000000000,"state":"active","ping":88},{"user_id":451,"name":"FidelGuevara","steam_id":76561198368296171,"connected_time":1566000000000,"state":"active","ping":72},{"user_id":427,"name":"Dragoninventor (He/Him)","steam_id":76561198956224948,"connected_time":4567000000000,"state":"active","ping":89},{"user_id":464,"name":"TROY","steam_id":76561197983852176,"connected_time":7000000000,"state":"spawning","ping":75},{"user_id":459,"name":"Cheezbeargur","steam_id":76561198164702899,"connected_time":1218000000000,"state":"active","ping":67},{"user_id":457,"name":"THAT CAT","steam_id":76561198010828625,"connected_time":1266000000000,"state":"active","ping":45},{"user_id":458,"name":"AIW","steam_id":76561198019539028,"connected_time":1234000000000,"state":"active","ping":157},{"user_id":460,"name":"Dog","steam_id":76561198041841128,"connected_time":1179000000000,"state":"active","ping":88},{"user_id":425,"name":"rat gets the cheese","steam_id":76561198031234032,"connected_time":4575000000000,"state":"active","ping":116}]},{"server_id":119,"name":"Uncletopia | Seattle | 2 | All Maps","name_short":"sea-2","host":"sea-1.us.uncletopia.com","port":27025,"enabled":true,"region":"us-west","cc":"us","latitude":47.608013,"longitude":-122.33517,"reserved":0,"last_update":"0001-01-01T00:00:00Z","name_a2s":"Uncletopia | Seattle | 2 | All Maps","protocol":17,"map":"koth_highpass","folder":"tf","game":"Team Fortress","app_id":440,"player_count":24,"max_players":24,"Bots":0,"server_type":"Dedicated","server_os":"Linux","password":true,"vac":true,"version":"7961495","steam_id":85568392924469998,"keywords":["cp","nocrits","nodmgspread","uncletopia"],"game_id":440,"stv_port":27026,"stv_name":"Uncletopia | Seattle | 2 | All Maps | STV","players":[{"user_id":364,"name":"fragadelphia","steam_id":76561198066116363,"connected_time":2176000000000,"state":"active","ping":45},{"user_id":377,"name":"Chi-Chia","steam_id":76561198067955987,"connected_time":1674000000000,"state":"active","ping":47},{"user_id":315,"name":"Clagger","steam_id":76561198066701092,"connected_time":5457000000000,"state":"active","ping":45},{"user_id":395,"name":"AveragePhil","steam_id":76561199139836802,"connected_time":478000000000,"state":"active","ping":51},{"user_id":399,"name":"Imabee","steam_id":76561198032523749,"connected_time":170000000000,"state":"active","ping":76},{"user_id":373,"name":"üëÅ sumixodic","steam_id":76561198090770710,"connected_time":2031000000000,"state":"active","ping":45},{"user_id":387,"name":"supe¬Æman","steam_id":76561198115924427,"connected_time":864000000000,"state":"active","ping":48},{"user_id":380,"name":"Stev the Hypergamous Pebble","steam_id":76561197999442625,"connected_time":1256000000000,"state":"active","ping":51},{"user_id":388,"name":"squash","steam_id":76561198150281353,"connected_time":836000000000,"state":"active","ping":54},{"user_id":353,"name":"T√ºCold","steam_id":76561198111278197,"connected_time":2758000000000,"state":"active","ping":45},{"user_id":398,"name":"krebex","steam_id":76561198004660630,"connected_time":370000000000,"state":"active","ping":92},{"user_id":299,"name":"Flagellant","steam_id":76561198152149679,"connected_time":6107000000000,"state":"active","ping":40},{"user_id":392,"name":"spes","steam_id":76561198081496581,"connected_time":648000000000,"state":"active","ping":54},{"user_id":381,"name":"tmm (theManMan)","steam_id":76561199488457138,"connected_time":1241000000000,"state":"active","ping":59},{"user_id":385,"name":"Pound","steam_id":76561198046727292,"connected_time":1044000000000,"state":"active","ping":78},{"user_id":391,"name":"NightmareOhm","steam_id":76561198338853664,"connected_time":652000000000,"state":"active","ping":42},{"user_id":397,"name":"Nova Academy of Salmon Action","steam_id":76561198021842526,"connected_time":424000000000,"state":"active","ping":69},{"user_id":400,"name":"Callahan","steam_id":76561197976928457,"connected_time":152000000000,"state":"active","ping":45},{"user_id":382,"name":"Wick","steam_id":76561198062996360,"connected_time":1118000000000,"state":"active","ping":78},{"user_id":393,"name":"cubibluer","steam_id":76561198197405295,"connected_time":639000000000,"state":"active","ping":57},{"user_id":403,"name":"Marz","steam_id":76561198799364911,"connected_time":51000000000,"state":"active","ping":81},{"user_id":401,"name":"Zeebob","steam_id":76561198219320103,"connected_time":149000000000,"state":"active","ping":46},{"user_id":402,"name":"Luna","steam_id":76561198082944789,"connected_time":62000000000,"state":"active","ping":66},{"user_id":335,"name":"useless snipper","steam_id":76561198065662025,"connected_time":4174000000000,"state":"active","ping":71}]},{"server_id":406,"name":"Uncletopia | Seattle | 3 | Stopwatch","name_short":"sea-3","host":"sea-1.us.uncletopia.com","port":27035,"enabled":true,"region":"us-west","cc":"us","latitude":47.608013,"longitude":-122.33517,"reserved":0,"last_update":"0001-01-01T00:00:00Z","name_a2s":"Uncletopia | Seattle | 3 | Stopwatch","protocol":17,"map":"workshop/koth_bagel_rc6.ugc2514036946","folder":"tf","game":"Team Fortress","app_id":440,"player_count":2,"max_players":24,"Bots":0,"server_type":"Dedicated","server_os":"Linux","password":true,"vac":true,"version":"7961495","steam_id":85568392924515217,"keywords":["cp","nocrits","nodmgspread","uncletopia"],"game_id":440,"stv_port":27036,"stv_name":"Uncletopia | Seattle | 3 | Stopwatch | STV","players":[{"user_id":10,"name":"The Gremlin","steam_id":76561198419066993,"connected_time":1144000000000,"state":"active","ping":40},{"user_id":11,"name":"asm_ghost","steam_id":76561199205363547,"connected_time":1131000000000,"state":"active","ping":69}]},{"server_id":17,"name":"Uncletopia | San Francisco | 1 | All Maps","name_short":"sfo-1","host":"sfo-1.us.uncletopia.com","port":27015,"enabled":true,"region":"us-west","cc":"us","latitude":37.77397,"longitude":-122.4313,"reserved":0,"last_update":"0001-01-01T00:00:00Z","name_a2s":"Uncletopia | San Francisco | 1 | All Maps","protocol":17,"map":"koth_viaduct","folder":"tf","game":"Team Fortress","app_id":440,"player_count":18,"max_players":24,"Bots":0,"server_type":"Dedicated","server_os":"Linux","password":true,"vac":true,"version":"7961495","steam_id":85568392924469999,"keywords":["cp","nocrits","nodmgspread","uncletopia"],"game_id":440,"stv_port":27016,"stv_name":"Uncletopia | San Francisco | 1 | All Maps | STV","players":[{"user_id":737,"name":"Ryld","steam_id":76561198010174380,"connected_time":30000000000,"state":"active","ping":49},{"user_id":730,"name":"RagingRoosevelt","steam_id":76561197985483153,"connected_time":265000000000,"state":"active","ping":68},{"user_id":692,"name":"i like my hammer :)","steam_id":76561198317982960,"connected_time":2793000000000,"state":"active","ping":82},{"user_id":734,"name":"Brigadier Brownie","steam_id":76561198040852898,"connected_time":155000000000,"state":"active","ping":51},{"user_id":727,"name":"vuldrin","steam_id":76561198383695069,"connected_time":908000000000,"state":"active","ping":49},{"user_id":684,"name":"lordstinkdemon666","steam_id":76561198073914311,"connected_time":2896000000000,"state":"active","ping":47},{"user_id":735,"name":"[S]Mr. X [No Monitor]","steam_id":76561197963746035,"connected_time":144000000000,"state":"active","ping":85},{"user_id":679,"name":"Throws Before BrosÛ†Ä°","steam_id":76561197992905530,"connected_time":3476000000000,"state":"active","ping":45},{"user_id":729,"name":"Major_Pippy","steam_id":76561198004482878,"connected_time":279000000000,"state":"active","ping":52},{"user_id":683,"name":"RustyHunter2245","steam_id":76561198271185213,"connected_time":3041000000000,"state":"active","ping":60},{"user_id":731,"name":"CharlieSpaniel","steam_id":76561198390647755,"connected_time":261000000000,"state":"active","ping":56},{"user_id":732,"name":"arkham ‚ô•","steam_id":76561198218773932,"connected_time":257000000000,"state":"active","ping":48},{"user_id":716,"name":"astrobob911","steam_id":76561199099110654,"connected_time":1488000000000,"state":"active","ping":115},{"user_id":733,"name":"Kataoka","steam_id":76561198162169852,"connected_time":248000000000,"state":"active","ping":60},{"user_id":693,"name":"Bald Vegeta","steam_id":76561198844143746,"connected_time":2782000000000,"state":"active","ping":52},{"user_id":702,"name":"AGGC","steam_id":76561199424161304,"connected_time":2507000000000,"state":"active","ping":56},{"user_id":728,"name":"porcelain bunny","steam_id":76561198043684960,"connected_time":804000000000,"state":"active","ping":93},{"user_id":712,"name":"owl","steam_id":76561198088403016,"connected_time":2082000000000,"state":"active","ping":147}]},{"server_id":18,"name":"Uncletopia | San Francisco | 2 | All Maps","name_short":"sfo-2","host":"sfo-1.us.uncletopia.com","port":27025,"enabled":true,"region":"us-west","cc":"us","latitude":37.77397,"longitude":-122.4313,"reserved":0,"last_update":"0001-01-01T00:00:00Z","name_a2s":"Uncletopia | San Francisco | 2 | All Maps","protocol":17,"map":"pl_pier","folder":"tf","game":"Team Fortress","app_id":440,"player_count":24,"max_players":24,"Bots":0,"server_type":"Dedicated","server_os":"Linux","password":true,"vac":true,"version":"7961495","steam_id":85568392924470000,"keywords":["nocrits","nodmgspread","payload","uncletopia"],"game_id":440,"stv_port":27026,"stv_name":"Uncletopia | San Francisco | 2 | All Maps | STV","players":[{"user_id":75,"name":"[Bandit]","steam_id":76561197986919852,"connected_time":3000000000,"state":"spawning","ping":58},{"user_id":43,"name":"Jackpot","steam_id":76561198167249462,"connected_time":1173000000000,"state":"active","ping":100},{"user_id":46,"name":"Soggy Zogg","steam_id":76561198836316052,"connected_time":1076000000000,"state":"active","ping":60},{"user_id":45,"name":"Soda","steam_id":76561198108363656,"connected_time":1081000000000,"state":"active","ping":66},{"user_id":40,"name":"nrvvs","steam_id":76561199134714492,"connected_time":1460000000000,"state":"active","ping":121},{"user_id":59,"name":"\"Decent\"","steam_id":76561198968058652,"connected_time":818000000000,"state":"active","ping":72},{"user_id":41,"name":"Y Dough","steam_id":76561198003827633,"connected_time":1277000000000,"state":"active","ping":38},{"user_id":42,"name":"TastyWheat","steam_id":76561198855061918,"connected_time":1248000000000,"state":"active","ping":60},{"user_id":24,"name":"Rotarius","steam_id":76561198109893506,"connected_time":3440000000000,"state":"active","ping":74},{"user_id":25,"name":"mcna","steam_id":76561198025459351,"connected_time":3412000000000,"state":"active","ping":92},{"user_id":26,"name":"Jake","steam_id":76561198010365836,"connected_time":3332000000000,"state":"active","ping":94},{"user_id":29,"name":"thastephen","steam_id":76561198080289775,"connected_time":2739000000000,"state":"active","ping":44},{"user_id":30,"name":"melb","steam_id":76561198091885221,"connected_time":2687000000000,"state":"active","ping":74},{"user_id":31,"name":"Mogus Bogus","steam_id":76561199006317944,"connected_time":2576000000000,"state":"active","ping":47},{"user_id":34,"name":"dzcreeper","steam_id":76561198072250723,"connected_time":2097000000000,"state":"active","ping":75},{"user_id":44,"name":"goth witch","steam_id":76561198069605283,"connected_time":1087000000000,"state":"active","ping":60},{"user_id":49,"name":"Cloey","steam_id":76561199161591235,"connected_time":997000000000,"state":"active","ping":79},{"user_id":51,"name":"galyxi","steam_id":76561198154388696,"connected_time":981000000000,"state":"active","ping":57},{"user_id":50,"name":"Petpac","steam_id":76561198326941396,"connected_time":988000000000,"state":"active","ping":46},{"user_id":52,"name":"CantaloupeKing","steam_id":76561198041949472,"connected_time":933000000000,"state":"active","ping":56},{"user_id":74,"name":"Ralph Kramden (Slim Charles)","steam_id":76561197981687895,"connected_time":174000000000,"state":"active","ping":57},{"user_id":54,"name":"mrthugpug1732","steam_id":76561198881200768,"connected_time":913000000000,"state":"active","ping":55},{"user_id":56,"name":"Keamy","steam_id":76561199471434875,"connected_time":892000000000,"state":"active","ping":60},{"user_id":71,"name":"baunter","steam_id":76561198024311871,"connected_time":396000000000,"state":"active","ping":46}]},{"server_id":19,"name":"Uncletopia | San Francisco | 3 | Stopwatch","name_short":"sfo-3","host":"sfo-1.us.uncletopia.com","port":27035,"enabled":true,"region":"us-west","cc":"us","latitude":37.77397,"longitude":-122.4313,"reserved":0,"last_update":"0001-01-01T00:00:00Z","name_a2s":"Uncletopia | San Francisco | 3 | Stopwatch","protocol":17,"map":"workshop/koth_product_final.ugc454272353","folder":"tf","game":"Team Fortress","app_id":440,"player_count":0,"max_players":24,"Bots":0,"server_type":"Dedicated","server_os":"Linux","password":true,"vac":true,"version":"7961495","steam_id":85568392924742824,"keywords":["cp","nocrits","nodmgspread","uncletopia"],"game_id":440,"stv_port":27036,"stv_name":"Uncletopia | San Francisco | 3 | Stopwatch | STV","players":null},{"server_id":20,"name":"Uncletopia | San Francisco | 4 | Community","name_short":"sfo-4","host":"sfo-1.us.uncletopia.com","port":27045,"enabled":true,"region":"us-west","cc":"us","latitude":37.77397,"longitude":-122.4313,"reserved":0,"last_update":"0001-01-01T00:00:00Z","name_a2s":"Uncletopia | San Francisco | 4 | Community","protocol":17,"map":"workshop/cp_sulfur_rc2.ugc619869471","folder":"tf","game":"Team Fortress","app_id":440,"player_count":0,"max_players":24,"Bots":0,"server_type":"Dedicated","server_os":"Linux","password":true,"vac":true,"version":"7961495","steam_id":85568392924742826,"keywords":["cp","nocrits","nodmgspread","uncletopia"],"game_id":440,"stv_port":27046,"stv_name":"Uncletopia | San Francisco | 4 | Community | STV","players":null},{"server_id":141,"name":"Uncletopia | Sydney | 1 | All Maps","name_short":"syd-1","host":"syd-1.au.uncletopia.com","port":27015,"enabled":true,"region":"au","cc":"au","latitude":-33.865143,"longitude":151.2099,"reserved":0,"last_update":"0001-01-01T00:00:00Z","name_a2s":"Uncletopia | Sydney | 1 | All Maps","protocol":17,"map":"pl_thundermountain","folder":"tf","game":"Team Fortress","app_id":440,"player_count":23,"max_players":24,"Bots":0,"server_type":"Dedicated","server_os":"Linux","password":true,"vac":true,"version":"7961495","steam_id":85568392924470001,"keywords":["nocrits","nodmgspread","payload","uncletopia"],"game_id":440,"stv_port":27016,"stv_name":"Uncletopia | Sydney | 1 | All Maps | STV","players":[{"user_id":195,"name":"Zeron","steam_id":76561198125778202,"connected_time":795000000000,"state":"active","ping":48},{"user_id":125,"name":"P. Ness (Length/Girth)","steam_id":76561198037664265,"connected_time":5912000000000,"state":"active","ping":61},{"user_id":177,"name":"cowabunga","steam_id":76561198043917443,"connected_time":2285000000000,"state":"active","ping":55},{"user_id":191,"name":"diamond","steam_id":76561198206754736,"connected_time":1249000000000,"state":"active","ping":47},{"user_id":153,"name":"Diming","steam_id":76561198325584599,"connected_time":3312000000000,"state":"active","ping":51},{"user_id":194,"name":"LegEaterHK","steam_id":76561199357838817,"connected_time":812000000000,"state":"active","ping":48},{"user_id":187,"name":"monnickev","steam_id":76561198252587162,"connected_time":1831000000000,"state":"active","ping":40},{"user_id":197,"name":"Pickled Cow","steam_id":76561198292517991,"connected_time":71000000000,"state":"active","ping":42},{"user_id":183,"name":"Xeiat","steam_id":76561198134963277,"connected_time":2059000000000,"state":"active","ping":42},{"user_id":126,"name":"fun haver","steam_id":76561197996866578,"connected_time":5893000000000,"state":"active","ping":68},{"user_id":188,"name":"no teles 4 u","steam_id":76561198018478297,"connected_time":1524000000000,"state":"active","ping":61},{"user_id":151,"name":"GOOD GUY NICK","steam_id":76561198145598622,"connected_time":3817000000000,"state":"active","ping":62},{"user_id":158,"name":"monkey (with spoon)","steam_id":76561198301254663,"connected_time":3173000000000,"state":"active","ping":60},{"user_id":190,"name":"Glockenspe (She/Her)","steam_id":76561199184115241,"connected_time":1448000000000,"state":"active","ping":44},{"user_id":182,"name":"The Coffee","steam_id":76561199400467501,"connected_time":2138000000000,"state":"active","ping":85},{"user_id":198,"name":"Red Hot Silly Pepper :)","steam_id":76561198089482428,"connected_time":19000000000,"state":"spawning","ping":148},{"user_id":176,"name":"TheGoodGuy","steam_id":76561197994105505,"connected_time":2306000000000,"state":"active","ping":45},{"user_id":196,"name":"Bojack Horseman","steam_id":76561198136605700,"connected_time":289000000000,"state":"active","ping":113},{"user_id":172,"name":"Distilledrain41","steam_id":76561198272717119,"connected_time":2442000000000,"state":"active","ping":47},{"user_id":173,"name":"Qwertles","steam_id":76561198033779273,"connected_time":2435000000000,"state":"active","ping":48},{"user_id":166,"name":"Batering Gamer","steam_id":76561198039849442,"connected_time":2848000000000,"state":"active","ping":32},{"user_id":192,"name":"Fire_Dragon1","steam_id":76561198978045930,"connected_time":1193000000000,"state":"active","ping":39},{"user_id":150,"name":"Yoda is probably asian","steam_id":76561198865436554,"connected_time":4033000000000,"state":"active","ping":52}]},{"server_id":123,"name":"Uncletopia | Sydney | 2 | All Maps","name_short":"syd-2","host":"syd-1.au.uncletopia.com","port":27025,"enabled":true,"region":"au","cc":"au","latitude":-33.865143,"longitude":151.2099,"reserved":0,"last_update":"0001-01-01T00:00:00Z","name_a2s":"Uncletopia | Sydney | 2 | All Maps","protocol":17,"map":"pl_badwater","folder":"tf","game":"Team Fortress","app_id":440,"player_count":0,"max_players":24,"Bots":0,"server_type":"Dedicated","server_os":"Linux","password":true,"vac":true,"version":"7961495","steam_id":85568392924470002,"keywords":["nocrits","nodmgspread","payload","uncletopia"],"game_id":440,"stv_port":27026,"stv_name":"Uncletopia | Sydney | 2 | All Maps | STV","players":null},{"server_id":395,"name":"Uncletopia | Sydney | 3 | All Maps","name_short":"syd-3","host":"syd-1.au.uncletopia.com","port":27035,"enabled":true,"region":"au","cc":"au","latitude":-33.865143,"longitude":151.2099,"reserved":0,"last_update":"0001-01-01T00:00:00Z","name_a2s":"Uncletopia | Sydney | 3 | All Maps","protocol":17,"map":"pl_frontier_final","folder":"tf","game":"Team Fortress","app_id":440,"player_count":0,"max_players":24,"Bots":0,"server_type":"Dedicated","server_os":"Linux","password":true,"vac":true,"version":"7961495","steam_id":85568392925194467,"keywords":["nocrits","nodmgspread","payload","uncletopia"],"game_id":440,"stv_port":27036,"stv_name":"Uncletopia | Sydney | 3 | All Maps | STV","players":null},{"server_id":396,"name":"Uncletopia | Sydney | 4 | All Maps","name_short":"syd-4","host":"syd-1.au.uncletopia.com","port":27045,"enabled":true,"region":"au","cc":"au","latitude":-33.865143,"longitude":151.2099,"reserved":0,"last_update":"0001-01-01T00:00:00Z","name_a2s":"Uncletopia | Sydney | 4 | All Maps","protocol":17,"map":"cp_process_final","folder":"tf","game":"Team Fortress","app_id":440,"player_count":4,"max_players":24,"Bots":0,"server_type":"Dedicated","server_os":"Linux","password":true,"vac":true,"version":"7961495","steam_id":85568392925397958,"keywords":["cp","nocrits","nodmgspread","uncletopia"],"game_id":440,"stv_port":27046,"stv_name":"Uncletopia | Sydney | 4 | All Maps | STV","players":[{"user_id":22,"name":"pathway","steam_id":76561198346674092,"connected_time":1274000000000,"state":"active","ping":66},{"user_id":21,"name":"POLSKA","steam_id":76561199090168813,"connected_time":1581000000000,"state":"active","ping":45},{"user_id":23,"name":"Editor_Billy","steam_id":76561199165608946,"connected_time":143000000000,"state":"active","ping":61},{"user_id":24,"name":"Crockblocked","steam_id":76561198202538620,"connected_time":116000000000,"state":"active","ping":83}]},{"server_id":58,"name":"Uncletopia | Sydney | 5 | Stopwatch","name_short":"syd-5","host":"syd-1.au.uncletopia.com","port":27055,"enabled":true,"region":"au","cc":"au","latitude":-33.865143,"longitude":151.2099,"reserved":0,"last_update":"0001-01-01T00:00:00Z","name_a2s":"Uncletopia | Sydney | 5 | Stopwatch","protocol":17,"map":"cp_metalworks","folder":"tf","game":"Team Fortress","app_id":440,"player_count":0,"max_players":24,"Bots":0,"server_type":"Dedicated","server_os":"Linux","password":true,"vac":true,"version":"7961495","steam_id":85568392925397959,"keywords":["cp","nocrits","nodmgspread","uncletopia"],"game_id":440,"stv_port":27056,"stv_name":"Uncletopia | Sydney | 5 | Stopwatch | STV","players":null},{"server_id":59,"name":"Uncletopia | Sydney | 6 | Community","name_short":"syd-6","host":"syd-1.au.uncletopia.com","port":27065,"enabled":true,"region":"au","cc":"au","latitude":-33.865143,"longitude":151.2099,"reserved":0,"last_update":"0001-01-01T00:00:00Z","name_a2s":"Uncletopia | Sydney | 6 | Community","protocol":17,"map":"workshop/koth_trenchfoot_ab1.ugc731436616","folder":"tf","game":"Team Fortress","app_id":440,"player_count":0,"max_players":24,"Bots":0,"server_type":"Dedicated","server_os":"Linux","password":true,"vac":true,"version":"7961495","steam_id":85568392925397960,"keywords":["cp","nocrits","nodmgspread","uncletopia"],"game_id":440,"stv_port":27066,"stv_name":"Uncletopia | Sydney | 6 | Community | STV","players":null},{"server_id":49,"name":"Uncletopia | Warsaw | 1 | One Thousand Uncles","name_short":"waw-1","host":"waw-1.pl.uncletopia.com","port":27015,"enabled":true,"region":"eu","cc":"pl","latitude":52.2297,"longitude":21.017532,"reserved":0,"last_update":"0001-01-01T00:00:00Z","name_a2s":"Uncletopia | Warsaw | 1 | One Thousand Uncles","protocol":17,"map":"cp_mercenarypark","folder":"tf","game":"Team Fortress","app_id":440,"player_count":0,"max_players":32,"Bots":0,"server_type":"Dedicated","server_os":"Linux","password":true,"vac":true,"version":"7961495","steam_id":85568392925397850,"keywords":["alltalk","cp","danepve","increased_maxplayers","norespawntime","uncletopia"],"game_id":440,"stv_port":0,"stv_name":"","players":null},{"server_id":50,"name":"Uncletopia | Warsaw | 2 | One Thousand Uncles","name_short":"waw-2","host":"waw-1.pl.uncletopia.com","port":27025,"enabled":true,"region":"eu","cc":"pl","latitude":52.2297,"longitude":21.017532,"reserved":0,"last_update":"0001-01-01T00:00:00Z","name_a2s":"Uncletopia | Warsaw | 2 | One Thousand Uncles","protocol":17,"map":"cp_egypt_final","folder":"tf","game":"Team Fortress","app_id":440,"player_count":0,"max_players":32,"Bots":0,"server_type":"Dedicated","server_os":"Linux","password":true,"vac":true,"version":"7961495","steam_id":85568392925397851,"keywords":["alltalk","cp","danepve","increased_maxplayers","norespawntime","uncletopia"],"game_id":440,"stv_port":0,"stv_name":"","players":null},{"server_id":51,"name":"Uncletopia | Warsaw | 3 | All Maps","name_short":"waw-3","host":"waw-1.pl.uncletopia.com","port":27035,"enabled":true,"region":"eu","cc":"pl","latitude":52.2297,"longitude":21.017532,"reserved":0,"last_update":"0001-01-01T00:00:00Z","name_a2s":"Uncletopia | Warsaw | 3 | All Maps","protocol":17,"map":"pl_snowycoast","folder":"tf","game":"Team Fortress","app_id":440,"player_count":0,"max_players":24,"Bots":0,"server_type":"Dedicated","server_os":"Linux","password":true,"vac":true,"version":"7961495","steam_id":85568392925397852,"keywords":["nocrits","nodmgspread","payload","uncletopia"],"game_id":440,"stv_port":27036,"stv_name":"Uncletopia | Warsaw | 3 | All Maps | STV","players":null},{"server_id":52,"name":"Uncletopia | Warsaw | 4 | All Maps","name_short":"waw-4","host":"waw-1.pl.uncletopia.com","port":27045,"enabled":true,"region":"eu","cc":"pl","latitude":52.2297,"longitude":21.017532,"reserved":0,"last_update":"0001-01-01T00:00:00Z","name_a2s":"Uncletopia | Warsaw | 4 | All Maps","protocol":17,"map":"cp_fastlane","folder":"tf","game":"Team Fortress","app_id":440,"player_count":0,"max_players":24,"Bots":0,"server_type":"Dedicated","server_os":"Linux","password":true,"vac":true,"version":"7961495","steam_id":85568392925397853,"keywords":["cp","nocrits","nodmgspread","uncletopia"],"game_id":440,"stv_port":27046,"stv_name":"Uncletopia | Warsaw | 4 | All Maps | STV","players":null},{"server_id":53,"name":"Uncletopia | Warsaw | 5 | Stopwatch","name_short":"waw-5","host":"waw-1.pl.uncletopia.com","port":27055,"enabled":true,"region":"eu","cc":"pl","latitude":52.2297,"longitude":21.017532,"reserved":0,"last_update":"0001-01-01T00:00:00Z","name_a2s":"Uncletopia | Warsaw | 5 | Stopwatch","protocol":17,"map":"cp_gullywash_final1","folder":"tf","game":"Team Fortress","app_id":440,"player_count":0,"max_players":24,"Bots":0,"server_type":"Dedicated","server_os":"Linux","password":true,"vac":true,"version":"7961495","steam_id":85568392925397854,"keywords":["cp","nocrits","nodmgspread","uncletopia"],"game_id":440,"stv_port":27056,"stv_name":"Uncletopia | Warsaw | 5 | Stopwatch | STV","players":null},{"server_id":54,"name":"Uncletopia | Warsaw | 6 | Community","name_short":"waw-6","host":"waw-1.pl.uncletopia.com","port":27065,"enabled":true,"region":"eu","cc":"pl","latitude":52.2297,"longitude":21.017532,"reserved":0,"last_update":"0001-01-01T00:00:00Z","name_a2s":"Uncletopia | Warsaw | 6 | Community","protocol":17,"map":"workshop/cp_fulgur_rc2a.ugc2068252300","folder":"tf","game":"Team Fortress","app_id":440,"player_count":0,"max_players":24,"Bots":0,"server_type":"Dedicated","server_os":"Linux","password":true,"vac":true,"version":"7961495","steam_id":85568392925397856,"keywords":["cp","nocrits","nodmgspread","uncletopia"],"game_id":440,"stv_port":27066,"stv_name":"Uncletopia | Warsaw | 6 | Community | STV","players":null}]}