{"status":true,"message":"","result":[{"server_id":9,"name":"Uncletopia | Atlanta | 1 | All Maps","name_short":"atl-1","host":"atl-1.us.uncletopia.com","port":27015,"enabled":true,"region":"us-east","cc":"us","latitude":33.753746,"longitude":-84.38633,"reserved":0,"last_update":"0001-01-01T00:00:00Z","name_a2s":"Uncletopia | Atlanta | 1 | All Maps","protocol":17,"map":"koth_highpass","folder":"tf","game":"Team Fortress","app_id":440,"player_count":0,"max_players":24,"Bots":0,"server_type":"Dedicated","server_os":"Linux","password":true,"vac":true,"version":"7757534","steam_id":85568392924469982,"keywords":["cp","nocrits","nodmgspread","uncletopia"],"game_id":440,"stv_port":27016,"stv_name":"Uncletopia | Atlanta | 1 | All Maps | STV","players":null},{"server_id":400,"name":"Uncletopia | Atlanta | 3 | Stopwatch Beta","name_short":"atl-3","host":"atl-1.us.uncletopia.com","port":27035,"enabled":true,"region":"us-east","cc":"us","latitude":33.753746,"longitude":-84.38633,"reserved":0,"last_update":"0001-01-01T00:00:00Z","name_a2s":"Uncletopia | Atlanta | 3 | Stopwatch Beta","protocol":17,"map":"pl_upward","folder":"tf","game":"Team Fortress","app_id":440,"player_count":0,"max_players":24,"Bots":0,"server_type":"Dedicated","server_os":"Linux","password":true,"vac":true,"version":"7757534","steam_id":85568392924515187,"keywords":["nocrits","nodmgspread","payload","uncletopia"],"game_id":440,"stv_port":27036,"stv_name":"Uncletopia | Atlanta | 3 | Stopwatch Beta | STV","players":null},{"server_id":401,"name":"Uncletopia | Atlanta | 4 | No Payload","name_short":"atl-4","host":"atl-1.us.uncletopia.com","port":27045,"enabled":true,"region":"us-east","cc":"us","latitude":33.753746,"longitude":-84.38633,"reserved":0,"last_update":"0001-01-01T00:00:00Z","name_a2s":"Uncletopia | Atlanta | 4 | No Payload","protocol":17,"map":"pl_pier","folder":"tf","game":"Team Fortress","app_id":440,"player_count":0,"max_players":24,"Bots":0,"server_type":"Dedicated","server_os":"Linux","password":true,"vac":true,"version":"7723704","steam_id":85568392924515188,"keywords":["nocrits","nodmgspread","payload","uncletopia"],"game_id":440,"stv_port":27046,"stv_name":"Uncletopia | Atlanta | 4 | No Payload | STV","players":null},{"server_id":2,"name":"Uncletopia | Chicago | 1 | All Maps","name_short":"chi-1","host":"chi-1.us.uncletopia.com","port":27015,"enabled":true,"region":"us-central","cc":"us","latitude":41.881832,"longitude":-87.62318,"reserved":0,"last_update":"0001-01-01T00:00:00Z","name_a2s":"Uncletopia | Chicago | 1 | All Maps","protocol":17,"map":"pl_barnblitz","folder":"tf","game":"Team Fortress","app_id":440,"player_count":24,"max_players":24,"Bots":0,"server_type":"Dedicated","server_os":"Linux","password":true,"vac":true,"version":"7757534","steam_id":85568392924469984,"keywords":["nocrits","nodmgspread","payload","uncletopia"],"game_id":440,"stv_port":27016,"stv_name":"Uncletopia | Chicago | 1 | All Maps | STV","players":[{"user_id":205,"name":"Magic Jack","steam_id":76561198227459488,"connected_time":2467000000000,"state":"active","ping":74},{"user_id":193,"name":"kibble","steam_id":76561198077083011,"connected_time":3062000000000,"state":"active","ping":81},{"user_id":213,"name":"Mae","steam_id":76561198085815757,"connected_time":2083000000000,"state":"active","ping":64},{"user_id":191,"name":"177013","steam_id":76561198072303290,"connected_time":3591000000000,"state":"active","ping":62},{"user_id":209,"name":"-flagellum","steam_id":76561198006297974,"connected_time":2147000000000,"state":"active","ping":53},{"user_id":175,"name":"JTClaws","steam_id":76561198028228221,"connected_time":5303000000000,"state":"active","ping":79},{"user_id":228,"name":"Atillart","steam_id":76561198015455977,"connected_time":1232000000000,"state":"active","ping":60},{"user_id":210,"name":"motherfucker 2.0","steam_id":76561198141189209,"connected_time":2142000000000,"state":"active","ping":60},{"user_id":223,"name":"Piscillini","steam_id":76561198058584889,"connected_time":1529000000000,"state":"active","ping":61},{"user_id":224,"name":"Herr Doktor","steam_id":76561198025473302,"connected_time":1362000000000,"state":"active","ping":83},{"user_id":219,"name":"Deranged_Fish","steam_id":76561198104169579,"connected_time":1765000000000,"state":"active","ping":50},{"user_id":232,"name":"Gabinator32","steam_id":76561198872467183,"connected_time":234000000000,"state":"active","ping":45},{"user_id":208,"name":"mu mu tako time","steam_id":76561198249206656,"connected_time":2283000000000,"state":"active","ping":80},{"user_id":226,"name":"hyuck","steam_id":76561198319990195,"connected_time":1329000000000,"state":"active","ping":75},{"user_id":55,"name":"THE NUT","steam_id":76561198067813626,"connected_time":15412000000000,"state":"active","ping":97},{"user_id":200,"name":"I'm Cloaked","steam_id":76561198039763676,"connected_time":2747000000000,"state":"active","ping":65},{"user_id":174,"name":"[ØWQJØ]chubacaalatake","steam_id":76561198136201697,"connected_time":5350000000000,"state":"active","ping":156},{"user_id":187,"name":"Psychic","steam_id":76561198086675590,"connected_time":4143000000000,"state":"active","ping":124},{"user_id":198,"name":"uncle kringle gaming","steam_id":76561198063024859,"connected_time":2901000000000,"state":"active","ping":83},{"user_id":229,"name":"Servitz #savetf2","steam_id":76561198194446835,"connected_time":1165000000000,"state":"active","ping":65},{"user_id":215,"name":"Alan","steam_id":76561198176618461,"connected_time":2071000000000,"state":"active","ping":74},{"user_id":111,"name":"MEDIC!","steam_id":76561198149344029,"connected_time":10560000000000,"state":"active","ping":69},{"user_id":212,"name":"earthtraveler413","steam_id":76561198865139926,"connected_time":2119000000000,"state":"active","ping":108},{"user_id":231,"name":"robo_zadnica","steam_id":76561198855162452,"connected_time":1115000000000,"state":"active","ping":212}]},{"server_id":106,"name":"Uncletopia | Chicago | 2 | All Maps","name_short":"chi-2","host":"chi-1.us.uncletopia.com","port":27025,"enabled":true,"region":"us-central","cc":"us","latitude":41.881832,"longitude":-87.62318,"reserved":0,"last_update":"0001-01-01T00:00:00Z","name_a2s":"Uncletopia | Chicago | 2 | All Maps","protocol":17,"map":"koth_lakeside_final","folder":"tf","game":"Team Fortress","app_id":440,"player_count":0,"max_players":24,"Bots":0,"server_type":"Dedicated","server_os":"Linux","password":true,"vac":true,"version":"7757534","steam_id":85568392924469985,"keywords":["cp","nocrits","nodmgspread","uncletopia"],"game_id":440,"stv_port":27026,"stv_name":"Uncletopia | Chicago | 2 | All Maps | STV","players":null},{"server_id":402,"name":"Uncletopia | Chicago | 3 | All Maps","name_short":"chi-3","host":"chi-1.us.uncletopia.com","port":27035,"enabled":true,"region":"us-central","cc":"us","latitude":41.881832,"longitude":-87.62318,"reserved":0,"last_update":"0001-01-01T00:00:00Z","name_a2s":"Uncletopia | Chicago | 3 | All Maps","protocol":17,"map":"koth_cascade","folder":"tf","game":"Team Fortress","app_id":440,"player_count":0,"max_players":24,"Bots":0,"server_type":"Dedicated","server_os":"Linux","password":true,"vac":true,"version":"7757534","steam_id":85568392924515191,"keywords":["cp","nocrits","nodmgspread","uncletopia"],"game_id":440,"stv_port":27036,"stv_name":"Uncletopia | Chicago | 3 | All Maps | STV","players":null},{"server_id":403,"name":"Uncletopia | Chicago | 4 | All Maps","name_short":"chi-4","host":"chi-1.us.uncletopia.com","port":27045,"enabled":true,"region":"us-central","cc":"us","latitude":41.881832,"longitude":-87.62318,"reserved":0,"last_update":"0001-01-01T00:00:00Z","name_a2s":"Uncletopia | Chicago | 4 | All Maps","protocol":17,"map":"koth_badlands","folder":"tf","game":"Team Fortress","app_id":440,"player_count":24,"max_players":24,"Bots":0,"server_type":"Dedicated","server_os":"Linux","password":true,"vac":true,"version":"7757534","steam_id":85568392924515193,"keywords":["cp","nocrits","nodmgspread","uncletopia"],"game_id":440,"stv_port":27046,"stv_name":"Uncletopia | Chicago | 4 | All Maps | STV","players":[{"user_id":157,"name":"Coffee with a Stranger","steam_id":76561198307422313,"connected_time":2171000000000,"state":"active","ping":62},{"user_id":167,"name":"marioneff","steam_id":76561198175570431,"connected_time":1297000000000,"state":"active","ping":62},{"user_id":129,"name":"Pisser12434","steam_id":76561198835144780,"connected_time":3479000000000,"state":"active","ping":74},{"user_id":128,"name":"yomokha","steam_id":76561198063175935,"connected_time":3697000000000,"state":"active","ping":73},{"user_id":166,"name":"Lennu","steam_id":76561198060730154,"connected_time":1367000000000,"state":"active","ping":71},{"user_id":193,"name":"Stock Medic","steam_id":76561198065479730,"connected_time":17000000000,"state":"active","ping":45},{"user_id":182,"name":"Andrew","steam_id":76561198070615190,"connected_time":581000000000,"state":"active","ping":57},{"user_id":186,"name":"kwout","steam_id":76561197997139225,"connected_time":326000000000,"state":"active","ping":58},{"user_id":142,"name":"Sir Galahad","steam_id":76561198195999859,"connected_time":3188000000000,"state":"active","ping":101},{"user_id":187,"name":"HATEWORK.","steam_id":76561198286792807,"connected_time":315000000000,"state":"active","ping":86},{"user_id":170,"name":"crippling fumo addiction","steam_id":76561198115874625,"connected_time":1191000000000,"state":"active","ping":60},{"user_id":188,"name":"Uncle","steam_id":76561197988647705,"connected_time":302000000000,"state":"active","ping":54},{"user_id":156,"name":"a crazy hobo","steam_id":76561198289650060,"connected_time":2318000000000,"state":"active","ping":95},{"user_id":172,"name":"Rumpelforeskin","steam_id":76561198022105119,"connected_time":1106000000000,"state":"active","ping":60},{"user_id":192,"name":"Nyle","steam_id":76561198045652639,"connected_time":127000000000,"state":"active","ping":127},{"user_id":184,"name":"movement shooter enthusiast","steam_id":76561198841593464,"connected_time":388000000000,"state":"active","ping":101},{"user_id":173,"name":"milk #savetf2","steam_id":76561199054144269,"connected_time":1066000000000,"state":"active","ping":69},{"user_id":160,"name":"High Plains Drifter","steam_id":76561198047398433,"connected_time":2125000000000,"state":"active","ping":59},{"user_id":191,"name":"Μαrrz","steam_id":76561198079498985,"connected_time":250000000000,"state":"active","ping":58},{"user_id":161,"name":"nappyzappy","steam_id":76561198095118953,"connected_time":2110000000000,"state":"active","ping":123},{"user_id":190,"name":"benny","steam_id":76561198813412670,"connected_time":258000000000,"state":"active","ping":70},{"user_id":177,"name":"Boot","steam_id":76561198423162555,"connected_time":869000000000,"state":"active","ping":62},{"user_id":178,"name":"Overduecat","steam_id":76561198092452824,"connected_time":794000000000,"state":"active","ping":68},{"user_id":181,"name":"Qui3t_P4nda","steam_id":76561198151333655,"connected_time":684000000000,"state":"active","ping":81}]},{"server_id":36,"name":"Uncletopia | Chicago | 5 | All Maps","name_short":"chi-5","host":"chi-2.us.uncletopia.com","port":27015,"enabled":true,"region":"us-central","cc":"us","latitude":41.881832,"longitude":-87.62318,"reserved":0,"last_update":"0001-01-01T00:00:00Z","name_a2s":"Uncletopia | Chicago | 5 | All Maps","protocol":17,"map":"koth_cascade","folder":"tf","game":"Team Fortress","app_id":440,"player_count":0,"max_players":24,"Bots":0,"server_type":"Dedicated","server_os":"Linux","password":true,"vac":true,"version":"7757534","steam_id":85568392924866362,"keywords":["cp","nocrits","nodmgspread","uncletopia"],"game_id":440,"stv_port":27016,"stv_name":"Uncletopia | Chicago | 5 | All Maps | STV","players":null},{"server_id":37,"name":"Uncletopia | Chicago | 6 | All Maps","name_short":"chi-6","host":"chi-2.us.uncletopia.com","port":27025,"enabled":true,"region":"us-central","cc":"us","latitude":41.881832,"longitude":-87.62318,"reserved":0,"last_update":"0001-01-01T00:00:00Z","name_a2s":"Uncletopia | Chicago | 6 | All Maps","protocol":17,"map":"cp_mountainlab","folder":"tf","game":"Team Fortress","app_id":440,"player_count":0,"max_players":24,"Bots":0,"server_type":"Dedicated","server_os":"Linux","password":true,"vac":true,"version":"7757534","steam_id":85568392924866363,"keywords":["cp","nocrits","nodmgspread","uncletopia"],"game_id":440,"stv_port":27026,"stv_name":"Uncletopia | Chicago | 6 | All Maps | STV","players":null},{"server_id":38,"name":"Uncletopia | Chicago | 7 | Stopwatch Beta","name_short":"chi-7","host":"chi-2.us.uncletopia.com","port":27035,"enabled":true,"region":"us-central","cc":"us","latitude":41.881832,"longitude":-87.62318,"reserved":0,"last_update":"0001-01-01T00:00:00Z","name_a2s":"Uncletopia | Chicago | 7 | Stopwatch Beta","protocol":17,"map":"workshop/koth_clearcut_b15.ugc2107050255","folder":"tf","game":"Team Fortress","app_id":440,"player_count":0,"max_players":24,"Bots":0,"server_type":"Dedicated","server_os":"Linux","password":true,"vac":true,"version":"7757534","steam_id":85568392924866364,"keywords":["cp","nocrits","nodmgspread","uncletopia"],"game_id":440,"stv_port":27036,"stv_name":"Uncletopia | Chicago | 7 | Stopwatch Beta | STV","players":null},{"server_id":39,"name":"Uncletopia | Chicago | 8 | Community","name_short":"chi-8","host":"chi-2.us.uncletopia.com","port":27045,"enabled":true,"region":"us-central","cc":"us","latitude":41.881832,"longitude":-87.62318,"reserved":0,"last_update":"0001-01-01T00:00:00Z","name_a2s":"Uncletopia | Chicago | 8 | Community","protocol":17,"map":"pl_pier","folder":"tf","game":"Team Fortress","app_id":440,"player_count":0,"max_players":24,"Bots":0,"server_type":"Dedicated","server_os":"Linux","password":true,"vac":true,"version":"7757534","steam_id":85568392924866365,"keywords":["nocrits","nodmgspread","payload","uncletopia"],"game_id":440,"stv_port":27046,"stv_name":"Uncletopia | Chicago | 8 | Community | STV","players":null},{"server_id":8,"name":"Uncletopia | Dallas | 1 | All Maps","name_short":"dal-1","host":"dal-1.us.uncletopia.com","port":27015,"enabled":true,"region":"us-central","cc":"us","latitude":32.779167,"longitude":-96.80889,"reserved":0,"last_update":"0001-01-01T00:00:00Z","name_a2s":"Uncletopia | Dallas | 1 | All Maps","protocol":17,"map":"cp_altitude","folder":"tf","game":"Team Fortress","app_id":440,"player_count":24,"max_players":24,"Bots":0,"server_type":"Dedicated","server_os":"Linux","password":true,"vac":true,"version":"7757534","steam_id":85568392924469986,"keywords":["cp","nocrits","nodmgspread","uncletopia"],"game_id":440,"stv_port":27016,"stv_name":"Uncletopia | Dallas | 1 | All Maps | STV","players":[{"user_id":9,"name":"dicksnip","steam_id":76561198356515396,"connected_time":3720000000000,"state":"active","ping":71},{"user_id":58,"name":"Kzjytsugn","steam_id":76561198130241974,"connected_time":379000000000,"state":"active","ping":96},{"user_id":12,"name":"Tele Co","steam_id":76561198041909269,"connected_time":2726000000000,"state":"active","ping":70},{"user_id":61,"name":"Hyperbagel67","steam_id":76561198092122156,"connected_time":68000000000,"state":"active","ping":48},{"user_id":15,"name":"The man who sold 2Fort","steam_id":76561199100003132,"connected_time":2563000000000,"state":"active","ping":165},{"user_id":59,"name":"barker bill","steam_id":76561198018451994,"connected_time":373000000000,"state":"active","ping":54},{"user_id":53,"name":"crumblejon","steam_id":76561198111273302,"connected_time":1252000000000,"state":"active","ping":74},{"user_id":55,"name":"McBubba","steam_id":76561198025448283,"connected_time":442000000000,"state":"active","ping":83},{"user_id":52,"name":"Korra \u003c3","steam_id":76561198044991497,"connected_time":1366000000000,"state":"active","ping":120},{"user_id":57,"name":"minimalpair","steam_id":76561198071788709,"connected_time":431000000000,"state":"active","ping":93},{"user_id":56,"name":"HybridSolly","steam_id":76561198125067997,"connected_time":436000000000,"state":"active","ping":37},{"user_id":62,"name":"Dr. Bonair","steam_id":76561198129237487,"connected_time":63000000000,"state":"active","ping":69},{"user_id":36,"name":"mikey | I'm Burning Bright!","steam_id":76561198985847893,"connected_time":1691000000000,"state":"active","ping":49},{"user_id":32,"name":"floofy","steam_id":76561198389769098,"connected_time":1786000000000,"state":"active","ping":76},{"user_id":33,"name":"Nuh uh","steam_id":76561199065776495,"connected_time":1766000000000,"state":"active","ping":81},{"user_id":34,"name":"Keiro Fyre","steam_id":76561198118558874,"connected_time":1712000000000,"state":"active","ping":86},{"user_id":39,"name":"swag","steam_id":76561198094615739,"connected_time":1653000000000,"state":"active","ping":101},{"user_id":42,"name":"{[F.H]} Hydroida","steam_id":76561197999797274,"connected_time":1581000000000,"state":"active","ping":75},{"user_id":60,"name":"sebjzy","steam_id":76561198009959034,"connected_time":366000000000,"state":"active","ping":56},{"user_id":44,"name":"basil","steam_id":76561198075758026,"connected_time":1560000000000,"state":"active","ping":95},{"user_id":46,"name":"Entity","steam_id":76561198027377369,"connected_time":1475000000000,"state":"active","ping":88},{"user_id":47,"name":"Local","steam_id":76561198069537437,"connected_time":1466000000000,"state":"active","ping":80},{"user_id":48,"name":"TheTruthOfTheCessationOfDukkha","steam_id":76561198214370515,"connected_time":1440000000000,"state":"active","ping":73},{"user_id":54,"name":"Watt Dafuq","steam_id":76561198194402925,"connected_time":825000000000,"state":"active","ping":78}]},{"server_id":108,"name":"Uncletopia | Dallas | 2 | All Maps","name_short":"dal-2","host":"dal-1.us.uncletopia.com","port":27025,"enabled":true,"region":"us-central","cc":"us","latitude":32.779167,"longitude":-96.80889,"reserved":0,"last_update":"0001-01-01T00:00:00Z","name_a2s":"Uncletopia | Dallas | 2 | All Maps","protocol":17,"map":"koth_highpass","folder":"tf","game":"Team Fortress","app_id":440,"player_count":0,"max_players":24,"Bots":0,"server_type":"Dedicated","server_os":"Linux","password":true,"vac":true,"version":"7757534","steam_id":85568392924469988,"keywords":["cp","nocrits","nodmgspread","uncletopia"],"game_id":440,"stv_port":27026,"stv_name":"Uncletopia | Dallas | 2 | All Maps | STV","players":null},{"server_id":5,"name":"Uncletopia | Frankfurt | 1 | All Maps","name_short":"frk-1","host":"frk-1.de.uncletopia.com","port":27015,"enabled":true,"region":"eu","cc":"de","latitude":50.110924,"longitude":8.682127,"reserved":0,"last_update":"0001-01-01T00:00:00Z","name_a2s":"Uncletopia | Frankfurt | 1 | All Maps","protocol":17,"map":"cp_sunshine","folder":"tf","game":"Team Fortress","app_id":440,"player_count":24,"max_players":24,"Bots":0,"server_type":"Dedicated","server_os":"Linux","password":true,"vac":true,"version":"7757534","steam_id":85568392924469989,"keywords":["cp","nocrits","nodmgspread","uncletopia"],"game_id":440,"stv_port":27016,"stv_name":"Uncletopia | Frankfurt | 1 | All Maps | STV","players":[{"user_id":293,"name":"wouris","steam_id":76561198876188003,"connected_time":1340000000000,"state":"active","ping":59},{"user_id":281,"name":"Udinese Dion","steam_id":76561198067931573,"connected_time":2202000000000,"state":"active","ping":44},{"user_id":269,"name":"Fuf!k ღ","steam_id":76561198082899416,"connected_time":2651000000000,"state":"active","ping":68},{"user_id":295,"name":"Acidpets","steam_id":76561198875421227,"connected_time":1278000000000,"state":"active","ping":60},{"user_id":301,"name":"son rke","steam_id":76561198083827094,"connected_time":1044000000000,"state":"active","ping":91},{"user_id":302,"name":"FlameTheGame","steam_id":76561198841108519,"connected_time":978000000000,"state":"active","ping":91},{"user_id":286,"name":"LordCommanderNeo","steam_id":76561198262986421,"connected_time":1531000000000,"state":"active","ping":59},{"user_id":287,"name":"asdlækasd 70 FPS KING","steam_id":76561198870764276,"connected_time":1505000000000,"state":"active","ping":76},{"user_id":308,"name":"Stoyach","steam_id":76561198042517412,"connected_time":564000000000,"state":"active","ping":55},{"user_id":288,"name":"The Command Prompt","steam_id":76561198154677956,"connected_time":1502000000000,"state":"active","ping":72},{"user_id":265,"name":"Wyremingo","steam_id":76561198314337596,"connected_time":3184000000000,"state":"active","ping":84},{"user_id":289,"name":"bad at gaem","steam_id":76561198072373587,"connected_time":1483000000000,"state":"active","ping":70},{"user_id":303,"name":"Molly from San Diego","steam_id":76561198031899793,"connected_time":976000000000,"state":"active","ping":69},{"user_id":255,"name":"Rops","steam_id":76561198031608011,"connected_time":3352000000000,"state":"active","ping":86},{"user_id":306,"name":"Vel0city","steam_id":76561198049687798,"connected_time":667000000000,"state":"active","ping":53},{"user_id":124,"name":"Bundle of Sticks","steam_id":76561198133782205,"connected_time":13465000000000,"state":"active","ping":139},{"user_id":305,"name":"KAZAM | Tervez","steam_id":76561198045459068,"connected_time":803000000000,"state":"active","ping":97},{"user_id":282,"name":"Welder","steam_id":76561198355300561,"connected_time":1765000000000,"state":"active","ping":65},{"user_id":311,"name":"Northwood","steam_id":76561198016533859,"connected_time":506000000000,"state":"active","ping":75},{"user_id":291,"name":"NiKoRo","steam_id":76561197963686614,"connected_time":1445000000000,"state":"active","ping":95},{"user_id":271,"name":"TrueDeadPool","steam_id":76561198060378867,"connected_time":2636000000000,"state":"active","ping":71},{"user_id":310,"name":"jovi_","steam_id":76561198449280552,"connected_time":551000000000,"state":"active","ping":64},{"user_id":300,"name":"Borloxos","steam_id":76561198123110073,"connected_time":1127000000000,"state":"active","ping":59},{"user_id":256,"name":"Duda","steam_id":76561198306177608,"connected_time":3351000000000,"state":"active","ping":73}]},{"server_id":110,"name":"Uncletopia | Frankfurt | 2 | All Maps","name_short":"frk-2","host":"frk-1.de.uncletopia.com","port":27025,"enabled":true,"region":"eu","cc":"de","latitude":50.110924,"longitude":8.682127,"reserved":0,"last_update":"0001-01-01T00:00:00Z","name_a2s":"Uncletopia | Frankfurt | 2 | All Maps","protocol":17,"map":"pl_borneo","folder":"tf","game":"Team Fortress","app_id":440,"player_count":24,"max_players":24,"Bots":0,"server_type":"Dedicated","server_os":"Linux","password":true,"vac":true,"version":"7757534","steam_id":85568392924469990,"keywords":["nocrits","nodmgspread","payload","uncletopia"],"game_id":440,"stv_port":27026,"stv_name":"Uncletopia | Frankfurt | 2 | All Maps | STV","players":[{"user_id":296,"name":"VIN WEASEL","steam_id":76561198014387066,"connected_time":1778000000000,"state":"active","ping":44},{"user_id":282,"name":"Vollys","steam_id":76561198018077773,"connected_time":3399000000000,"state":"active","ping":57},{"user_id":280,"name":"B0rеаl","steam_id":76561198268369013,"connected_time":3527000000000,"state":"active","ping":77},{"user_id":297,"name":"OW2Enjoyer","steam_id":76561199081695697,"connected_time":1651000000000,"state":"active","ping":74},{"user_id":210,"name":"jabar7","steam_id":76561198055137986,"connected_time":7599000000000,"state":"active","ping":60},{"user_id":278,"name":"moon","steam_id":76561199212557251,"connected_time":3831000000000,"state":"active","ping":131},{"user_id":302,"name":"Owlet","steam_id":76561198065613974,"connected_time":1346000000000,"state":"active","ping":63},{"user_id":327,"name":"Hellwach","steam_id":76561198123839837,"connected_time":20000000000,"state":"active","ping":62},{"user_id":212,"name":"veteran29","steam_id":76561197993041837,"connected_time":7481000000000,"state":"active","ping":55},{"user_id":301,"name":"Gjsöekakeurhdkfisgjchjateyvxsr","steam_id":76561198220571256,"connected_time":1367000000000,"state":"active","ping":60},{"user_id":285,"name":"Spazmatic","steam_id":76561198060956170,"connected_time":2259000000000,"state":"active","ping":93},{"user_id":303,"name":"miro","steam_id":76561198196357213,"connected_time":1338000000000,"state":"active","ping":90},{"user_id":322,"name":"Gio","steam_id":76561198292052836,"connected_time":456000000000,"state":"active","ping":99},{"user_id":321,"name":"Mr. Hunts","steam_id":76561197981910397,"connected_time":459000000000,"state":"active","ping":75},{"user_id":318,"name":"gus","steam_id":76561198876303958,"connected_time":947000000000,"state":"active","ping":116},{"user_id":319,"name":"!","steam_id":76561198427311326,"connected_time":903000000000,"state":"active","ping":84},{"user_id":323,"name":"PG","steam_id":76561198183722103,"connected_time":423000000000,"state":"active","ping":75},{"user_id":292,"name":"Vikep'S","steam_id":76561199002274689,"connected_time":2189000000000,"state":"active","ping":81},{"user_id":320,"name":"23","steam_id":76561198149347502,"connected_time":880000000000,"state":"active","ping":70},{"user_id":299,"name":"Tf2 Degreaser lover","steam_id":76561199137392321,"connected_time":1566000000000,"state":"active","ping":47},{"user_id":324,"name":"Lena ^^","steam_id":76561199435586696,"connected_time":256000000000,"state":"active","ping":91},{"user_id":325,"name":"apple","steam_id":76561198350676879,"connected_time":175000000000,"state":"active","ping":103},{"user_id":328,"name":"DrExplosive","steam_id":76561198063678579,"connected_time":20000000000,"state":"active","ping":51},{"user_id":315,"name":"♥ Purple Blood ♥ | P.U.R.","steam_id":76561198965998351,"connected_time":1036000000000,"state":"active","ping":81}]},{"server_id":308,"name":"Uncletopia | Frankfurt | 3 | All Maps","name_short":"frk-3","host":"frk-1.de.uncletopia.com","port":27035,"enabled":true,"region":"eu","cc":"de","latitude":50.110924,"longitude":8.682127,"reserved":0,"last_update":"0001-01-01T00:00:00Z","name_a2s":"Uncletopia | Frankfurt | 3 | All Maps","protocol":17,"map":"pl_badwater","folder":"tf","game":"Team Fortress","app_id":440,"player_count":24,"max_players":24,"Bots":0,"server_type":"Dedicated","server_os":"Linux","password":true,"vac":true,"version":"7757534","steam_id":85568392924504274,"keywords":["nocrits","nodmgspread","payload","uncletopia"],"game_id":440,"stv_port":27036,"stv_name":"Uncletopia | Frankfurt | 3 | All Maps | STV","players":[{"user_id":86,"name":"Jin","steam_id":76561198248878364,"connected_time":2582000000000,"state":"active","ping":45},{"user_id":54,"name":"blue","steam_id":76561198216200092,"connected_time":4241000000000,"state":"active","ping":64},{"user_id":81,"name":"Dedarrict","steam_id":76561198286179783,"connected_time":3081000000000,"state":"active","ping":87},{"user_id":82,"name":"Cuthbert","steam_id":76561198204649481,"connected_time":2939000000000,"state":"active","ping":100},{"user_id":67,"name":"Kingo","steam_id":76561198089439433,"connected_time":4099000000000,"state":"active","ping":72},{"user_id":106,"name":"shr1mple","steam_id":76561198173537027,"connected_time":1543000000000,"state":"active","ping":36},{"user_id":131,"name":"Snd","steam_id":76561198010816408,"connected_time":70000000000,"state":"active","ping":130},{"user_id":123,"name":"核nucleoneツ","steam_id":76561198099372569,"connected_time":762000000000,"state":"active","ping":60},{"user_id":88,"name":"Okacha","steam_id":76561198341166854,"connected_time":2563000000000,"state":"active","ping":104},{"user_id":115,"name":"ducks","steam_id":76561198166148685,"connected_time":989000000000,"state":"active","ping":45},{"user_id":105,"name":"Chocofrolik","steam_id":76561198454779847,"connected_time":1553000000000,"state":"active","ping":71},{"user_id":120,"name":"Garden Freeman","steam_id":76561199073314677,"connected_time":841000000000,"state":"active","ping":67},{"user_id":118,"name":"Karsapaali","steam_id":76561198322322739,"connected_time":938000000000,"state":"active","ping":81},{"user_id":116,"name":"Mr.Man","steam_id":76561199175688390,"connected_time":979000000000,"state":"active","ping":76},{"user_id":128,"name":"3igen3ggy","steam_id":76561197989548015,"connected_time":275000000000,"state":"active","ping":66},{"user_id":65,"name":"Enigmus","steam_id":76561197994063627,"connected_time":4139000000000,"state":"active","ping":84},{"user_id":95,"name":"ricky pee pee","steam_id":76561198152620745,"connected_time":2464000000000,"state":"active","ping":70},{"user_id":127,"name":"Infinithil","steam_id":76561198041273639,"connected_time":379000000000,"state":"active","ping":66},{"user_id":121,"name":"jt7","steam_id":76561198073655162,"connected_time":826000000000,"state":"active","ping":68},{"user_id":130,"name":"FELHEEE","steam_id":76561197987151150,"connected_time":142000000000,"state":"active","ping":91},{"user_id":129,"name":"daisydukesfan88","steam_id":76561198080173749,"connected_time":233000000000,"state":"active","ping":50},{"user_id":73,"name":"Wheeze","steam_id":76561198068752022,"connected_time":3620000000000,"state":"active","ping":75},{"user_id":77,"name":"AndLogin","steam_id":76561198108601962,"connected_time":3368000000000,"state":"active","ping":98},{"user_id":108,"name":"SantiThePug #ReviveTheCaber","steam_id":76561199049615996,"connected_time":1268000000000,"state":"active","ping":71}]},{"server_id":309,"name":"Uncletopia | Frankfurt | 4 | All Maps","name_short":"frk-4","host":"frk-1.de.uncletopia.com","port":27045,"enabled":true,"region":"eu","cc":"de","latitude":50.110924,"longitude":8.682127,"reserved":0,"last_update":"0001-01-01T00:00:00Z","name_a2s":"Uncletopia | Frankfurt | 4 | All Maps","protocol":17,"map":"pl_upward","folder":"tf","game":"Team Fortress","app_id":440,"player_count":26,"max_players":24,"Bots":0,"server_type":"Dedicated","server_os":"Linux","password":true,"vac":true,"version":"7757534","steam_id":85568392924504275,"keywords":["nocrits","nodmgspread","payload","uncletopia"],"game_id":440,"stv_port":27046,"stv_name":"Uncletopia | Frankfurt | 4 | All Maps | STV","players":[{"user_id":467,"name":"Gio'sMonkey","steam_id":76561198892432223,"connected_time":281000000000,"state":"active","ping":82},{"user_id":450,"name":"penisfinger","steam_id":76561198103904286,"connected_time":969000000000,"state":"active","ping":70},{"user_id":437,"name":"Allereinan","steam_id":76561198342239906,"connected_time":2115000000000,"state":"active","ping":108},{"user_id":472,"name":"UtkaBruuuuuuuuh","steam_id":76561199121584093,"connected_time":39000000000,"state":"spawning","ping":93},{"user_id":411,"name":"Kemalismus","steam_id":76561198394441106,"connected_time":3071000000000,"state":"active","ping":119},{"user_id":468,"name":"kpn","steam_id":76561198063512694,"connected_time":266000000000,"state":"active","ping":59},{"user_id":458,"name":"j100j","steam_id":76561198338726444,"connected_time":656000000000,"state":"active","ping":98},{"user_id":453,"name":"MAJAX","steam_id":76561198254828632,"connected_time":772000000000,"state":"active","ping":49},{"user_id":455,"name":"Masa (Finno-Ugric gentleman)","steam_id":76561198343396172,"connected_time":714000000000,"state":"active","ping":98},{"user_id":420,"name":"Asgaard","steam_id":76561198026516905,"connected_time":2711000000000,"state":"active","ping":103},{"user_id":446,"name":"InfamousAxe","steam_id":76561198099504739,"connected_time":1461000000000,"state":"active","ping":119},{"user_id":413,"name":"Dr. Chapsticky","steam_id":76561198148185178,"connected_time":2977000000000,"state":"active","ping":71},{"user_id":459,"name":"DeleteTrickster","steam_id":76561198397120242,"connected_time":632000000000,"state":"active","ping":85},{"user_id":382,"name":"banrab","steam_id":76561198083615367,"connected_time":4540000000000,"state":"active","ping":51},{"user_id":473,"name":":)","steam_id":76561198304917276,"connected_time":39000000000,"state":"active","ping":59},{"user_id":460,"name":"angry person (shwo ur fear)","steam_id":76561198259268001,"connected_time":612000000000,"state":"active","ping":71},{"user_id":465,"name":"theogliam","steam_id":76561198814626472,"connected_time":398000000000,"state":"active","ping":73},{"user_id":431,"name":"Gordon Birdman","steam_id":76561198013382324,"connected_time":2273000000000,"state":"active","ping":77},{"user_id":474,"name":"pampers","steam_id":76561199116919626,"connected_time":26000000000,"state":"spawning","ping":89},{"user_id":475,"name":"Pootis","steam_id":76561199316444116,"connected_time":1000000000,"state":"spawning","ping":89},{"user_id":464,"name":"ijustsmokeandcry","steam_id":76561198044189114,"connected_time":454000000000,"state":"active","ping":63},{"user_id":442,"name":"Salad's Warband","steam_id":76561198214089583,"connected_time":1753000000000,"state":"active","ping":55},{"user_id":462,"name":"MtnDew","steam_id":76561199100059743,"connected_time":587000000000,"state":"active","ping":107},{"user_id":456,"name":"o_o","steam_id":76561198113045011,"connected_time":696000000000,"state":"active","ping":90},{"user_id":470,"name":"a stick of butter","steam_id":76561198188393835,"connected_time":212000000000,"state":"active","ping":141},{"user_id":471,"name":"無関心","steam_id":76561198886007080,"connected_time":198000000000,"state":"active","ping":169}]},{"server_id":310,"name":"Uncletopia | Frankfurt | 5 | All Maps","name_short":"frk-5","host":"frk-1.de.uncletopia.com","port":27055,"enabled":true,"region":"eu","cc":"de","latitude":50.110924,"longitude":8.682127,"reserved":0,"last_update":"0001-01-01T00:00:00Z","name_a2s":"Uncletopia | Frankfurt | 5 | All Maps","protocol":17,"map":"pl_borneo","folder":"tf","game":"Team Fortress","app_id":440,"player_count":4,"max_players":24,"Bots":0,"server_type":"Dedicated","server_os":"Linux","password":true,"vac":true,"version":"7757534","steam_id":85568392924504277,"keywords":["nocrits","nodmgspread","payload","uncletopia"],"game_id":440,"stv_port":27056,"stv_name":"Uncletopia | Frankfurt | 5 | All Maps | STV","players":[{"user_id":17,"name":"posht0 ._.","steam_id":76561198106182078,"connected_time":290000000000,"state":"active","ping":106},{"user_id":18,"name":"sabaka jebanoia","steam_id":76561198147249160,"connected_time":258000000000,"state":"active","ping":100},{"user_id":20,"name":"Alec_76a","steam_id":76561198054305165,"connected_time":37000000000,"state":"spawning","ping":60},{"user_id":21,"name":"Literally Roxy's Wife Tsuyu","steam_id":76561198175421763,"connected_time":24000000000,"state":"active","ping":156}]},{"server_id":311,"name":"Uncletopia | Frankfurt | 6 | All Maps","name_short":"frk-6","host":"frk-1.de.uncletopia.com","port":27065,"enabled":true,"region":"eu","cc":"de","latitude":50.110924,"longitude":8.682127,"reserved":0,"last_update":"0001-01-01T00:00:00Z","name_a2s":"Uncletopia | Frankfurt | 6 | All Maps","protocol":17,"map":"pl_badwater","folder":"tf","game":"Team Fortress","app_id":440,"player_count":24,"max_players":24,"Bots":0,"server_type":"Dedicated","server_os":"Linux","password":true,"vac":true,"version":"7757534","steam_id":85568392924504278,"keywords":["nocrits","nodmgspread","payload","uncletopia"],"game_id":440,"stv_port":27066,"stv_name":"Uncletopia | Frankfurt | 6 | All Maps | STV","players":[{"user_id":177,"name":"After8","steam_id":76561198090750865,"connected_time":1036000000000,"state":"active","ping":63},{"user_id":181,"name":"Ben Doverr","steam_id":76561198034264020,"connected_time":898000000000,"state":"active","ping":107},{"user_id":146,"name":"twitch.tv/red_naxela","steam_id":76561197998803950,"connected_time":3659000000000,"state":"active","ping":79},{"user_id":193,"name":"sin","steam_id":76561198193416785,"connected_time":6000000000,"state":"spawning","ping":89},{"user_id":192,"name":"Лютый хуебес","steam_id":76561198110470565,"connected_time":81000000000,"state":"active","ping":320},{"user_id":134,"name":"Miton","steam_id":76561197970323209,"connected_time":4544000000000,"state":"active","ping":83},{"user_id":159,"name":"wickEd_","steam_id":76561198048068999,"connected_time":2697000000000,"state":"active","ping":159},{"user_id":138,"name":"vnm","steam_id":76561197996468677,"connected_time":4150000000000,"state":"active","ping":59},{"user_id":141,"name":"Malsi","steam_id":76561199061284165,"connected_time":4011000000000,"state":"active","ping":90},{"user_id":171,"name":"Mimic","steam_id":76561198064890253,"connected_time":1450000000000,"state":"active","ping":113},{"user_id":151,"name":"LionKing","steam_id":76561198023399545,"connected_time":3218000000000,"state":"active","ping":52},{"user_id":170,"name":"Princess Fuzz","steam_id":76561198025783000,"connected_time":1691000000000,"state":"active","ping":57},{"user_id":164,"name":"Leibeigener","steam_id":76561199275478305,"connected_time":2147000000000,"state":"active","ping":43},{"user_id":185,"name":"Syd","steam_id":76561198020515027,"connected_time":687000000000,"state":"active","ping":89},{"user_id":191,"name":"MAKENTAKEN","steam_id":76561199127359587,"connected_time":477000000000,"state":"active","ping":100},{"user_id":160,"name":"rz-/Atomic Punch","steam_id":76561199195508541,"connected_time":2643000000000,"state":"active","ping":82},{"user_id":182,"name":"i heal gay people","steam_id":76561198032167311,"connected_time":816000000000,"state":"active","ping":161},{"user_id":174,"name":"heykikidom","steam_id":76561198267574417,"connected_time":1304000000000,"state":"active","ping":104},{"user_id":105,"name":"Koda","steam_id":76561198142696299,"connected_time":5628000000000,"state":"active","ping":60},{"user_id":183,"name":"ALARM","steam_id":76561198120686521,"connected_time":787000000000,"state":"active","ping":58},{"user_id":184,"name":"Äärik ♣","steam_id":76561198131871737,"connected_time":704000000000,"state":"active","ping":52},{"user_id":161,"name":"mr breast (real)","steam_id":76561198365750503,"connected_time":2401000000000,"state":"active","ping":54},{"user_id":190,"name":"lofimonkeyjazz","steam_id":76561198117059662,"connected_time":528000000000,"state":"active","ping":88},{"user_id":179,"name":"Mozzaza","steam_id":76561198156316111,"connected_time":993000000000,"state":"active","ping":145}]},{"server_id":23,"name":"Uncletopia | Frankfurt | 7 | Stopwatch Beta","name_short":"frk-7","host":"frk-1.de.uncletopia.com","port":27075,"enabled":true,"region":"eu","cc":"de","latitude":50.110924,"longitude":8.682127,"reserved":0,"last_update":"0001-01-01T00:00:00Z","name_a2s":"Uncletopia | Frankfurt | 7 | Stopwatch Beta","protocol":17,"map":"workshop/koth_bagel_rc5.ugc2514036946","folder":"tf","game":"Team Fortress","app_id":440,"player_count":0,"max_players":24,"Bots":0,"server_type":"Dedicated","server_os":"Linux","password":true,"vac":true,"version":"7757534","steam_id":85568392924742827,"keywords":["cp","nocrits","nodmgspread","uncletopia"],"game_id":440,"stv_port":27076,"stv_name":"Uncletopia | Frankfurt | 7 | Stopwatch Beta | STV","players":null},{"server_id":24,"name":"Uncletopia | Frankfurt | 8 | Community","name_short":"frk-8","host":"frk-1.de.uncletopia.com","port":27085,"enabled":true,"region":"eu","cc":"de","latitude":50.110924,"longitude":8.682127,"reserved":0,"last_update":"0001-01-01T00:00:00Z","name_a2s":"Uncletopia | Frankfurt | 8 | Community","protocol":17,"map":"koth_cascade","folder":"tf","game":"Team Fortress","app_id":440,"player_count":6,"max_players":24,"Bots":0,"server_type":"Dedicated","server_os":"Linux","password":true,"vac":true,"version":"7757534","steam_id":85568392924742828,"keywords":["cp","nocrits","nodmgspread","uncletopia"],"game_id":440,"stv_port":27086,"stv_name":"Uncletopia | Frankfurt | 8 | Community | STV","players":[{"user_id":16,"name":"My Friend Deagol","steam_id":76561198450859507,"connected_time":873000000000,"state":"active","ping":62},{"user_id":17,"name":"Toscorp","steam_id":76561198353760522,"connected_time":847000000000,"state":"active","ping":75},{"user_id":22,"name":"Joro_Kudo","steam_id":76561198954912403,"connected_time":38000000000,"state":"active","ping":59},{"user_id":23,"name":"[BROBOT] Woteron","steam_id":76561198057425460,"connected_time":37000000000,"state":"active","ping":59},{"user_id":20,"name":"tealoverr.190","steam_id":76561199028497703,"connected_time":208000000000,"state":"active","ping":92},{"user_id":21,"name":"Stragnov☆","steam_id":76561198074702465,"connected_time":85000000000,"state":"active","ping":52}]},{"server_id":202,"name":"Uncletopia | Hong Kong | 1 | All Maps","name_short":"hgk-1","host":"hgk-1.hk.uncletopia.com","port":27015,"enabled":true,"region":"asia","cc":"hk","latitude":22.302711,"longitude":114.177216,"reserved":0,"last_update":"0001-01-01T00:00:00Z","name_a2s":"Uncletopia | Hong Kong | 1 | All Maps","protocol":17,"map":"koth_viaduct","folder":"tf","game":"Team Fortress","app_id":440,"player_count":0,"max_players":24,"Bots":0,"server_type":"Dedicated","server_os":"Linux","password":true,"vac":true,"version":"7757534","steam_id":85568392924494504,"keywords":["cp","nocrits","nodmgspread","uncletopia"],"game_id":440,"stv_port":27016,"stv_name":"Uncletopia | Hong Kong | 1 | All Maps | STV","players":null},{"server_id":1,"name":"Uncletopia | Los Angeles | 1 | All Maps","name_short":"lax-1","host":"lax-1.us.uncletopia.com","port":27015,"enabled":true,"region":"us-west","cc":"us","latitude":33.94279,"longitude":-118.41004,"reserved":0,"last_update":"0001-01-01T00:00:00Z","name_a2s":"Uncletopia | Los Angeles | 1 | All Maps","protocol":17,"map":"pl_frontier_final","folder":"tf","game":"Team Fortress","app_id":440,"player_count":1,"max_players":24,"Bots":0,"server_type":"Dedicated","server_os":"Linux","password":true,"vac":true,"version":"7757534","steam_id":85568392924469991,"keywords":["nocrits","nodmgspread","payload","uncletopia"],"game_id":440,"stv_port":27016,"stv_name":"Uncletopia | Los Angeles | 1 | All Maps | STV","players":[{"user_id":3,"name":"poob","steam_id":76561198312741463,"connected_time":536000000000,"state":"active","ping":44}]},{"server_id":112,"name":"Uncletopia | Los Angeles | 2 | All Maps","name_short":"lax-2","host":"lax-1.us.uncletopia.com","port":27025,"enabled":true,"region":"us-west","cc":"us","latitude":33.94279,"longitude":-118.41004,"reserved":0,"last_update":"0001-01-01T00:00:00Z","name_a2s":"Uncletopia | Los Angeles | 2 | All Maps","protocol":17,"map":"cp_mountainlab","folder":"tf","game":"Team Fortress","app_id":440,"player_count":0,"max_players":24,"Bots":0,"server_type":"Dedicated","server_os":"Linux","password":true,"vac":true,"version":"7757534","steam_id":85568392924469992,"keywords":["cp","nocrits","nodmgspread","uncletopia"],"game_id":440,"stv_port":27026,"stv_name":"Uncletopia | Los Angeles | 2 | All Maps | STV","players":null},{"server_id":324,"name":"Uncletopia | Los Angeles | 3 | All Maps","name_short":"lax-3","host":"lax-1.us.uncletopia.com","port":27035,"enabled":true,"region":"us-west","cc":"us","latitude":33.94279,"longitude":-118.41004,"reserved":0,"last_update":"0001-01-01T00:00:00Z","name_a2s":"Uncletopia | Los Angeles | 3 | All Maps","protocol":17,"map":"cp_snakewater_final1","folder":"tf","game":"Team Fortress","app_id":440,"player_count":0,"max_players":24,"Bots":0,"server_type":"Dedicated","server_os":"Linux","password":true,"vac":true,"version":"7757534","steam_id":85568392924510198,"keywords":["cp","nocrits","nodmgspread","uncletopia"],"game_id":440,"stv_port":27036,"stv_name":"Uncletopia | Los Angeles | 3 | All Maps | STV","players":null},{"server_id":25,"name":"Uncletopia | Los Angeles | 4 | Stopwatch Beta","name_short":"lax-4","host":"lax-1.us.uncletopia.com","port":27045,"enabled":true,"region":"us-west","cc":"us","latitude":33.94279,"longitude":-118.41004,"reserved":0,"last_update":"0001-01-01T00:00:00Z","name_a2s":"Uncletopia | Los Angeles | 4 | Stopwatch Beta","protocol":17,"map":"koth_viaduct","folder":"tf","game":"Team Fortress","app_id":440,"player_count":0,"max_players":24,"Bots":0,"server_type":"Dedicated","server_os":"Linux","password":true,"vac":true,"version":"7757534","steam_id":85568392924510199,"keywords":["cp","nocrits","nodmgspread","uncletopia"],"game_id":440,"stv_port":27046,"stv_name":"Uncletopia | Los Angeles | 4 | Stopwatch Beta | STV","players":null},{"server_id":11,"name":"Uncletopia | London | 1 | All Maps","name_short":"lon-1","host":"lon-1.uk.uncletopia.com","port":27015,"enabled":true,"region":"eu","cc":"gb","latitude":51.509865,"longitude":-0.118092,"reserved":0,"last_update":"0001-01-01T00:00:00Z","name_a2s":"Uncletopia | London | 1 | All Maps","protocol":17,"map":"pl_frontier_final","folder":"tf","game":"Team Fortress","app_id":440,"player_count":24,"max_players":24,"Bots":0,"server_type":"Dedicated","server_os":"Linux","password":true,"vac":true,"version":"7757534","steam_id":85568392924367362,"keywords":["nocrits","nodmgspread","payload","uncletopia"],"game_id":440,"stv_port":27016,"stv_name":"Uncletopia | London | 1 | All Maps | STV","players":[{"user_id":501,"name":"Milk","steam_id":76561198125876588,"connected_time":1564000000000,"state":"active","ping":53},{"user_id":493,"name":"Areck2","steam_id":76561199041737814,"connected_time":1943000000000,"state":"active","ping":39},{"user_id":496,"name":"$t@lker_Tim","steam_id":76561198963658042,"connected_time":1854000000000,"state":"active","ping":123},{"user_id":515,"name":"NYU film school graduate","steam_id":76561198133532980,"connected_time":1150000000000,"state":"active","ping":45},{"user_id":519,"name":"Posho","steam_id":76561198062396436,"connected_time":476000000000,"state":"active","ping":42},{"user_id":505,"name":"Toofy","steam_id":76561197989727907,"connected_time":1378000000000,"state":"active","ping":38},{"user_id":506,"name":"Kahvi","steam_id":76561198723244199,"connected_time":1368000000000,"state":"active","ping":77},{"user_id":520,"name":"ignitor \u003c3","steam_id":76561198218996844,"connected_time":359000000000,"state":"active","ping":63},{"user_id":434,"name":"♫★Xriasp★♫","steam_id":76561198104721321,"connected_time":5988000000000,"state":"active","ping":82},{"user_id":508,"name":"cyborgowl","steam_id":76561198057489492,"connected_time":1323000000000,"state":"active","ping":112},{"user_id":446,"name":"Motley_","steam_id":76561198116057976,"connected_time":5001000000000,"state":"active","ping":33},{"user_id":489,"name":"big tiddy cat girl","steam_id":76561198200607926,"connected_time":2176000000000,"state":"active","ping":91},{"user_id":518,"name":"homeinvasion$","steam_id":76561199111905021,"connected_time":978000000000,"state":"active","ping":123},{"user_id":490,"name":"manKe","steam_id":76561198008564860,"connected_time":2009000000000,"state":"active","ping":57},{"user_id":492,"name":"Gipsy","steam_id":76561198049084668,"connected_time":1966000000000,"state":"active","ping":69},{"user_id":510,"name":"MEDiUM","steam_id":76561198112328561,"connected_time":1282000000000,"state":"active","ping":87},{"user_id":480,"name":"Real (Real)","steam_id":76561198323425034,"connected_time":2819000000000,"state":"active","ping":70},{"user_id":476,"name":"ivanmixo","steam_id":76561198160213989,"connected_time":2925000000000,"state":"active","ping":67},{"user_id":517,"name":"Morbidone","steam_id":76561198001933006,"connected_time":1010000000000,"state":"active","ping":86},{"user_id":512,"name":"Penis Contortionist","steam_id":76561198073663784,"connected_time":1246000000000,"state":"active","ping":36},{"user_id":513,"name":"Jellyfish","steam_id":76561198034055703,"connected_time":1234000000000,"state":"active","ping":44},{"user_id":516,"name":"Frank Horrigan","steam_id":76561198055309704,"connected_time":1125000000000,"state":"active","ping":88},{"user_id":366,"name":"tactical783","steam_id":76561199051688560,"connected_time":10701000000000,"state":"active","ping":80},{"user_id":498,"name":"Irbynx","steam_id":76561197980421195,"connected_time":1839000000000,"state":"active","ping":76}]},{"server_id":114,"name":"Uncletopia | London | 2 | All Maps","name_short":"lon-2","host":"lon-1.uk.uncletopia.com","port":27025,"enabled":true,"region":"eu","cc":"gb","latitude":51.509865,"longitude":-0.118092,"reserved":0,"last_update":"0001-01-01T00:00:00Z","name_a2s":"Uncletopia | London | 2 | All Maps","protocol":17,"map":"cp_sunshine","folder":"tf","game":"Team Fortress","app_id":440,"player_count":24,"max_players":24,"Bots":0,"server_type":"Dedicated","server_os":"Linux","password":true,"vac":true,"version":"7757534","steam_id":85568392924470941,"keywords":["cp","nocrits","nodmgspread","uncletopia"],"game_id":440,"stv_port":27026,"stv_name":"Uncletopia | London | 2 | All Maps | STV","players":[{"user_id":64,"name":"The Sunnyshot","steam_id":76561198086787499,"connected_time":1602000000000,"state":"active","ping":68},{"user_id":65,"name":"Za_Warudo_69_420","steam_id":76561199172415952,"connected_time":1602000000000,"state":"active","ping":50},{"user_id":15,"name":"Some Kitty Cat","steam_id":76561198042315983,"connected_time":4181000000000,"state":"active","ping":86},{"user_id":74,"name":"Daud","steam_id":76561199177668753,"connected_time":844000000000,"state":"active","ping":65},{"user_id":68,"name":"Gunnyshot","steam_id":76561198156212942,"connected_time":1365000000000,"state":"active","ping":57},{"user_id":18,"name":"LobsterEmbodiment","steam_id":76561198027824852,"connected_time":4086000000000,"state":"active","ping":84},{"user_id":20,"name":"John from the IT department","steam_id":76561198800993575,"connected_time":3928000000000,"state":"active","ping":40},{"user_id":85,"name":"Velikan","steam_id":76561198842670241,"connected_time":162000000000,"state":"active","ping":75},{"user_id":75,"name":"n64 rumble pak","steam_id":76561198407084875,"connected_time":785000000000,"state":"active","ping":59},{"user_id":78,"name":"Jendos","steam_id":76561198026471272,"connected_time":729000000000,"state":"active","ping":106},{"user_id":69,"name":"Sonnakai","steam_id":76561198051688749,"connected_time":1262000000000,"state":"active","ping":39},{"user_id":57,"name":"Dom.","steam_id":76561199065917088,"connected_time":2013000000000,"state":"active","ping":63},{"user_id":32,"name":"emkoç","steam_id":76561198846782346,"connected_time":3732000000000,"state":"active","ping":113},{"user_id":28,"name":"Bobby Bucket","steam_id":76561199059021777,"connected_time":3756000000000,"state":"active","ping":76},{"user_id":35,"name":"Duck_gaming","steam_id":76561198841587079,"connected_time":3586000000000,"state":"active","ping":77},{"user_id":52,"name":"Lewylow","steam_id":76561198005425686,"connected_time":2107000000000,"state":"active","ping":52},{"user_id":46,"name":"Miczu555PL","steam_id":76561198058500895,"connected_time":3011000000000,"state":"active","ping":68},{"user_id":77,"name":"alex47ka","steam_id":76561198117847251,"connected_time":759000000000,"state":"active","ping":75},{"user_id":84,"name":"Negurescu","steam_id":76561198128777349,"connected_time":268000000000,"state":"active","ping":86},{"user_id":66,"name":"Fat Pigeon","steam_id":76561198817940142,"connected_time":1578000000000,"state":"active","ping":45},{"user_id":79,"name":"PEW-PEW","steam_id":76561199135229478,"connected_time":721000000000,"state":"active","ping":132},{"user_id":48,"name":"Chris Chan (real)","steam_id":76561199005562645,"connected_time":2590000000000,"state":"active","ping":100},{"user_id":80,"name":"DING DONG","steam_id":76561198111847899,"connected_time":716000000000,"state":"active","ping":75},{"user_id":82,"name":"Dwevy","steam_id":76561198090379437,"connected_time":478000000000,"state":"active","ping":52}]},{"server_id":320,"name":"Uncletopia | London | 3 | All Maps","name_short":"lon-3","host":"lon-1.uk.uncletopia.com","port":27035,"enabled":true,"region":"eu","cc":"gb","latitude":51.509865,"longitude":-0.118092,"reserved":0,"last_update":"0001-01-01T00:00:00Z","name_a2s":"Uncletopia | London | 3 | All Maps","protocol":17,"map":"koth_highpass","folder":"tf","game":"Team Fortress","app_id":440,"player_count":0,"max_players":24,"Bots":0,"server_type":"Dedicated","server_os":"Linux","password":true,"vac":true,"version":"7757534","steam_id":85568392924510192,"keywords":["cp","nocrits","nodmgspread","uncletopia"],"game_id":440,"stv_port":27036,"stv_name":"Uncletopia | London | 3 | All Maps | STV","players":null},{"server_id":321,"name":"Uncletopia | London | 4 | All Maps","name_short":"lon-4","host":"lon-1.uk.uncletopia.com","port":27045,"enabled":true,"region":"eu","cc":"gb","latitude":51.509865,"longitude":-0.118092,"reserved":0,"last_update":"0001-01-01T00:00:00Z","name_a2s":"Uncletopia | London | 4 | All Maps","protocol":17,"map":"koth_harvest_final","folder":"tf","game":"Team Fortress","app_id":440,"player_count":24,"max_players":24,"Bots":0,"server_type":"Dedicated","server_os":"Linux","password":true,"vac":true,"version":"7757534","steam_id":85568392924510193,"keywords":["cp","nocrits","nodmgspread","uncletopia"],"game_id":440,"stv_port":27046,"stv_name":"Uncletopia | London | 4 | All Maps | STV","players":[{"user_id":183,"name":"fume.","steam_id":76561197960476801,"connected_time":4041000000000,"state":"active","ping":55},{"user_id":226,"name":"MilkEnjoyer","steam_id":76561198323781374,"connected_time":530000000000,"state":"active","ping":83},{"user_id":227,"name":"juulsjo","steam_id":76561198139136726,"connected_time":511000000000,"state":"active","ping":60},{"user_id":235,"name":"Tank","steam_id":76561199059174576,"connected_time":334000000000,"state":"active","ping":181},{"user_id":205,"name":".quickfast.","steam_id":76561199438900919,"connected_time":2157000000000,"state":"active","ping":44},{"user_id":124,"name":"Balls","steam_id":76561198086400484,"connected_time":9367000000000,"state":"active","ping":79},{"user_id":229,"name":"Zembis","steam_id":76561198008017918,"connected_time":486000000000,"state":"active","ping":108},{"user_id":218,"name":"Windows Vista Cruiser","steam_id":76561198064102233,"connected_time":1351000000000,"state":"active","ping":55},{"user_id":141,"name":"CommanderX","steam_id":76561197991425069,"connected_time":8226000000000,"state":"active","ping":51},{"user_id":128,"name":"Pabs :D","steam_id":76561198000016962,"connected_time":9282000000000,"state":"active","ping":68},{"user_id":223,"name":"BLÅHAJ","steam_id":76561199353672293,"connected_time":870000000000,"state":"active","ping":58},{"user_id":217,"name":"CriticalShitter","steam_id":76561199234987779,"connected_time":1421000000000,"state":"active","ping":57},{"user_id":233,"name":"Cod","steam_id":76561198087848782,"connected_time":376000000000,"state":"active","ping":174},{"user_id":212,"name":"Noob_with_source","steam_id":76561198870362103,"connected_time":1637000000000,"state":"active","ping":56},{"user_id":160,"name":"тукку ирма","steam_id":76561197998715016,"connected_time":6578000000000,"state":"active","ping":60},{"user_id":162,"name":"Joseph Stalin","steam_id":76561198033199746,"connected_time":6572000000000,"state":"active","ping":48},{"user_id":240,"name":"miev","steam_id":76561198078278737,"connected_time":181000000000,"state":"active","ping":72},{"user_id":201,"name":"bigfutacock56","steam_id":76561198835619904,"connected_time":2245000000000,"state":"active","ping":118},{"user_id":242,"name":"day","steam_id":76561198260265302,"connected_time":34000000000,"state":"active","ping":46},{"user_id":239,"name":"Cossack","steam_id":76561198076661772,"connected_time":235000000000,"state":"active","ping":90},{"user_id":237,"name":"not drunk","steam_id":76561199184873889,"connected_time":271000000000,"state":"active","ping":57},{"user_id":234,"name":"Jaggy Snake","steam_id":76561197972779231,"connected_time":371000000000,"state":"active","ping":44},{"user_id":236,"name":"frutta","steam_id":76561198131786352,"connected_time":306000000000,"state":"active","ping":89},{"user_id":241,"name":"Uncle Terry","steam_id":76561198396415736,"connected_time":83000000000,"state":"active","ping":51}]},{"server_id":21,"name":"Uncletopia | London | 5 | All Maps","name_short":"lon-5","host":"lon-1.uk.uncletopia.com","port":27055,"enabled":true,"region":"eu","cc":"gb","latitude":51.509865,"longitude":-0.118092,"reserved":0,"last_update":"0001-01-01T00:00:00Z","name_a2s":"Uncletopia | London | 5 | All Maps","protocol":17,"map":"koth_harvest_final","folder":"tf","game":"Team Fortress","app_id":440,"player_count":23,"max_players":24,"Bots":0,"server_type":"Dedicated","server_os":"Linux","password":true,"vac":true,"version":"7757534","steam_id":85568392924742829,"keywords":["cp","nocrits","nodmgspread","uncletopia"],"game_id":440,"stv_port":27056,"stv_name":"Uncletopia | London | 5 | All Maps | STV","players":[{"user_id":186,"name":"Saken","steam_id":76561198049075295,"connected_time":2842000000000,"state":"active","ping":60},{"user_id":163,"name":"Na'vi Misato (by popular demand","steam_id":76561198130860698,"connected_time":4824000000000,"state":"active","ping":55},{"user_id":155,"name":"Zerfesh","steam_id":76561198117534358,"connected_time":5264000000000,"state":"active","ping":98},{"user_id":219,"name":"Lempii","steam_id":76561198433507634,"connected_time":659000000000,"state":"active","ping":91},{"user_id":215,"name":"that1pig","steam_id":76561198185459619,"connected_time":870000000000,"state":"active","ping":57},{"user_id":211,"name":"drew","steam_id":76561198012304706,"connected_time":925000000000,"state":"active","ping":105},{"user_id":203,"name":"Nobaddy","steam_id":76561198037871007,"connected_time":1552000000000,"state":"active","ping":79},{"user_id":185,"name":"cropping","steam_id":76561198026586456,"connected_time":2847000000000,"state":"active","ping":60},{"user_id":220,"name":"Hooggers","steam_id":76561198120447741,"connected_time":629000000000,"state":"active","ping":78},{"user_id":190,"name":"Breizbuc","steam_id":76561198118220633,"connected_time":2715000000000,"state":"active","ping":56},{"user_id":142,"name":"↑ + z","steam_id":76561198351154533,"connected_time":6369000000000,"state":"active","ping":56},{"user_id":208,"name":"shinji crank that soulja boy","steam_id":76561198099696876,"connected_time":994000000000,"state":"active","ping":74},{"user_id":200,"name":"Sky","steam_id":76561198087415698,"connected_time":1970000000000,"state":"active","ping":46},{"user_id":216,"name":"Shio","steam_id":76561198127332317,"connected_time":803000000000,"state":"active","ping":74},{"user_id":188,"name":"lark","steam_id":76561198091724522,"connected_time":2825000000000,"state":"active","ping":47},{"user_id":221,"name":"Bob_Tostas","steam_id":76561198249006560,"connected_time":345000000000,"state":"active","ping":85},{"user_id":202,"name":"K.V. #RemoveRandomCrits","steam_id":76561197994832993,"connected_time":1725000000000,"state":"active","ping":96},{"user_id":217,"name":"WiiSportKing","steam_id":76561198114139081,"connected_time":791000000000,"state":"active","ping":55},{"user_id":213,"name":"Daan77","steam_id":76561198129940468,"connected_time":893000000000,"state":"active","ping":81},{"user_id":222,"name":"Papa John's Pepperoni Pizza","steam_id":76561198078844080,"connected_time":260000000000,"state":"active","ping":70},{"user_id":158,"name":"lazoboy","steam_id":76561199074095198,"connected_time":5145000000000,"state":"active","ping":117},{"user_id":214,"name":"sesw","steam_id":76561198057332404,"connected_time":891000000000,"state":"active","ping":58},{"user_id":182,"name":"Dark Souls Reference","steam_id":76561198094102747,"connected_time":3141000000000,"state":"active","ping":55}]},{"server_id":22,"name":"Uncletopia | London | 6 | All Maps","name_short":"lon-6","host":"lon-1.uk.uncletopia.com","port":27065,"enabled":true,"region":"eu","cc":"gb","latitude":51.509865,"longitude":-0.118092,"reserved":0,"last_update":"0001-01-01T00:00:00Z","name_a2s":"Uncletopia | London | 6 | All Maps","protocol":17,"map":"pl_snowycoast","folder":"tf","game":"Team Fortress","app_id":440,"player_count":0,"max_players":24,"Bots":0,"server_type":"Dedicated","server_os":"Linux","password":true,"vac":true,"version":"7757534","steam_id":85568392924742830,"keywords":["nocrits","nodmgspread","payload","uncletopia"],"game_id":440,"stv_port":27066,"stv_name":"Uncletopia | London | 6 | All Maps | STV","players":null},{"server_id":40,"name":"Uncletopia | London | 7 | No Payload","name_short":"lon-7","host":"lon-1.uk.uncletopia.com","port":27075,"enabled":true,"region":"eu","cc":"gb","latitude":51.509865,"longitude":-0.118092,"reserved":0,"last_update":"0001-01-01T00:00:00Z","name_a2s":"Uncletopia | London | 7 | No Payload","protocol":17,"map":"cp_standin_final","folder":"tf","game":"Team Fortress","app_id":440,"player_count":0,"max_players":24,"Bots":0,"server_type":"Dedicated","server_os":"Linux","password":true,"vac":true,"version":"7757534","steam_id":85568392924964314,"keywords":["cp","nocrits","nodmgspread","uncletopia"],"game_id":440,"stv_port":27076,"stv_name":"Uncletopia | London | 7 | No Payload | STV","players":null},{"server_id":41,"name":"Uncletopia | London | 8 | Community","name_short":"lon-8","host":"lon-1.uk.uncletopia.com","port":27085,"enabled":true,"region":"eu","cc":"gb","latitude":51.509865,"longitude":-0.118092,"reserved":0,"last_update":"0001-01-01T00:00:00Z","name_a2s":"Uncletopia | London | 8 | Community","protocol":17,"map":"workshop/koth_product_final.ugc454272353","folder":"tf","game":"Team Fortress","app_id":440,"player_count":0,"max_players":24,"Bots":0,"server_type":"Dedicated","server_os":"Linux","password":true,"vac":true,"version":"7757534","steam_id":85568392924964315,"keywords":["cp","nocrits","nodmgspread","uncletopia"],"game_id":440,"stv_port":27086,"stv_name":"Uncletopia | London | 8 | Community | STV","players":null},{"server_id":300,"name":"Uncletopia | Montréal | 1 | All Maps","name_short":"mtl-1","host":"mtl-1.ca.uncletopia.com","port":27015,"enabled":true,"region":"us-east","cc":"ca","latitude":45.50889,"longitude":-73.56167,"reserved":0,"last_update":"0001-01-01T00:00:00Z","name_a2s":"Uncletopia | Montréal | 1 | All Maps","protocol":17,"map":"koth_cascade","folder":"tf","game":"Team Fortress","app_id":440,"player_count":0,"max_players":24,"Bots":0,"server_type":"Dedicated","server_os":"Linux","password":true,"vac":true,"version":"7757534","steam_id":85568392924500087,"keywords":["cp","nocrits","nodmgspread","uncletopia"],"game_id":440,"stv_port":27016,"stv_name":"Uncletopia | Montréal | 1 | All Maps | STV","players":null},{"server_id":301,"name":"Uncletopia | Montréal | 2 | All Maps","name_short":"mtl-2","host":"mtl-1.ca.uncletopia.com","port":27025,"enabled":true,"region":"us-east","cc":"ca","latitude":45.50889,"longitude":-73.56167,"reserved":0,"last_update":"0001-01-01T00:00:00Z","name_a2s":"Uncletopia | Montréal | 2 | All Maps","protocol":17,"map":"pl_borneo","folder":"tf","game":"Team Fortress","app_id":440,"player_count":0,"max_players":24,"Bots":0,"server_type":"Dedicated","server_os":"Linux","password":true,"vac":true,"version":"7757534","steam_id":85568392924500088,"keywords":["nocrits","nodmgspread","payload","uncletopia"],"game_id":440,"stv_port":27026,"stv_name":"Uncletopia | Montréal | 2 | All Maps | STV","players":null},{"server_id":302,"name":"Uncletopia | Montréal | 3 | All Maps","name_short":"mtl-3","host":"mtl-1.ca.uncletopia.com","port":27035,"enabled":true,"region":"us-east","cc":"ca","latitude":45.50889,"longitude":-73.56167,"reserved":0,"last_update":"0001-01-01T00:00:00Z","name_a2s":"Uncletopia | Montréal | 3 | All Maps","protocol":17,"map":"cp_sunshine","folder":"tf","game":"Team Fortress","app_id":440,"player_count":0,"max_players":24,"Bots":0,"server_type":"Dedicated","server_os":"Linux","password":true,"vac":true,"version":"7757534","steam_id":85568392924500089,"keywords":["cp","nocrits","nodmgspread","uncletopia"],"game_id":440,"stv_port":27036,"stv_name":"Uncletopia | Montréal | 3 | All Maps | STV","players":null},{"server_id":303,"name":"Uncletopia | Montréal | 4 | No Payload","name_short":"mtl-4","host":"mtl-1.ca.uncletopia.com","port":27045,"enabled":true,"region":"us-east","cc":"ca","latitude":45.50889,"longitude":-73.56167,"reserved":0,"last_update":"0001-01-01T00:00:00Z","name_a2s":"Uncletopia | Montréal | 4 | No Payload","protocol":17,"map":"koth_lakeside_final","folder":"tf","game":"Team Fortress","app_id":440,"player_count":0,"max_players":24,"Bots":0,"server_type":"Dedicated","server_os":"Linux","password":true,"vac":true,"version":"7757534","steam_id":85568392924500090,"keywords":["cp","nocrits","nodmgspread","uncletopia"],"game_id":440,"stv_port":27046,"stv_name":"Uncletopia | Montréal | 4 | No Payload | STV","players":null},{"server_id":13,"name":"Uncletopia | New York City | 1 | All Maps","name_short":"nyc-1","host":"nyc-1.us.uncletopia.com","port":27015,"enabled":true,"region":"us-east","cc":"us","latitude":40.73061,"longitude":-73.93524,"reserved":0,"last_update":"0001-01-01T00:00:00Z","name_a2s":"Uncletopia | New York City | 1 | All Maps","protocol":17,"map":"cp_dustbowl","folder":"tf","game":"Team Fortress","app_id":440,"player_count":22,"max_players":24,"Bots":0,"server_type":"Dedicated","server_os":"Linux","password":true,"vac":true,"version":"7757534","steam_id":85568392924469993,"keywords":["cp","nocrits","nodmgspread","uncletopia"],"game_id":440,"stv_port":27016,"stv_name":"Uncletopia | New York City | 1 | All Maps | STV","players":[{"user_id":80,"name":"Goreguy122","steam_id":76561198063359352,"connected_time":1905000000000,"state":"active","ping":70},{"user_id":100,"name":"F0restFerret","steam_id":76561199112458876,"connected_time":554000000000,"state":"active","ping":52},{"user_id":90,"name":"blademiss","steam_id":76561198062083019,"connected_time":1241000000000,"state":"active","ping":109},{"user_id":82,"name":"'LaxAttack","steam_id":76561198044129346,"connected_time":1728000000000,"state":"active","ping":60},{"user_id":55,"name":"Zoro (Hun)","steam_id":76561199367182571,"connected_time":4910000000000,"state":"active","ping":404},{"user_id":83,"name":"joyeuxnoelle","steam_id":76561198062423120,"connected_time":1592000000000,"state":"active","ping":60},{"user_id":85,"name":"CMAhappy","steam_id":76561198336929808,"connected_time":1521000000000,"state":"active","ping":75},{"user_id":86,"name":"john","steam_id":76561198305291693,"connected_time":1513000000000,"state":"active","ping":79},{"user_id":91,"name":"glaceon gaming","steam_id":76561198163993775,"connected_time":1155000000000,"state":"active","ping":61},{"user_id":36,"name":"the owner of a headache","steam_id":76561198862623007,"connected_time":5567000000000,"state":"active","ping":151},{"user_id":63,"name":"Bozanimal","steam_id":76561198044096897,"connected_time":4262000000000,"state":"active","ping":45},{"user_id":88,"name":"LalitoTV","steam_id":76561198334302951,"connected_time":1405000000000,"state":"active","ping":132},{"user_id":47,"name":"Hwebuy","steam_id":76561199121861053,"connected_time":5209000000000,"state":"active","ping":143},{"user_id":103,"name":"dog","steam_id":76561198295237946,"connected_time":314000000000,"state":"active","ping":73},{"user_id":93,"name":"2020 RX 350","steam_id":76561199123332348,"connected_time":1120000000000,"state":"active","ping":64},{"user_id":104,"name":"sgreem","steam_id":76561199201193379,"connected_time":182000000000,"state":"active","ping":87},{"user_id":101,"name":"Superhoovey?","steam_id":76561198272561730,"connected_time":493000000000,"state":"active","ping":133},{"user_id":77,"name":"CthUwU","steam_id":76561198036541581,"connected_time":2337000000000,"state":"active","ping":60},{"user_id":64,"name":"Stargazer","steam_id":76561198075490415,"connected_time":3714000000000,"state":"active","ping":75},{"user_id":96,"name":"Warzard","steam_id":76561199154051413,"connected_time":819000000000,"state":"active","ping":102},{"user_id":97,"name":"abolish the federal reserve","steam_id":76561198047796437,"connected_time":804000000000,"state":"active","ping":120},{"user_id":102,"name":"Entomophilia","steam_id":76561198980062131,"connected_time":455000000000,"state":"active","ping":70}]},{"server_id":14,"name":"Uncletopia | New York City | 2 | All Maps","name_short":"nyc-2","host":"nyc-1.us.uncletopia.com","port":27025,"enabled":true,"region":"us-east","cc":"us","latitude":40.73061,"longitude":-73.93524,"reserved":0,"last_update":"0001-01-01T00:00:00Z","name_a2s":"Uncletopia | New York City | 2 | All Maps","protocol":17,"map":"pl_snowycoast","folder":"tf","game":"Team Fortress","app_id":440,"player_count":4,"max_players":24,"Bots":0,"server_type":"Dedicated","server_os":"Linux","password":true,"vac":true,"version":"7757534","steam_id":85568392924469994,"keywords":["nocrits","nodmgspread","payload","uncletopia"],"game_id":440,"stv_port":27026,"stv_name":"Uncletopia | New York City | 2 | All Maps | STV","players":[{"user_id":3,"name":"Cass256","steam_id":76561198061188829,"connected_time":228000000000,"state":"active","ping":75},{"user_id":4,"name":"SSJB FunkyBoy","steam_id":76561198098327555,"connected_time":216000000000,"state":"active","ping":98},{"user_id":5,"name":"tasty","steam_id":76561198083839061,"connected_time":105000000000,"state":"active","ping":61},{"user_id":6,"name":"Lime","steam_id":76561198104953902,"connected_time":44000000000,"state":"active","ping":55}]},{"server_id":15,"name":"Uncletopia | New York City | 3 | Stopwatch Beta","name_short":"nyc-3","host":"nyc-1.us.uncletopia.com","port":27035,"enabled":true,"region":"us-east","cc":"us","latitude":40.73061,"longitude":-73.93524,"reserved":0,"last_update":"0001-01-01T00:00:00Z","name_a2s":"Uncletopia | New York City | 3 | Stopwatch Beta","protocol":17,"map":"koth_lakeside_final","folder":"tf","game":"Team Fortress","app_id":440,"player_count":0,"max_players":24,"Bots":0,"server_type":"Dedicated","server_os":"Linux","password":true,"vac":true,"version":"7757534","steam_id":85568392924742820,"keywords":["cp","nocrits","nodmgspread","uncletopia"],"game_id":440,"stv_port":27036,"stv_name":"Uncletopia | New York City | 3 | Stopwatch Beta | STV","players":null},{"server_id":16,"name":"Uncletopia | New York City | 4 | Community","name_short":"nyc-4","host":"nyc-1.us.uncletopia.com","port":27045,"enabled":true,"region":"us-east","cc":"us","latitude":40.73061,"longitude":-73.93524,"reserved":0,"last_update":"0001-01-01T00:00:00Z","name_a2s":"Uncletopia | New York City | 4 | Community","protocol":17,"map":"pl_borneo","folder":"tf","game":"Team Fortress","app_id":440,"player_count":0,"max_players":24,"Bots":0,"server_type":"Dedicated","server_os":"Linux","password":true,"vac":true,"version":"7757534","steam_id":85568392924742821,"keywords":["nocrits","nodmgspread","payload","uncletopia"],"game_id":440,"stv_port":27046,"stv_name":"Uncletopia | New York City | 4 | Community | STV","players":null},{"server_id":142,"name":"Uncletopia | São Paulo | 1 | All Maps","name_short":"sao-1","host":"sao-1.br.uncletopia.com","port":27015,"enabled":true,"region":"sa","cc":"br","latitude":-23.533773,"longitude":-46.62529,"reserved":0,"last_update":"0001-01-01T00:00:00Z","name_a2s":"Uncletopia | São Paulo | 1 | All Maps","protocol":17,"map":"cp_altitude","folder":"tf","game":"Team Fortress","app_id":440,"player_count":0,"max_players":24,"Bots":0,"server_type":"Dedicated","server_os":"Linux","password":true,"vac":true,"version":"7757534","steam_id":85568392924469996,"keywords":["cp","nocrits","nodmgspread","uncletopia"],"game_id":440,"stv_port":27016,"stv_name":"Uncletopia | São Paulo | 1 | All Maps | STV","players":null},{"server_id":143,"name":"Uncletopia | São Paulo | 2 | All Maps","name_short":"sao-2","host":"sao-2.br.uncletopia.com","port":27015,"enabled":true,"region":"sa","cc":"br","latitude":-23.533773,"longitude":-46.62529,"reserved":0,"last_update":"0001-01-01T00:00:00Z","name_a2s":"Uncletopia | São Paulo | 2 | All Maps","protocol":17,"map":"pl_swiftwater_final1","folder":"tf","game":"Team Fortress","app_id":440,"player_count":20,"max_players":24,"Bots":0,"server_type":"Dedicated","server_os":"Linux","password":true,"vac":true,"version":"7757534","steam_id":85568392924485349,"keywords":["nocrits","nodmgspread","payload","uncletopia"],"game_id":440,"stv_port":27016,"stv_name":"Uncletopia | São Paulo | 2 | All Maps | STV","players":[{"user_id":50,"name":"Mealy","steam_id":76561198120438379,"connected_time":2273000000000,"state":"active","ping":54},{"user_id":83,"name":"Ashrocks","steam_id":76561198051352940,"connected_time":33000000000,"state":"active","ping":253},{"user_id":56,"name":"Thresh Gamer","steam_id":76561198268932383,"connected_time":1908000000000,"state":"active","ping":43},{"user_id":42,"name":"olhoduro","steam_id":76561198172428219,"connected_time":2962000000000,"state":"active","ping":55},{"user_id":20,"name":"ghile","steam_id":76561198154367370,"connected_time":4271000000000,"state":"active","ping":69},{"user_id":66,"name":"Bytter","steam_id":76561198318968990,"connected_time":1069000000000,"state":"active","ping":50},{"user_id":63,"name":"daisy","steam_id":76561198801487875,"connected_time":1350000000000,"state":"active","ping":57},{"user_id":23,"name":"crayzzer","steam_id":76561198371255728,"connected_time":4180000000000,"state":"active","ping":53},{"user_id":74,"name":"NivE","steam_id":76561198247922848,"connected_time":635000000000,"state":"active","ping":84},{"user_id":75,"name":"joaoivomogu","steam_id":76561198090381468,"connected_time":611000000000,"state":"active","ping":57},{"user_id":70,"name":"n.","steam_id":76561198963738808,"connected_time":976000000000,"state":"active","ping":38},{"user_id":82,"name":"The Square Engineer","steam_id":76561199077687042,"connected_time":114000000000,"state":"active","ping":48},{"user_id":52,"name":"Au Revoir","steam_id":76561198176626650,"connected_time":2061000000000,"state":"active","ping":45},{"user_id":58,"name":"lilmanbigtalk","steam_id":76561198847459548,"connected_time":1726000000000,"state":"active","ping":52},{"user_id":77,"name":"Sanches","steam_id":76561198006932156,"connected_time":357000000000,"state":"active","ping":81},{"user_id":47,"name":"leleu_sa","steam_id":76561198271196220,"connected_time":2561000000000,"state":"active","ping":81},{"user_id":40,"name":"MKaid","steam_id":76561198311950553,"connected_time":3165000000000,"state":"active","ping":67},{"user_id":71,"name":"MidNightPoison","steam_id":76561199071181809,"connected_time":921000000000,"state":"active","ping":75},{"user_id":72,"name":"Sistema Nervoso Central","steam_id":76561198997384723,"connected_time":914000000000,"state":"active","ping":43},{"user_id":79,"name":"Braul","steam_id":76561198067738196,"connected_time":305000000000,"state":"active","ping":93}]},{"server_id":7,"name":"Uncletopia | Seattle | 1 | All Maps","name_short":"sea-1","host":"sea-1.us.uncletopia.com","port":27015,"enabled":true,"region":"us-west","cc":"us","latitude":47.608013,"longitude":-122.33517,"reserved":0,"last_update":"0001-01-01T00:00:00Z","name_a2s":"Uncletopia | Seattle | 1 | All Maps","protocol":17,"map":"cp_snakewater_final1","folder":"tf","game":"Team Fortress","app_id":440,"player_count":0,"max_players":24,"Bots":0,"server_type":"Dedicated","server_os":"Linux","password":true,"vac":true,"version":"7757534","steam_id":85568392924469997,"keywords":["cp","nocrits","nodmgspread","uncletopia"],"game_id":440,"stv_port":27016,"stv_name":"Uncletopia | Seattle | 1 | All Maps | STV","players":null},{"server_id":119,"name":"Uncletopia | Seattle | 2 | All Maps","name_short":"sea-2","host":"sea-1.us.uncletopia.com","port":27025,"enabled":true,"region":"us-west","cc":"us","latitude":47.608013,"longitude":-122.33517,"reserved":0,"last_update":"0001-01-01T00:00:00Z","name_a2s":"Uncletopia | Seattle | 2 | All Maps","protocol":17,"map":"cp_process_final","folder":"tf","game":"Team Fortress","app_id":440,"player_count":0,"max_players":24,"Bots":0,"server_type":"Dedicated","server_os":"Linux","password":true,"vac":true,"version":"7757534","steam_id":85568392924469998,"keywords":["cp","nocrits","nodmgspread","uncletopia"],"game_id":440,"stv_port":27026,"stv_name":"Uncletopia | Seattle | 2 | All Maps | STV","players":null},{"server_id":406,"name":"Uncletopia | Seattle | 3 | Stopwatch Beta","name_short":"sea-3","host":"sea-1.us.uncletopia.com","port":27035,"enabled":true,"region":"us-west","cc":"us","latitude":47.608013,"longitude":-122.33517,"reserved":0,"last_update":"0001-01-01T00:00:00Z","name_a2s":"Uncletopia | Seattle | 3 | Stopwatch Beta","protocol":17,"map":"cp_sunshine","folder":"tf","game":"Team Fortress","app_id":440,"player_count":0,"max_players":24,"Bots":0,"server_type":"Dedicated","server_os":"Linux","password":true,"vac":true,"version":"7757534","steam_id":85568392924515217,"keywords":["cp","nocrits","nodmgspread","uncletopia"],"game_id":440,"stv_port":27036,"stv_name":"Uncletopia | Seattle | 3 | Stopwatch Beta | STV","players":null},{"server_id":17,"name":"Uncletopia | San Francisco | 1 | All Maps","name_short":"sfo-1","host":"sfo-1.us.uncletopia.com","port":27015,"enabled":true,"region":"us-west","cc":"us","latitude":37.77397,"longitude":-122.4313,"reserved":0,"last_update":"0001-01-01T00:00:00Z","name_a2s":"Uncletopia | San Francisco | 1 | All Maps","protocol":17,"map":"cp_snakewater_final1","folder":"tf","game":"Team Fortress","app_id":440,"player_count":0,"max_players":24,"Bots":0,"server_type":"Dedicated","server_os":"Linux","password":true,"vac":true,"version":"7757534","steam_id":85568392924469999,"keywords":["cp","nocrits","nodmgspread","uncletopia"],"game_id":440,"stv_port":27016,"stv_name":"Uncletopia | San Francisco | 1 | All Maps | STV","players":null},{"server_id":18,"name":"Uncletopia | San Francisco | 2 | All Maps","name_short":"sfo-2","host":"sfo-1.us.uncletopia.com","port":27025,"enabled":true,"region":"us-west","cc":"us","latitude":37.77397,"longitude":-122.4313,"reserved":0,"last_update":"0001-01-01T00:00:00Z","name_a2s":"Uncletopia | San Francisco | 2 | All Maps","protocol":17,"map":"cp_mountainlab","folder":"tf","game":"Team Fortress","app_id":440,"player_count":0,"max_players":24,"Bots":0,"server_type":"Dedicated","server_os":"Linux","password":true,"vac":true,"version":"7757534","steam_id":85568392924470000,"keywords":["cp","nocrits","nodmgspread","uncletopia"],"game_id":440,"stv_port":27026,"stv_name":"Uncletopia | San Francisco | 2 | All Maps | STV","players":null},{"server_id":19,"name":"Uncletopia | San Francisco | 3 | Stopwatch Beta","name_short":"sfo-3","host":"sfo-1.us.uncletopia.com","port":27035,"enabled":true,"region":"us-west","cc":"us","latitude":37.77397,"longitude":-122.4313,"reserved":0,"last_update":"0001-01-01T00:00:00Z","name_a2s":"Uncletopia | San Francisco | 3 | Stopwatch Beta","protocol":17,"map":"koth_viaduct","folder":"tf","game":"Team Fortress","app_id":440,"player_count":0,"max_players":24,"Bots":0,"server_type":"Dedicated","server_os":"Linux","password":true,"vac":true,"version":"7757534","steam_id":85568392924742824,"keywords":["cp","nocrits","nodmgspread","uncletopia"],"game_id":440,"stv_port":27036,"stv_name":"Uncletopia | San Francisco | 3 | Stopwatch Beta | STV","players":null},{"server_id":20,"name":"Uncletopia | San Francisco | 4 | Community","name_short":"sfo-4","host":"sfo-1.us.uncletopia.com","port":27045,"enabled":true,"region":"us-west","cc":"us","latitude":37.77397,"longitude":-122.4313,"reserved":0,"last_update":"0001-01-01T00:00:00Z","name_a2s":"Uncletopia | San Francisco | 4 | Community","protocol":17,"map":"pl_borneo","folder":"tf","game":"Team Fortress","app_id":440,"player_count":0,"max_players":24,"Bots":0,"server_type":"Dedicated","server_os":"Linux","password":true,"vac":true,"version":"7757534","steam_id":85568392924742826,"keywords":["nocrits","nodmgspread","payload","uncletopia"],"game_id":440,"stv_port":27046,"stv_name":"Uncletopia | San Francisco | 4 | Community | STV","players":null},{"server_id":141,"name":"Uncletopia | Sydney | 1 | All Maps","name_short":"syd-1","host":"syd-1.au.uncletopia.com","port":27015,"enabled":true,"region":"au","cc":"au","latitude":-33.865143,"longitude":151.2099,"reserved":0,"last_update":"0001-01-01T00:00:00Z","name_a2s":"Uncletopia | Sydney | 1 | All Maps","protocol":17,"map":"koth_cascade","folder":"tf","game":"Team Fortress","app_id":440,"player_count":0,"max_players":24,"Bots":0,"server_type":"Dedicated","server_os":"Linux","password":true,"vac":true,"version":"7757534","steam_id":85568392924470001,"keywords":["cp","nocrits","nodmgspread","uncletopia"],"game_id":440,"stv_port":27016,"stv_name":"Uncletopia | Sydney | 1 | All Maps | STV","players":null},{"server_id":123,"name":"Uncletopia | Sydney | 2 | All Maps","name_short":"syd-2","host":"syd-1.au.uncletopia.com","port":27025,"enabled":true,"region":"au","cc":"au","latitude":-33.865143,"longitude":151.2099,"reserved":0,"last_update":"0001-01-01T00:00:00Z","name_a2s":"Uncletopia | Sydney | 2 | All Maps","protocol":17,"map":"koth_lakeside_final","folder":"tf","game":"Team Fortress","app_id":440,"player_count":0,"max_players":24,"Bots":0,"server_type":"Dedicated","server_os":"Linux","password":true,"vac":true,"version":"7757534","steam_id":85568392924470002,"keywords":["cp","nocrits","nodmgspread","uncletopia"],"game_id":440,"stv_port":27026,"stv_name":"Uncletopia | Sydney | 2 | All Maps | STV","players":null},{"server_id":395,"name":"Uncletopia | Sydney | 3 | All Maps","name_short":"syd-3","host":"syd-1.au.uncletopia.com","port":27035,"enabled":true,"region":"au","cc":"au","latitude":-33.865143,"longitude":151.2099,"reserved":0,"last_update":"0001-01-01T00:00:00Z","name_a2s":"Uncletopia | Sydney | 3 | All Maps","protocol":17,"map":"cp_dustbowl","folder":"tf","game":"Team Fortress","app_id":440,"player_count":0,"max_players":24,"Bots":0,"server_type":"Dedicated","server_os":"Linux","password":true,"vac":true,"version":"7757534","steam_id":85568392925194467,"keywords":["cp","nocrits","nodmgspread","uncletopia"],"game_id":440,"stv_port":27036,"stv_name":"Uncletopia | Sydney | 3 | All Maps | STV","players":null},{"server_id":396,"name":"Uncletopia | Sydney | 4 | All Maps","name_short":"syd-4","host":"syd-1.au.uncletopia.com","port":27045,"enabled":true,"region":"au","cc":"au","latitude":-33.865143,"longitude":151.2099,"reserved":0,"last_update":"0001-01-01T00:00:00Z","name_a2s":"Uncletopia | Sydney | 4 | All Maps","protocol":17,"map":"koth_highpass","folder":"tf","game":"Team Fortress","app_id":440,"player_count":0,"max_players":24,"Bots":0,"server_type":"Dedicated","server_os":"Linux","password":true,"vac":true,"version":"7757534","steam_id":85568392925397958,"keywords":["cp","nocrits","nodmgspread","uncletopia"],"game_id":440,"stv_port":27046,"stv_name":"Uncletopia | Sydney | 4 | All Maps | STV","players":null},{"server_id":58,"name":"Uncletopia | Sydney | 5 | Stopwatch Beta","name_short":"syd-5","host":"syd-1.au.uncletopia.com","port":27055,"enabled":true,"region":"au","cc":"au","latitude":-33.865143,"longitude":151.2099,"reserved":0,"last_update":"0001-01-01T00:00:00Z","name_a2s":"Uncletopia | Sydney | 5 | Stopwatch Beta","protocol":17,"map":"pl_barnblitz","folder":"tf","game":"Team Fortress","app_id":440,"player_count":0,"max_players":24,"Bots":0,"server_type":"Dedicated","server_os":"Linux","password":true,"vac":true,"version":"7757534","steam_id":85568392925397959,"keywords":["nocrits","nodmgspread","payload","uncletopia"],"game_id":440,"stv_port":27056,"stv_name":"Uncletopia | Sydney | 5 | Stopwatch Beta | STV","players":null},{"server_id":59,"name":"Uncletopia | Sydney | 6 | Community","name_short":"syd-6","host":"syd-1.au.uncletopia.com","port":27065,"enabled":true,"region":"au","cc":"au","latitude":-33.865143,"longitude":151.2099,"reserved":0,"last_update":"0001-01-01T00:00:00Z","name_a2s":"Uncletopia | Sydney | 6 | Community","protocol":17,"map":"workshop/cp_overgrown_rc7b.ugc503939302","folder":"tf","game":"Team Fortress","app_id":440,"player_count":0,"max_players":24,"Bots":0,"server_type":"Dedicated","server_os":"Linux","password":true,"vac":true,"version":"7757534","steam_id":85568392925397960,"keywords":["cp","nocrits","nodmgspread","uncletopia"],"game_id":440,"stv_port":27066,"stv_name":"Uncletopia | Sydney | 6 | Community | STV","players":null},{"server_id":49,"name":"Uncletopia | Warsaw | 1 | All Maps","name_short":"waw-1","host":"waw-1.pl.uncletopia.com","port":27015,"enabled":true,"region":"eu","cc":"pl","latitude":52.2297,"longitude":21.017532,"reserved":0,"last_update":"0001-01-01T00:00:00Z","name_a2s":"","protocol":0,"map":"","folder":"","game":"","app_id":0,"player_count":0,"max_players":0,"Bots":0,"server_type":"","server_os":"","password":false,"vac":false,"version":"","steam_id":0,"keywords":null,"game_id":0,"stv_port":0,"stv_name":"","players":null},{"server_id":50,"name":"Uncletopia | Warsaw | 2 | All Maps","name_short":"waw-2","host":"waw-1.pl.uncletopia.com","port":27025,"enabled":true,"region":"eu","cc":"pl","latitude":52.2297,"longitude":21.017532,"reserved":0,"last_update":"0001-01-01T00:00:00Z","name_a2s":"Uncletopia | Warsaw | 2 | All Maps","protocol":17,"map":"pl_borneo","folder":"tf","game":"Team Fortress","app_id":440,"player_count":0,"max_players":24,"Bots":0,"server_type":"Dedicated","server_os":"Linux","password":true,"vac":true,"version":"7757534","steam_id":85568392925397851,"keywords":["nocrits","nodmgspread","payload","uncletopia"],"game_id":440,"stv_port":27026,"stv_name":"Uncletopia | Warsaw | 2 | All Maps | STV","players":null},{"server_id":51,"name":"Uncletopia | Warsaw | 3 | All Maps","name_short":"waw-3","host":"waw-1.pl.uncletopia.com","port":27035,"enabled":true,"region":"eu","cc":"pl","latitude":52.2297,"longitude":21.017532,"reserved":0,"last_update":"0001-01-01T00:00:00Z","name_a2s":"Uncletopia | Warsaw | 3 | All Maps","protocol":17,"map":"koth_viaduct","folder":"tf","game":"Team Fortress","app_id":440,"player_count":0,"max_players":24,"Bots":0,"server_type":"Dedicated","server_os":"Linux","password":true,"vac":true,"version":"7757534","steam_id":85568392925397852,"keywords":["cp","nocrits","nodmgspread","uncletopia"],"game_id":440,"stv_port":27036,"stv_name":"Uncletopia | Warsaw | 3 | All Maps | STV","players":null},{"server_id":52,"name":"Uncletopia | Warsaw | 4 | All Maps","name_short":"waw-4","host":"waw-1.pl.uncletopia.com","port":27045,"enabled":true,"region":"eu","cc":"pl","latitude":52.2297,"longitude":21.017532,"reserved":0,"last_update":"0001-01-01T00:00:00Z","name_a2s":"Uncletopia | Warsaw | 4 | All Maps","protocol":17,"map":"koth_highpass","folder":"tf","game":"Team Fortress","app_id":440,"player_count":14,"max_players":24,"Bots":0,"server_type":"Dedicated","server_os":"Linux","password":true,"vac":true,"version":"7757534","steam_id":85568392925397853,"keywords":["cp","nocrits","nodmgspread","uncletopia"],"game_id":440,"stv_port":27046,"stv_name":"Uncletopia | Warsaw | 4 | All Maps | STV","players":[{"user_id":12,"name":"im red","steam_id":76561199087284519,"connected_time":2286000000000,"state":"active","ping":78},{"user_id":13,"name":"IJammy","steam_id":76561198414315342,"connected_time":2271000000000,"state":"active","ping":87},{"user_id":14,"name":"Shrimp","steam_id":76561199205535309,"connected_time":2161000000000,"state":"active","ping":68},{"user_id":27,"name":"Mr. Frog","steam_id":76561198016568920,"connected_time":149000000000,"state":"active","ping":69},{"user_id":17,"name":"IvunKup","steam_id":76561199241569286,"connected_time":1444000000000,"state":"active","ping":85},{"user_id":18,"name":"LOBZIK","steam_id":76561198114830120,"connected_time":1173000000000,"state":"active","ping":76},{"user_id":21,"name":"GingerBread","steam_id":76561198884845539,"connected_time":741000000000,"state":"active","ping":111},{"user_id":25,"name":"Jesse Fatcoc","steam_id":76561199004942770,"connected_time":268000000000,"state":"active","ping":73},{"user_id":22,"name":"Osmo","steam_id":76561199286764992,"connected_time":737000000000,"state":"active","ping":141},{"user_id":24,"name":"Ritso","steam_id":76561199003188238,"connected_time":409000000000,"state":"active","ping":45},{"user_id":26,"name":"SoberOnion","steam_id":76561198987711995,"connected_time":185000000000,"state":"active","ping":55},{"user_id":28,"name":"TSx* Osa__PL","steam_id":76561198027016799,"connected_time":134000000000,"state":"active","ping":45},{"user_id":30,"name":"TSx* Naxer","steam_id":76561198011986779,"connected_time":94000000000,"state":"spawning","ping":47},{"user_id":31,"name":"Šimon Kolář","steam_id":76561198980686809,"connected_time":14000000000,"state":"active","ping":79}]},{"server_id":53,"name":"Uncletopia | Warsaw | 5 | Stopwatch Beta","name_short":"waw-5","host":"waw-1.pl.uncletopia.com","port":27055,"enabled":true,"region":"eu","cc":"pl","latitude":52.2297,"longitude":21.017532,"reserved":0,"last_update":"0001-01-01T00:00:00Z","name_a2s":"Uncletopia | Warsaw | 5 | Stopwatch Beta","protocol":17,"map":"pl_upward","folder":"tf","game":"Team Fortress","app_id":440,"player_count":0,"max_players":24,"Bots":0,"server_type":"Dedicated","server_os":"Linux","password":true,"vac":true,"version":"7757534","steam_id":85568392925397854,"keywords":["nocrits","nodmgspread","payload","uncletopia"],"game_id":440,"stv_port":27056,"stv_name":"Uncletopia | Warsaw | 5 | Stopwatch Beta | STV","players":null},{"server_id":54,"name":"Uncletopia | Warsaw | 6 | Community","name_short":"waw-6","host":"waw-1.pl.uncletopia.com","port":27065,"enabled":true,"region":"eu","cc":"pl","latitude":52.2297,"longitude":21.017532,"reserved":0,"last_update":"0001-01-01T00:00:00Z","name_a2s":"Uncletopia | Warsaw | 6 | Community","protocol":17,"map":"workshop/cp_caldera_rc2.ugc2834196889","folder":"tf","game":"Team Fortress","app_id":440,"player_count":0,"max_players":24,"Bots":0,"server_type":"Dedicated","server_os":"Linux","password":true,"vac":true,"version":"7757534","steam_id":85568392925397856,"keywords":["cp","nocrits","nodmgspread","uncletopia"],"game_id":440,"stv_port":27066,"stv_name":"Uncletopia | Warsaw | 6 | Community | STV","players":null}]}