{"status":true,"message":"","result":[{"server_id":9,"name":"Uncletopia | Atlanta | 1 | All Maps","name_short":"atl-1","host":"atl-1.us.uncletopia.com","port":27015,"enabled":true,"region":"us-east","cc":"us","latitude":33.753746,"longitude":-84.38633,"reserved":0,"last_update":"0001-01-01T00:00:00Z","name_a2s":"Uncletopia | Atlanta | 1 | All Maps","protocol":17,"map":"pl_badwater","folder":"tf","game":"Team Fortress","app_id":440,"player_count":24,"max_players":24,"Bots":0,"server_type":"Dedicated","server_os":"Linux","password":true,"vac":true,"version":"7708610","steam_id":85568392924469982,"keywords":["nocrits","nodmgspread","payload","uncletopia"],"game_id":440,"stv_port":27016,"stv_name":"Uncletopia | Atlanta | 1 | All Maps | STV","players":[{"user_id":537,"name":"elyk37","steam_id":76561198124135253,"connected_time":2953000000000,"state":"active","ping":82},{"user_id":560,"name":"sansa musa","steam_id":76561198163723555,"connected_time":261000000000,"state":"active","ping":75},{"user_id":523,"name":"Krissy Krampus","steam_id":76561197960848174,"connected_time":4199000000000,"state":"active","ping":65},{"user_id":548,"name":"Female Gamer","steam_id":76561199366482682,"connected_time":1497000000000,"state":"active","ping":119},{"user_id":553,"name":"{[F.H]} Hydroida","steam_id":76561197999797274,"connected_time":790000000000,"state":"active","ping":73},{"user_id":550,"name":"joe","steam_id":76561198045781320,"connected_time":1098000000000,"state":"active","ping":61},{"user_id":524,"name":"ktkoffroth","steam_id":76561198037384107,"connected_time":4145000000000,"state":"active","ping":46},{"user_id":549,"name":"Intro Bonito","steam_id":76561198119478838,"connected_time":1205000000000,"state":"active","ping":62},{"user_id":525,"name":"com lag","steam_id":76561198019019392,"connected_time":3932000000000,"state":"active","ping":68},{"user_id":492,"name":"imsomeotherguy","steam_id":76561199140899863,"connected_time":8450000000000,"state":"active","ping":116},{"user_id":529,"name":"conscripted monk","steam_id":76561199029246232,"connected_time":3555000000000,"state":"active","ping":78},{"user_id":540,"name":"Smoky","steam_id":76561198418262145,"connected_time":2043000000000,"state":"active","ping":102},{"user_id":426,"name":"ATL1 | a very merry ma0re","steam_id":76561199231971506,"connected_time":13346000000000,"state":"active","ping":62},{"user_id":538,"name":"Greg","steam_id":76561198880573799,"connected_time":2786000000000,"state":"active","ping":102},{"user_id":535,"name":"Pungabot","steam_id":76561198009088243,"connected_time":3285000000000,"state":"active","ping":77},{"user_id":506,"name":"ItsThatBear","steam_id":76561198169617659,"connected_time":6531000000000,"state":"active","ping":63},{"user_id":554,"name":"Im High","steam_id":76561198049954886,"connected_time":692000000000,"state":"active","ping":73},{"user_id":495,"name":"obamiun","steam_id":76561199121276474,"connected_time":8007000000000,"state":"active","ping":81},{"user_id":542,"name":"groda_spel","steam_id":76561198121349387,"connected_time":1822000000000,"state":"active","ping":66},{"user_id":547,"name":"Nosferatu","steam_id":76561198048205270,"connected_time":1623000000000,"state":"active","ping":76},{"user_id":376,"name":"ATL1 | Phestive Pango","steam_id":76561198069811545,"connected_time":18230000000000,"state":"active","ping":45},{"user_id":551,"name":"RedNax","steam_id":76561198427967575,"connected_time":903000000000,"state":"active","ping":99},{"user_id":517,"name":"Samuel","steam_id":76561198045652639,"connected_time":4925000000000,"state":"active","ping":120},{"user_id":556,"name":"ATL1 | eish","steam_id":76561198089463603,"connected_time":500000000000,"state":"active","ping":124}]},{"server_id":400,"name":"Uncletopia | Atlanta | 3 | All Maps","name_short":"atl-3","host":"atl-1.us.uncletopia.com","port":27035,"enabled":true,"region":"us-east","cc":"us","latitude":33.753746,"longitude":-84.38633,"reserved":0,"last_update":"0001-01-01T00:00:00Z","name_a2s":"Uncletopia | Atlanta | 3 | All Maps","protocol":17,"map":"cp_steel","folder":"tf","game":"Team Fortress","app_id":440,"player_count":24,"max_players":24,"Bots":0,"server_type":"Dedicated","server_os":"Linux","password":true,"vac":true,"version":"7708610","steam_id":85568392924515187,"keywords":["cp","nocrits","nodmgspread","uncletopia"],"game_id":440,"stv_port":27036,"stv_name":"Uncletopia | Atlanta | 3 | All Maps | STV","players":[{"user_id":362,"name":"ObiWonJacobi","steam_id":76561198041921071,"connected_time":948000000000,"state":"active","ping":45},{"user_id":344,"name":"Styx","steam_id":76561198104657428,"connected_time":2553000000000,"state":"active","ping":59},{"user_id":318,"name":"Zeta","steam_id":76561198178693059,"connected_time":4578000000000,"state":"active","ping":60},{"user_id":213,"name":"no fun allowed","steam_id":76561198023888890,"connected_time":13694000000000,"state":"active","ping":75},{"user_id":322,"name":"iluvmylongknees","steam_id":76561198984101301,"connected_time":4307000000000,"state":"active","ping":65},{"user_id":338,"name":"Trytard","steam_id":76561198094507220,"connected_time":2863000000000,"state":"active","ping":132},{"user_id":360,"name":"the bone zone","steam_id":76561198022141048,"connected_time":989000000000,"state":"active","ping":59},{"user_id":361,"name":"mr beens","steam_id":76561198009390141,"connected_time":989000000000,"state":"active","ping":68},{"user_id":363,"name":"McMahonism","steam_id":76561198066138208,"connected_time":933000000000,"state":"active","ping":52},{"user_id":353,"name":"Jake_Spencer","steam_id":76561198025176750,"connected_time":1774000000000,"state":"active","ping":111},{"user_id":359,"name":"100,000 dead russians","steam_id":76561198054260599,"connected_time":1152000000000,"state":"active","ping":75},{"user_id":328,"name":"Lord GabeN","steam_id":76561198140862723,"connected_time":3669000000000,"state":"active","ping":78},{"user_id":311,"name":"p0rps","steam_id":76561198000014631,"connected_time":4979000000000,"state":"active","ping":66},{"user_id":354,"name":"N64Kanroji","steam_id":76561198045209288,"connected_time":1721000000000,"state":"active","ping":89},{"user_id":211,"name":"Snazzi","steam_id":76561198085208276,"connected_time":13703000000000,"state":"active","ping":70},{"user_id":282,"name":"Mr.Oxiclean","steam_id":76561198144729009,"connected_time":7336000000000,"state":"active","ping":52},{"user_id":346,"name":"layabout","steam_id":76561198130892117,"connected_time":2250000000000,"state":"active","ping":60},{"user_id":348,"name":"sock","steam_id":76561199117597830,"connected_time":2123000000000,"state":"active","ping":38},{"user_id":365,"name":"Gustavo Fring","steam_id":76561198132807405,"connected_time":112000000000,"state":"active","ping":82},{"user_id":340,"name":"Fatcat.win(false) ;","steam_id":76561198069007806,"connected_time":2854000000000,"state":"active","ping":61},{"user_id":334,"name":"Level 1 Crook","steam_id":76561198441098132,"connected_time":3385000000000,"state":"active","ping":75},{"user_id":336,"name":"Slumpt","steam_id":76561198106967143,"connected_time":3090000000000,"state":"active","ping":96},{"user_id":329,"name":"Macko","steam_id":76561198452005461,"connected_time":3571000000000,"state":"active","ping":70},{"user_id":296,"name":"Fausto Murillo","steam_id":76561198936120487,"connected_time":6117000000000,"state":"active","ping":119}]},{"server_id":401,"name":"Uncletopia | Atlanta | 4 | No Payload","name_short":"atl-4","host":"atl-1.us.uncletopia.com","port":27045,"enabled":true,"region":"us-east","cc":"us","latitude":33.753746,"longitude":-84.38633,"reserved":0,"last_update":"0001-01-01T00:00:00Z","name_a2s":"Uncletopia | Atlanta | 4 | No Payload","protocol":17,"map":"plr_pipeline","folder":"tf","game":"Team Fortress","app_id":440,"player_count":0,"max_players":24,"Bots":0,"server_type":"Dedicated","server_os":"Linux","password":true,"vac":true,"version":"7708610","steam_id":85568392924515188,"keywords":["nocrits","nodmgspread","payload","uncletopia"],"game_id":440,"stv_port":27046,"stv_name":"Uncletopia | Atlanta | 4 | No Payload | STV","players":null},{"server_id":2,"name":"Uncletopia | Chicago | 1 | All Maps","name_short":"chi-1","host":"chi-1.us.uncletopia.com","port":27015,"enabled":true,"region":"us-central","cc":"us","latitude":41.881832,"longitude":-87.62318,"reserved":0,"last_update":"0001-01-01T00:00:00Z","name_a2s":"Uncletopia | Chicago | 1 | All Maps","protocol":17,"map":"pl_pier","folder":"tf","game":"Team Fortress","app_id":440,"player_count":24,"max_players":24,"Bots":0,"server_type":"Dedicated","server_os":"Linux","password":true,"vac":true,"version":"7708610","steam_id":85568392924469984,"keywords":["nocrits","nodmgspread","payload","uncletopia"],"game_id":440,"stv_port":27016,"stv_name":"Uncletopia | Chicago | 1 | All Maps | STV","players":[{"user_id":690,"name":"Sykes10","steam_id":76561198279623105,"connected_time":3686000000000,"state":"active","ping":102},{"user_id":735,"name":"Demonfax04","steam_id":76561198243551652,"connected_time":860000000000,"state":"active","ping":96},{"user_id":717,"name":"Gabinator32","steam_id":76561198872467183,"connected_time":1705000000000,"state":"active","ping":37},{"user_id":736,"name":"[DATS‚û°] Sugar Meowth","steam_id":76561197995251793,"connected_time":767000000000,"state":"active","ping":91},{"user_id":640,"name":"Pigzilla","steam_id":76561198373968267,"connected_time":8983000000000,"state":"active","ping":69},{"user_id":664,"name":"I'm Only 4 Inches","steam_id":76561198055542546,"connected_time":6988000000000,"state":"active","ping":68},{"user_id":714,"name":"gyozaking","steam_id":76561197972312696,"connected_time":1891000000000,"state":"active","ping":44},{"user_id":653,"name":"√íw√ì","steam_id":76561197997304387,"connected_time":7936000000000,"state":"active","ping":70},{"user_id":647,"name":"John Darksoul","steam_id":76561198031675881,"connected_time":8448000000000,"state":"active","ping":49},{"user_id":728,"name":"swan","steam_id":76561198012569200,"connected_time":1315000000000,"state":"active","ping":73},{"user_id":698,"name":"shplunker","steam_id":76561198169291327,"connected_time":3244000000000,"state":"active","ping":70},{"user_id":723,"name":"pw","steam_id":76561198087945065,"connected_time":1420000000000,"state":"active","ping":56},{"user_id":734,"name":"SsaucySam","steam_id":76561198362539268,"connected_time":953000000000,"state":"active","ping":77},{"user_id":726,"name":"TaiDni","steam_id":76561198087750392,"connected_time":1355000000000,"state":"active","ping":138},{"user_id":697,"name":"Pie","steam_id":76561198054721133,"connected_time":3272000000000,"state":"active","ping":93},{"user_id":691,"name":"Legion","steam_id":76561199036242643,"connected_time":3686000000000,"state":"active","ping":65},{"user_id":729,"name":"River Rat","steam_id":76561198116383976,"connected_time":1308000000000,"state":"active","ping":110},{"user_id":713,"name":"Cobra","steam_id":76561198148418531,"connected_time":1915000000000,"state":"active","ping":75},{"user_id":611,"name":"Droop","steam_id":76561198856700517,"connected_time":10590000000000,"state":"active","ping":63},{"user_id":738,"name":"Adawnby","steam_id":76561198103057295,"connected_time":617000000000,"state":"active","ping":77},{"user_id":689,"name":"strawberry","steam_id":76561198101926397,"connected_time":3938000000000,"state":"active","ping":56},{"user_id":673,"name":"Lia_Reindeer","steam_id":76561198151569597,"connected_time":5894000000000,"state":"active","ping":148},{"user_id":732,"name":"Devious Wink","steam_id":76561198043571022,"connected_time":989000000000,"state":"active","ping":63},{"user_id":642,"name":"jingle.JIFF","steam_id":76561198045181760,"connected_time":8925000000000,"state":"active","ping":57}]},{"server_id":106,"name":"Uncletopia | Chicago | 2 | All Maps","name_short":"chi-2","host":"chi-1.us.uncletopia.com","port":27025,"enabled":true,"region":"us-central","cc":"us","latitude":41.881832,"longitude":-87.62318,"reserved":0,"last_update":"0001-01-01T00:00:00Z","name_a2s":"Uncletopia | Chicago | 2 | All Maps","protocol":17,"map":"cp_sunshine","folder":"tf","game":"Team Fortress","app_id":440,"player_count":24,"max_players":24,"Bots":0,"server_type":"Dedicated","server_os":"Linux","password":true,"vac":true,"version":"7708610","steam_id":85568392924469985,"keywords":["cp","nocrits","nodmgspread","uncletopia"],"game_id":440,"stv_port":27026,"stv_name":"Uncletopia | Chicago | 2 | All Maps | STV","players":[{"user_id":396,"name":"xxashketchup712","steam_id":76561198067232540,"connected_time":8727000000000,"state":"active","ping":75},{"user_id":504,"name":"albert_gamer","steam_id":76561198980666751,"connected_time":2368000000000,"state":"active","ping":72},{"user_id":509,"name":"Thefatfriar","steam_id":76561199013385965,"connected_time":1356000000000,"state":"active","ping":128},{"user_id":511,"name":"Cajun Nationalist","steam_id":76561198278940630,"connected_time":1331000000000,"state":"active","ping":66},{"user_id":522,"name":"Mulligen","steam_id":76561198073123804,"connected_time":510000000000,"state":"active","ping":76},{"user_id":420,"name":"üê∫-Iwky-ü¶ä","steam_id":76561198185616311,"connected_time":6985000000000,"state":"active","ping":89},{"user_id":469,"name":"Qrow","steam_id":76561198355935693,"connected_time":5058000000000,"state":"active","ping":46},{"user_id":484,"name":"valtiel","steam_id":76561198165212575,"connected_time":4336000000000,"state":"active","ping":69},{"user_id":510,"name":"hashmap","steam_id":76561198043794014,"connected_time":1350000000000,"state":"active","ping":50},{"user_id":526,"name":"user interface","steam_id":76561198049238840,"connected_time":212000000000,"state":"active","ping":75},{"user_id":503,"name":"basil","steam_id":76561198075758026,"connected_time":2379000000000,"state":"active","ping":100},{"user_id":519,"name":"DropBear","steam_id":76561197964435496,"connected_time":540000000000,"state":"active","ping":61},{"user_id":516,"name":"slep.py","steam_id":76561197988287144,"connected_time":582000000000,"state":"active","ping":59},{"user_id":501,"name":"Bard","steam_id":76561199095024038,"connected_time":2779000000000,"state":"active","ping":168},{"user_id":464,"name":"‚ù§birbohex‚ù§","steam_id":76561198392961483,"connected_time":5214000000000,"state":"active","ping":47},{"user_id":520,"name":"jan kili","steam_id":76561198289894834,"connected_time":534000000000,"state":"active","ping":90},{"user_id":465,"name":"l6fi","steam_id":76561198412641165,"connected_time":5202000000000,"state":"active","ping":64},{"user_id":521,"name":"PapaBluss","steam_id":76561198023499564,"connected_time":532000000000,"state":"active","ping":59},{"user_id":507,"name":"[S]Mr. X [No Monitor]","steam_id":76561197963746035,"connected_time":1871000000000,"state":"active","ping":104},{"user_id":478,"name":"jodie.blend","steam_id":76561198140701807,"connected_time":4496000000000,"state":"active","ping":75},{"user_id":407,"name":"coal","steam_id":76561198027252280,"connected_time":7829000000000,"state":"active","ping":61},{"user_id":524,"name":"Kelpy","steam_id":76561198294906383,"connected_time":343000000000,"state":"active","ping":60},{"user_id":498,"name":"CowTipper","steam_id":76561198068024343,"connected_time":3060000000000,"state":"active","ping":45},{"user_id":493,"name":"Xbmann | Resurfed","steam_id":76561198041017977,"connected_time":3644000000000,"state":"active","ping":74}]},{"server_id":402,"name":"Uncletopia | Chicago | 3 | All Maps","name_short":"chi-3","host":"chi-1.us.uncletopia.com","port":27035,"enabled":true,"region":"us-central","cc":"us","latitude":41.881832,"longitude":-87.62318,"reserved":0,"last_update":"0001-01-01T00:00:00Z","name_a2s":"Uncletopia | Chicago | 3 | All Maps","protocol":17,"map":"cp_dustbowl","folder":"tf","game":"Team Fortress","app_id":440,"player_count":19,"max_players":24,"Bots":0,"server_type":"Dedicated","server_os":"Linux","password":true,"vac":true,"version":"7708610","steam_id":85568392924515191,"keywords":["cp","nocrits","nodmgspread","uncletopia"],"game_id":440,"stv_port":27036,"stv_name":"Uncletopia | Chicago | 3 | All Maps | STV","players":[{"user_id":299,"name":"DJ Spit","steam_id":76561198186637025,"connected_time":740000000000,"state":"connecting","ping":97},{"user_id":292,"name":"The Potato Romancer","steam_id":76561198204197648,"connected_time":846000000000,"state":"connecting","ping":121},{"user_id":248,"name":"TheChickenChuck","steam_id":76561199192686708,"connected_time":3951000000000,"state":"connecting","ping":142},{"user_id":289,"name":"Loneie","steam_id":76561198270957843,"connected_time":914000000000,"state":"connecting","ping":54},{"user_id":290,"name":"The Hooded Sledge","steam_id":76561198942539036,"connected_time":911000000000,"state":"connecting","ping":66},{"user_id":291,"name":"LuciDin","steam_id":76561198049690649,"connected_time":907000000000,"state":"connecting","ping":80},{"user_id":305,"name":"Shrake","steam_id":76561198114379995,"connected_time":613000000000,"state":"connecting","ping":43},{"user_id":307,"name":"Ker œÜ","steam_id":76561197973093864,"connected_time":577000000000,"state":"connecting","ping":78},{"user_id":294,"name":"Meatwad","steam_id":76561198803721236,"connected_time":828000000000,"state":"connecting","ping":79},{"user_id":309,"name":"Santa","steam_id":76561198044130442,"connected_time":386000000000,"state":"connecting","ping":89},{"user_id":179,"name":"Soap Man","steam_id":76561198000490235,"connected_time":9677000000000,"state":"connecting","ping":129},{"user_id":296,"name":"Ronnie","steam_id":76561198045894586,"connected_time":794000000000,"state":"connecting","ping":104},{"user_id":298,"name":"tokemaster69","steam_id":76561198083996924,"connected_time":750000000000,"state":"connecting","ping":68},{"user_id":310,"name":"Prison Sal","steam_id":76561198355553673,"connected_time":289000000000,"state":"connecting","ping":73},{"user_id":300,"name":"Glep","steam_id":76561199112781337,"connected_time":733000000000,"state":"connecting","ping":102},{"user_id":303,"name":"Oni Enthusiast","steam_id":76561198035410427,"connected_time":719000000000,"state":"connecting","ping":114},{"user_id":280,"name":"Ozone-flavored Starburst","steam_id":76561199163688421,"connected_time":1799000000000,"state":"connecting","ping":111},{"user_id":304,"name":"stonebreaker974","steam_id":76561198880243251,"connected_time":716000000000,"state":"connecting","ping":69}]},{"server_id":403,"name":"Uncletopia | Chicago | 4 | All Maps","name_short":"chi-4","host":"chi-1.us.uncletopia.com","port":27045,"enabled":true,"region":"us-central","cc":"us","latitude":41.881832,"longitude":-87.62318,"reserved":0,"last_update":"0001-01-01T00:00:00Z","name_a2s":"Uncletopia | Chicago | 4 | All Maps","protocol":17,"map":"pl_snowycoast","folder":"tf","game":"Team Fortress","app_id":440,"player_count":24,"max_players":24,"Bots":0,"server_type":"Dedicated","server_os":"Linux","password":true,"vac":true,"version":"7708610","steam_id":85568392924515193,"keywords":["nocrits","nodmgspread","payload","uncletopia"],"game_id":440,"stv_port":27046,"stv_name":"Uncletopia | Chicago | 4 | All Maps | STV","players":[{"user_id":266,"name":"Jimbo","steam_id":76561198069003959,"connected_time":337000000000,"state":"active","ping":64},{"user_id":255,"name":"OlympicChamp_12 | Trade.tf","steam_id":76561198830574526,"connected_time":1507000000000,"state":"active","ping":92},{"user_id":247,"name":"‚¶ï ËâæËê®ÂÖã ‚¶ñ","steam_id":76561198293727875,"connected_time":1628000000000,"state":"active","ping":66},{"user_id":225,"name":"Mossy","steam_id":76561198156401277,"connected_time":3106000000000,"state":"active","ping":71},{"user_id":248,"name":"Colonel Chikara","steam_id":76561198010021087,"connected_time":1597000000000,"state":"active","ping":91},{"user_id":259,"name":"mary","steam_id":76561198318473962,"connected_time":1044000000000,"state":"active","ping":69},{"user_id":222,"name":"Caz","steam_id":76561198055149945,"connected_time":3800000000000,"state":"active","ping":56},{"user_id":249,"name":"SneakyBoxFox","steam_id":76561198095103618,"connected_time":1584000000000,"state":"active","ping":92},{"user_id":265,"name":"sasharudzik","steam_id":76561199126617781,"connected_time":485000000000,"state":"active","ping":65},{"user_id":191,"name":"a crazy hobo","steam_id":76561198289650060,"connected_time":5568000000000,"state":"active","ping":94},{"user_id":260,"name":"Rukks","steam_id":76561197993918954,"connected_time":947000000000,"state":"active","ping":66},{"user_id":208,"name":"Dingoid","steam_id":76561198065665995,"connected_time":4046000000000,"state":"active","ping":121},{"user_id":250,"name":"Keychain","steam_id":76561197994183048,"connected_time":1576000000000,"state":"active","ping":82},{"user_id":227,"name":"Splinto","steam_id":76561198111260488,"connected_time":2748000000000,"state":"active","ping":47},{"user_id":261,"name":"Mike","steam_id":76561198037032258,"connected_time":904000000000,"state":"active","ping":46},{"user_id":264,"name":"RedBread | Scotian Punish","steam_id":76561197999362370,"connected_time":632000000000,"state":"active","ping":67},{"user_id":251,"name":"Doost44","steam_id":76561198115785902,"connected_time":1573000000000,"state":"active","ping":59},{"user_id":262,"name":"poyonoodle","steam_id":76561197985294334,"connected_time":896000000000,"state":"active","ping":46},{"user_id":256,"name":"Sooper Smert","steam_id":76561198047958540,"connected_time":1401000000000,"state":"active","ping":71},{"user_id":263,"name":"Fruit Gumy Wizard","steam_id":76561198035699756,"connected_time":892000000000,"state":"active","ping":69},{"user_id":257,"name":"CombustibleToast","steam_id":76561198051358882,"connected_time":1393000000000,"state":"active","ping":63},{"user_id":253,"name":"Tom","steam_id":76561198258980884,"connected_time":1522000000000,"state":"active","ping":92},{"user_id":254,"name":"StupidWizardYT","steam_id":76561198285264050,"connected_time":1512000000000,"state":"active","ping":55},{"user_id":203,"name":"i love nature","steam_id":76561198248636560,"connected_time":4916000000000,"state":"active","ping":75}]},{"server_id":36,"name":"Uncletopia | Chicago | 5 | All Maps","name_short":"chi-5","host":"chi-2.us.uncletopia.com","port":27015,"enabled":true,"region":"us-central","cc":"us","latitude":41.881832,"longitude":-87.62318,"reserved":0,"last_update":"0001-01-01T00:00:00Z","name_a2s":"Uncletopia | Chicago | 5 | All Maps","protocol":17,"map":"koth_cascade","folder":"tf","game":"Team Fortress","app_id":440,"player_count":0,"max_players":24,"Bots":0,"server_type":"Dedicated","server_os":"Linux","password":true,"vac":true,"version":"7708610","steam_id":85568392924866362,"keywords":["cp","nocrits","nodmgspread","uncletopia"],"game_id":440,"stv_port":27016,"stv_name":"Uncletopia | Chicago | 5 | All Maps | STV","players":null},{"server_id":37,"name":"Uncletopia | Chicago | 6 | All Maps","name_short":"chi-6","host":"chi-2.us.uncletopia.com","port":27025,"enabled":true,"region":"us-central","cc":"us","latitude":41.881832,"longitude":-87.62318,"reserved":0,"last_update":"0001-01-01T00:00:00Z","name_a2s":"Uncletopia | Chicago | 6 | All Maps","protocol":17,"map":"pl_borneo","folder":"tf","game":"Team Fortress","app_id":440,"player_count":25,"max_players":24,"Bots":0,"server_type":"Dedicated","server_os":"Linux","password":true,"vac":true,"version":"7708610","steam_id":85568392924866363,"keywords":["nocrits","nodmgspread","payload","uncletopia"],"game_id":440,"stv_port":27026,"stv_name":"Uncletopia | Chicago | 6 | All Maps | STV","players":[{"user_id":72,"name":"Praise Murp","steam_id":76561198107200166,"connected_time":1854000000000,"state":"active","ping":61},{"user_id":96,"name":"Furious George","steam_id":76561198405111646,"connected_time":66000000000,"state":"active","ping":87},{"user_id":93,"name":"runthatback gaming","steam_id":76561198984131011,"connected_time":507000000000,"state":"active","ping":62},{"user_id":67,"name":"CassandraRC7 (She/her)","steam_id":76561198094123940,"connected_time":2264000000000,"state":"active","ping":61},{"user_id":85,"name":"Blargian Snagglebeast","steam_id":76561198115831507,"connected_time":737000000000,"state":"active","ping":53},{"user_id":78,"name":"megaboi796","steam_id":76561198122995438,"connected_time":1366000000000,"state":"active","ping":69},{"user_id":69,"name":"bobby peanstalk","steam_id":76561198040495463,"connected_time":2107000000000,"state":"active","ping":61},{"user_id":61,"name":"Cleric","steam_id":76561198045887994,"connected_time":2632000000000,"state":"active","ping":46},{"user_id":24,"name":"CHODIE LAND","steam_id":76561198057116531,"connected_time":4053000000000,"state":"active","ping":50},{"user_id":25,"name":"EvilMrPotoo ÔΩ°‚óï‚Äø‚óïÔΩ°","steam_id":76561198012566870,"connected_time":4043000000000,"state":"active","ping":59},{"user_id":99,"name":"The Bread.","steam_id":76561199400940125,"connected_time":24000000000,"state":"active","ping":100},{"user_id":87,"name":"A GoldFish Sign","steam_id":76561198160784240,"connected_time":695000000000,"state":"active","ping":57},{"user_id":88,"name":"Jousty","steam_id":76561199162677853,"connected_time":675000000000,"state":"active","ping":86},{"user_id":94,"name":"Goofball","steam_id":76561198061211537,"connected_time":126000000000,"state":"active","ping":61},{"user_id":81,"name":"java","steam_id":76561198030276792,"connected_time":1039000000000,"state":"active","ping":56},{"user_id":36,"name":"oopsboom24","steam_id":76561199105248648,"connected_time":3859000000000,"state":"active","ping":79},{"user_id":98,"name":"superbad","steam_id":76561198065913973,"connected_time":43000000000,"state":"active","ping":91},{"user_id":38,"name":"!@3123123!","steam_id":76561198132637556,"connected_time":3835000000000,"state":"active","ping":46},{"user_id":92,"name":"ringme medic XD","steam_id":76561198094801861,"connected_time":569000000000,"state":"active","ping":60},{"user_id":100,"name":"Highway Gothic","steam_id":76561198118102935,"connected_time":16000000000,"state":"spawning","ping":71},{"user_id":82,"name":"mentally strange","steam_id":76561198106690989,"connected_time":1010000000000,"state":"active","ping":64},{"user_id":65,"name":"Majin","steam_id":76561198218136933,"connected_time":2384000000000,"state":"active","ping":100},{"user_id":83,"name":"Phroliax","steam_id":76561198207075529,"connected_time":840000000000,"state":"active","ping":102},{"user_id":84,"name":"AlecTheNefarious","steam_id":76561198035291230,"connected_time":829000000000,"state":"active","ping":61},{"user_id":91,"name":"ow#n","steam_id":76561198048969516,"connected_time":598000000000,"state":"active","ping":56}]},{"server_id":38,"name":"Uncletopia | Chicago | 7 | No Payload","name_short":"chi-7","host":"chi-2.us.uncletopia.com","port":27035,"enabled":true,"region":"us-central","cc":"us","latitude":41.881832,"longitude":-87.62318,"reserved":0,"last_update":"0001-01-01T00:00:00Z","name_a2s":"Uncletopia | Chicago | 7 | No Payload","protocol":17,"map":"plr_hightower","folder":"tf","game":"Team Fortress","app_id":440,"player_count":23,"max_players":24,"Bots":0,"server_type":"Dedicated","server_os":"Linux","password":true,"vac":true,"version":"7708610","steam_id":85568392924866364,"keywords":["nocrits","nodmgspread","payload","uncletopia"],"game_id":440,"stv_port":27036,"stv_name":"Uncletopia | Chicago | 7 | No Payload | STV","players":[{"user_id":174,"name":"snow worm","steam_id":76561198328256922,"connected_time":1017000000000,"state":"active","ping":50},{"user_id":136,"name":"Nathan Loves You","steam_id":76561198047371790,"connected_time":4665000000000,"state":"active","ping":117},{"user_id":80,"name":"Predicta","steam_id":76561198017630616,"connected_time":7774000000000,"state":"active","ping":45},{"user_id":184,"name":"D 1NE 86","steam_id":76561198390063866,"connected_time":137000000000,"state":"active","ping":82},{"user_id":185,"name":"Kodsix","steam_id":76561198190470643,"connected_time":75000000000,"state":"active","ping":135},{"user_id":177,"name":"‚ä∞Aero‚ä±","steam_id":76561198084648457,"connected_time":585000000000,"state":"active","ping":52},{"user_id":167,"name":"illious","steam_id":76561198169925494,"connected_time":1557000000000,"state":"active","ping":75},{"user_id":164,"name":"DustDoes","steam_id":76561199117193891,"connected_time":1710000000000,"state":"active","ping":80},{"user_id":173,"name":"Loggybears#4651","steam_id":76561198366828434,"connected_time":1122000000000,"state":"active","ping":88},{"user_id":180,"name":"Crow","steam_id":76561199002672790,"connected_time":246000000000,"state":"active","ping":98},{"user_id":175,"name":"soup","steam_id":76561198099977572,"connected_time":927000000000,"state":"active","ping":60},{"user_id":125,"name":"Ashannabuda","steam_id":76561198129552058,"connected_time":5349000000000,"state":"active","ping":75},{"user_id":132,"name":"Ronnie James Dio","steam_id":76561197978515373,"connected_time":4964000000000,"state":"active","ping":81},{"user_id":161,"name":"02vg3","steam_id":76561198404320154,"connected_time":2128000000000,"state":"active","ping":115},{"user_id":181,"name":"Doober","steam_id":76561198056661095,"connected_time":213000000000,"state":"active","ping":73},{"user_id":165,"name":"Some idiot vibing","steam_id":76561198317982960,"connected_time":1655000000000,"state":"active","ping":78},{"user_id":178,"name":"ItzWarlogy","steam_id":76561199055034719,"connected_time":458000000000,"state":"active","ping":84},{"user_id":166,"name":"Backstabbing Pyro","steam_id":76561198374055452,"connected_time":1594000000000,"state":"active","ping":47},{"user_id":182,"name":"SPF420","steam_id":76561198083991705,"connected_time":173000000000,"state":"active","ping":63},{"user_id":168,"name":"KoolBucky","steam_id":76561198147927648,"connected_time":1546000000000,"state":"active","ping":94},{"user_id":170,"name":"walterfishing_17","steam_id":76561198976904099,"connected_time":1250000000000,"state":"active","ping":71},{"user_id":179,"name":"DS8U","steam_id":76561198151554321,"connected_time":440000000000,"state":"active","ping":52},{"user_id":176,"name":"Pan Piotr","steam_id":76561198140016126,"connected_time":676000000000,"state":"active","ping":165}]},{"server_id":39,"name":"Uncletopia | Chicago | 8 | Community","name_short":"chi-8","host":"chi-2.us.uncletopia.com","port":27045,"enabled":true,"region":"us-central","cc":"us","latitude":41.881832,"longitude":-87.62318,"reserved":0,"last_update":"0001-01-01T00:00:00Z","name_a2s":"Uncletopia | Chicago | 8 | Community","protocol":17,"map":"workshop/cp_reckoner_rc6.ugc674719999","folder":"tf","game":"Team Fortress","app_id":440,"player_count":0,"max_players":24,"Bots":0,"server_type":"Dedicated","server_os":"Linux","password":true,"vac":true,"version":"7708610","steam_id":85568392924866365,"keywords":["cp","nocrits","nodmgspread","uncletopia"],"game_id":440,"stv_port":27046,"stv_name":"Uncletopia | Chicago | 8 | Community | STV","players":null},{"server_id":8,"name":"Uncletopia | Dallas | 1 | All Maps","name_short":"dal-1","host":"dal-1.us.uncletopia.com","port":27015,"enabled":true,"region":"us-central","cc":"us","latitude":32.779167,"longitude":-96.80889,"reserved":0,"last_update":"0001-01-01T00:00:00Z","name_a2s":"Uncletopia | Dallas | 1 | All Maps","protocol":17,"map":"pl_barnblitz","folder":"tf","game":"Team Fortress","app_id":440,"player_count":24,"max_players":24,"Bots":0,"server_type":"Dedicated","server_os":"Linux","password":true,"vac":true,"version":"7708610","steam_id":85568392924469986,"keywords":["nocrits","nodmgspread","payload","uncletopia"],"game_id":440,"stv_port":27016,"stv_name":"Uncletopia | Dallas | 1 | All Maps | STV","players":[{"user_id":607,"name":"Strangelove","steam_id":76561198353773611,"connected_time":763000000000,"state":"active","ping":98},{"user_id":596,"name":"BLOOD !","steam_id":76561198004400850,"connected_time":1552000000000,"state":"active","ping":61},{"user_id":617,"name":"SpiderString","steam_id":76561198092409181,"connected_time":152000000000,"state":"active","ping":96},{"user_id":602,"name":"ricebox","steam_id":76561197998059533,"connected_time":1086000000000,"state":"active","ping":75},{"user_id":586,"name":"ZiX FUK ER-LXIX KING OF ALABAMA","steam_id":76561198146204750,"connected_time":2706000000000,"state":"active","ping":116},{"user_id":600,"name":"SpinnerSpecial","steam_id":76561198065661869,"connected_time":1151000000000,"state":"active","ping":93},{"user_id":579,"name":"Spirit of Smissmass' Past","steam_id":76561198096306325,"connected_time":3823000000000,"state":"active","ping":80},{"user_id":575,"name":"spot","steam_id":76561198151135298,"connected_time":3894000000000,"state":"active","ping":62},{"user_id":619,"name":"Frost","steam_id":76561198272014381,"connected_time":38000000000,"state":"spawning","ping":103},{"user_id":610,"name":"catgirl","steam_id":76561198020736672,"connected_time":553000000000,"state":"active","ping":98},{"user_id":601,"name":"ThatScarfDude #NekoIsLife","steam_id":76561198140963271,"connected_time":1124000000000,"state":"active","ping":103},{"user_id":597,"name":"Jack from Jack in The Box","steam_id":76561199083594971,"connected_time":1514000000000,"state":"active","ping":65},{"user_id":612,"name":"Bobert The Great","steam_id":76561198021285638,"connected_time":436000000000,"state":"active","ping":66},{"user_id":588,"name":"ËàπÂ∞æ","steam_id":76561198128764422,"connected_time":2657000000000,"state":"active","ping":88},{"user_id":563,"name":"HAM ENJOYER [ BUFF THE SPEED ]","steam_id":76561199172053891,"connected_time":5081000000000,"state":"active","ping":46},{"user_id":572,"name":"Marc Antony","steam_id":76561198011366517,"connected_time":4541000000000,"state":"active","ping":75},{"user_id":614,"name":"Bob Ross","steam_id":76561198932623728,"connected_time":354000000000,"state":"active","ping":68},{"user_id":616,"name":"fish fingers","steam_id":76561199078516567,"connected_time":173000000000,"state":"active","ping":93},{"user_id":606,"name":"poey","steam_id":76561198865346767,"connected_time":1011000000000,"state":"active","ping":75},{"user_id":599,"name":"cup","steam_id":76561198121245586,"connected_time":1189000000000,"state":"active","ping":87},{"user_id":611,"name":"Bringer of Gibbs","steam_id":76561198035700041,"connected_time":518000000000,"state":"active","ping":92},{"user_id":564,"name":"That Dude","steam_id":76561198980486227,"connected_time":5051000000000,"state":"active","ping":86},{"user_id":573,"name":"Zamypkernoob","steam_id":76561198236850594,"connected_time":4237000000000,"state":"active","ping":83},{"user_id":535,"name":"Drakon","steam_id":76561198078210822,"connected_time":7890000000000,"state":"active","ping":83}]},{"server_id":108,"name":"Uncletopia | Dallas | 2 | All Maps","name_short":"dal-2","host":"dal-1.us.uncletopia.com","port":27025,"enabled":true,"region":"us-central","cc":"us","latitude":32.779167,"longitude":-96.80889,"reserved":0,"last_update":"0001-01-01T00:00:00Z","name_a2s":"Uncletopia | Dallas | 2 | All Maps","protocol":17,"map":"koth_lakeside_final","folder":"tf","game":"Team Fortress","app_id":440,"player_count":17,"max_players":24,"Bots":0,"server_type":"Dedicated","server_os":"Linux","password":true,"vac":true,"version":"7708610","steam_id":85568392924469988,"keywords":["cp","nocrits","nodmgspread","uncletopia"],"game_id":440,"stv_port":27026,"stv_name":"Uncletopia | Dallas | 2 | All Maps | STV","players":[{"user_id":38,"name":"The999gamer","steam_id":76561199079923841,"connected_time":2276000000000,"state":"active","ping":94},{"user_id":39,"name":"Hux0_0","steam_id":76561199073809672,"connected_time":2248000000000,"state":"active","ping":86},{"user_id":40,"name":"Ace_Ludwig","steam_id":76561199238887068,"connected_time":2228000000000,"state":"active","ping":92},{"user_id":41,"name":"zanealcannon","steam_id":76561198409950668,"connected_time":1805000000000,"state":"active","ping":80},{"user_id":42,"name":"MarioLandZ","steam_id":76561198247824646,"connected_time":1691000000000,"state":"active","ping":111},{"user_id":43,"name":"Chocolate_Boi","steam_id":76561198315491681,"connected_time":1554000000000,"state":"active","ping":157},{"user_id":45,"name":"Kamin","steam_id":76561198255299559,"connected_time":839000000000,"state":"active","ping":58},{"user_id":46,"name":"I missed (Probably)","steam_id":76561199147118923,"connected_time":809000000000,"state":"active","ping":53},{"user_id":48,"name":"dylanthevillainous","steam_id":76561199443258434,"connected_time":389000000000,"state":"active","ping":59},{"user_id":50,"name":"MKHailPrince","steam_id":76561199124405952,"connected_time":276000000000,"state":"active","ping":110},{"user_id":51,"name":"Vero","steam_id":76561198183369559,"connected_time":275000000000,"state":"active","ping":73},{"user_id":52,"name":"grifwich","steam_id":76561197982380250,"connected_time":257000000000,"state":"active","ping":77},{"user_id":53,"name":"Windmills","steam_id":76561198035299715,"connected_time":252000000000,"state":"active","ping":84},{"user_id":54,"name":"gang shit","steam_id":76561198115914934,"connected_time":244000000000,"state":"active","ping":67},{"user_id":55,"name":"Mr. Dr. Proffessor Patrick","steam_id":76561198025706190,"connected_time":240000000000,"state":"active","ping":80},{"user_id":56,"name":"Dealyo","steam_id":76561198282395338,"connected_time":176000000000,"state":"active","ping":93},{"user_id":58,"name":"eryn üó∫","steam_id":76561198004433070,"connected_time":91000000000,"state":"active","ping":54}]},{"server_id":5,"name":"Uncletopia | Frankfurt | 1 | All Maps","name_short":"frk-1","host":"frk-1.de.uncletopia.com","port":27015,"enabled":true,"region":"eu","cc":"de","latitude":50.110924,"longitude":8.682127,"reserved":0,"last_update":"0001-01-01T00:00:00Z","name_a2s":"Uncletopia | Frankfurt | 1 | All Maps","protocol":17,"map":"koth_lakeside_final","folder":"tf","game":"Team Fortress","app_id":440,"player_count":0,"max_players":24,"Bots":0,"server_type":"Dedicated","server_os":"Linux","password":true,"vac":true,"version":"7708610","steam_id":85568392924469989,"keywords":["cp","nocrits","nodmgspread","uncletopia"],"game_id":440,"stv_port":27016,"stv_name":"Uncletopia | Frankfurt | 1 | All Maps | STV","players":null},{"server_id":110,"name":"Uncletopia | Frankfurt | 2 | All Maps","name_short":"frk-2","host":"frk-1.de.uncletopia.com","port":27025,"enabled":true,"region":"eu","cc":"de","latitude":50.110924,"longitude":8.682127,"reserved":0,"last_update":"0001-01-01T00:00:00Z","name_a2s":"Uncletopia | Frankfurt | 2 | All Maps","protocol":17,"map":"cp_sunshine","folder":"tf","game":"Team Fortress","app_id":440,"player_count":0,"max_players":24,"Bots":0,"server_type":"Dedicated","server_os":"Linux","password":true,"vac":true,"version":"7708610","steam_id":85568392924469990,"keywords":["cp","nocrits","nodmgspread","uncletopia"],"game_id":440,"stv_port":27026,"stv_name":"Uncletopia | Frankfurt | 2 | All Maps | STV","players":null},{"server_id":308,"name":"Uncletopia | Frankfurt | 3 | All Maps","name_short":"frk-3","host":"frk-1.de.uncletopia.com","port":27035,"enabled":true,"region":"eu","cc":"de","latitude":50.110924,"longitude":8.682127,"reserved":0,"last_update":"0001-01-01T00:00:00Z","name_a2s":"Uncletopia | Frankfurt | 3 | All Maps","protocol":17,"map":"cp_dustbowl","folder":"tf","game":"Team Fortress","app_id":440,"player_count":0,"max_players":24,"Bots":0,"server_type":"Dedicated","server_os":"Linux","password":true,"vac":true,"version":"7708610","steam_id":85568392924504274,"keywords":["cp","nocrits","nodmgspread","uncletopia"],"game_id":440,"stv_port":27036,"stv_name":"Uncletopia | Frankfurt | 3 | All Maps | STV","players":null},{"server_id":309,"name":"Uncletopia | Frankfurt | 4 | All Maps","name_short":"frk-4","host":"frk-1.de.uncletopia.com","port":27045,"enabled":true,"region":"eu","cc":"de","latitude":50.110924,"longitude":8.682127,"reserved":0,"last_update":"0001-01-01T00:00:00Z","name_a2s":"Uncletopia | Frankfurt | 4 | All Maps","protocol":17,"map":"koth_cascade","folder":"tf","game":"Team Fortress","app_id":440,"player_count":0,"max_players":24,"Bots":0,"server_type":"Dedicated","server_os":"Linux","password":true,"vac":true,"version":"7708610","steam_id":85568392924504275,"keywords":["cp","nocrits","nodmgspread","uncletopia"],"game_id":440,"stv_port":27046,"stv_name":"Uncletopia | Frankfurt | 4 | All Maps | STV","players":null},{"server_id":310,"name":"Uncletopia | Frankfurt | 5 | All Maps","name_short":"frk-5","host":"frk-1.de.uncletopia.com","port":27055,"enabled":true,"region":"eu","cc":"de","latitude":50.110924,"longitude":8.682127,"reserved":0,"last_update":"0001-01-01T00:00:00Z","name_a2s":"Uncletopia | Frankfurt | 5 | All Maps","protocol":17,"map":"cp_process_final","folder":"tf","game":"Team Fortress","app_id":440,"player_count":0,"max_players":24,"Bots":0,"server_type":"Dedicated","server_os":"Linux","password":true,"vac":true,"version":"7708610","steam_id":85568392924504277,"keywords":["cp","nocrits","nodmgspread","uncletopia"],"game_id":440,"stv_port":27056,"stv_name":"Uncletopia | Frankfurt | 5 | All Maps | STV","players":null},{"server_id":311,"name":"Uncletopia | Frankfurt | 6 | All Maps","name_short":"frk-6","host":"frk-1.de.uncletopia.com","port":27065,"enabled":true,"region":"eu","cc":"de","latitude":50.110924,"longitude":8.682127,"reserved":0,"last_update":"0001-01-01T00:00:00Z","name_a2s":"Uncletopia | Frankfurt | 6 | All Maps","protocol":17,"map":"koth_cascade","folder":"tf","game":"Team Fortress","app_id":440,"player_count":0,"max_players":24,"Bots":0,"server_type":"Dedicated","server_os":"Linux","password":true,"vac":true,"version":"7708610","steam_id":85568392924504278,"keywords":["cp","nocrits","nodmgspread","uncletopia"],"game_id":440,"stv_port":27066,"stv_name":"Uncletopia | Frankfurt | 6 | All Maps | STV","players":null},{"server_id":23,"name":"Uncletopia | Frankfurt | 7 | No Payload","name_short":"frk-7","host":"frk-1.de.uncletopia.com","port":27075,"enabled":true,"region":"eu","cc":"de","latitude":50.110924,"longitude":8.682127,"reserved":0,"last_update":"0001-01-01T00:00:00Z","name_a2s":"Uncletopia | Frankfurt | 7 | No Payload","protocol":17,"map":"koth_cascade","folder":"tf","game":"Team Fortress","app_id":440,"player_count":0,"max_players":24,"Bots":0,"server_type":"Dedicated","server_os":"Linux","password":true,"vac":true,"version":"7708610","steam_id":85568392924742827,"keywords":["cp","nocrits","nodmgspread","uncletopia"],"game_id":440,"stv_port":27076,"stv_name":"Uncletopia | Frankfurt | 7 | No Payload | STV","players":null},{"server_id":24,"name":"Uncletopia | Frankfurt | 8 | Community","name_short":"frk-8","host":"frk-1.de.uncletopia.com","port":27085,"enabled":true,"region":"eu","cc":"de","latitude":50.110924,"longitude":8.682127,"reserved":0,"last_update":"0001-01-01T00:00:00Z","name_a2s":"Uncletopia | Frankfurt | 8 | Community","protocol":17,"map":"workshop/koth_ramjam_v2_b2.ugc2865676487","folder":"tf","game":"Team Fortress","app_id":440,"player_count":0,"max_players":24,"Bots":0,"server_type":"Dedicated","server_os":"Linux","password":true,"vac":true,"version":"7708610","steam_id":85568392924742828,"keywords":["cp","nocrits","nodmgspread","uncletopia"],"game_id":440,"stv_port":27086,"stv_name":"Uncletopia | Frankfurt | 8 | Community | STV","players":null},{"server_id":202,"name":"Uncletopia | Hong Kong | 1 | All Maps","name_short":"hgk-1","host":"hgk-1.hk.uncletopia.com","port":27015,"enabled":true,"region":"asia","cc":"hk","latitude":22.302711,"longitude":114.177216,"reserved":0,"last_update":"0001-01-01T00:00:00Z","name_a2s":"Uncletopia | Hong Kong | 1 | All Maps","protocol":17,"map":"pl_pier","folder":"tf","game":"Team Fortress","app_id":440,"player_count":22,"max_players":24,"Bots":0,"server_type":"Dedicated","server_os":"Linux","password":true,"vac":true,"version":"7708610","steam_id":85568392924494504,"keywords":["nocrits","nodmgspread","payload","uncletopia"],"game_id":440,"stv_port":27016,"stv_name":"Uncletopia | Hong Kong | 1 | All Maps | STV","players":[{"user_id":92,"name":"BBOY","steam_id":76561198070719495,"connected_time":3476000000000,"state":"active","ping":75},{"user_id":138,"name":"4th Wall \"Breaker\"","steam_id":76561199328855877,"connected_time":441000000000,"state":"active","ping":99},{"user_id":89,"name":"tuxy","steam_id":76561198996816684,"connected_time":3872000000000,"state":"active","ping":75},{"user_id":139,"name":"max121357","steam_id":76561199280466437,"connected_time":350000000000,"state":"active","ping":90},{"user_id":114,"name":"Cartoon","steam_id":76561199215858531,"connected_time":1340000000000,"state":"active","ping":89},{"user_id":140,"name":"TheSticky_Studio","steam_id":76561198428683022,"connected_time":250000000000,"state":"active","ping":73},{"user_id":78,"name":"Made In Ohio","steam_id":76561199231294382,"connected_time":4556000000000,"state":"active","ping":99},{"user_id":131,"name":"MS PowerPoint","steam_id":76561198369523192,"connected_time":760000000000,"state":"active","ping":60},{"user_id":106,"name":"Teampangit","steam_id":76561198087774626,"connected_time":2093000000000,"state":"active","ping":62},{"user_id":103,"name":"ikhwanzafranroydin","steam_id":76561199210334663,"connected_time":2280000000000,"state":"active","ping":103},{"user_id":141,"name":"o2","steam_id":76561199262570913,"connected_time":103000000000,"state":"active","ping":74},{"user_id":142,"name":"Ian","steam_id":76561198159334435,"connected_time":45000000000,"state":"active","ping":210},{"user_id":136,"name":"yes","steam_id":76561198314216930,"connected_time":532000000000,"state":"active","ping":57},{"user_id":108,"name":"krasmas","steam_id":76561198378829574,"connected_time":2000000000000,"state":"active","ping":86},{"user_id":109,"name":"ASVAL IS BEST GRILL","steam_id":76561198413260375,"connected_time":1958000000000,"state":"active","ping":63},{"user_id":119,"name":"ozgarwhite","steam_id":76561198057446729,"connected_time":1152000000000,"state":"active","ping":115},{"user_id":143,"name":"niceguy6785","steam_id":76561199442589750,"connected_time":18000000000,"state":"spawning","ping":61},{"user_id":123,"name":"Notive","steam_id":76561199020600466,"connected_time":1001000000000,"state":"active","ping":72},{"user_id":125,"name":"Banagi [F2P]","steam_id":76561199373908273,"connected_time":941000000000,"state":"active","ping":72},{"user_id":127,"name":"Kall","steam_id":76561197993608660,"connected_time":889000000000,"state":"active","ping":93},{"user_id":128,"name":"Evil","steam_id":76561198846610729,"connected_time":879000000000,"state":"active","ping":99},{"user_id":134,"name":"the big guy","steam_id":76561198412329672,"connected_time":703000000000,"state":"active","ping":89}]},{"server_id":1,"name":"Uncletopia | Los Angeles | 1 | All Maps","name_short":"lax-1","host":"lax-1.us.uncletopia.com","port":27015,"enabled":true,"region":"us-west","cc":"us","latitude":33.94279,"longitude":-118.41004,"reserved":0,"last_update":"0001-01-01T00:00:00Z","name_a2s":"Uncletopia | Los Angeles | 1 | All Maps","protocol":17,"map":"cp_mountainlab","folder":"tf","game":"Team Fortress","app_id":440,"player_count":0,"max_players":24,"Bots":0,"server_type":"Dedicated","server_os":"Linux","password":true,"vac":true,"version":"7708610","steam_id":85568392924469991,"keywords":["cp","nocrits","nodmgspread","uncletopia"],"game_id":440,"stv_port":27016,"stv_name":"Uncletopia | Los Angeles | 1 | All Maps | STV","players":null},{"server_id":112,"name":"Uncletopia | Los Angeles | 2 | All Maps","name_short":"lax-2","host":"lax-1.us.uncletopia.com","port":27025,"enabled":true,"region":"us-west","cc":"us","latitude":33.94279,"longitude":-118.41004,"reserved":0,"last_update":"0001-01-01T00:00:00Z","name_a2s":"Uncletopia | Los Angeles | 2 | All Maps","protocol":17,"map":"koth_viaduct","folder":"tf","game":"Team Fortress","app_id":440,"player_count":0,"max_players":24,"Bots":0,"server_type":"Dedicated","server_os":"Linux","password":true,"vac":true,"version":"7708610","steam_id":85568392924469992,"keywords":["cp","nocrits","nodmgspread","uncletopia"],"game_id":440,"stv_port":27026,"stv_name":"Uncletopia | Los Angeles | 2 | All Maps | STV","players":null},{"server_id":324,"name":"Uncletopia | Los Angeles | 3 | All Maps","name_short":"lax-3","host":"lax-1.us.uncletopia.com","port":27035,"enabled":true,"region":"us-west","cc":"us","latitude":33.94279,"longitude":-118.41004,"reserved":0,"last_update":"0001-01-01T00:00:00Z","name_a2s":"Uncletopia | Los Angeles | 3 | All Maps","protocol":17,"map":"koth_highpass","folder":"tf","game":"Team Fortress","app_id":440,"player_count":0,"max_players":24,"Bots":0,"server_type":"Dedicated","server_os":"Linux","password":true,"vac":true,"version":"7708610","steam_id":85568392924510198,"keywords":["cp","nocrits","nodmgspread","uncletopia"],"game_id":440,"stv_port":27036,"stv_name":"Uncletopia | Los Angeles | 3 | All Maps | STV","players":null},{"server_id":25,"name":"Uncletopia | Los Angeles | 4 | No Payload","name_short":"lax-4","host":"lax-1.us.uncletopia.com","port":27045,"enabled":true,"region":"us-west","cc":"us","latitude":33.94279,"longitude":-118.41004,"reserved":0,"last_update":"0001-01-01T00:00:00Z","name_a2s":"Uncletopia | Los Angeles | 4 | No Payload","protocol":17,"map":"koth_suijin","folder":"tf","game":"Team Fortress","app_id":440,"player_count":0,"max_players":24,"Bots":0,"server_type":"Dedicated","server_os":"Linux","password":true,"vac":true,"version":"7708610","steam_id":85568392924510199,"keywords":["cp","nocrits","nodmgspread","uncletopia"],"game_id":440,"stv_port":27046,"stv_name":"Uncletopia | Los Angeles | 4 | No Payload | STV","players":null},{"server_id":11,"name":"Uncletopia | London | 1 | All Maps","name_short":"lon-1","host":"lon-1.uk.uncletopia.com","port":27015,"enabled":true,"region":"eu","cc":"gb","latitude":51.509865,"longitude":-0.118092,"reserved":0,"last_update":"0001-01-01T00:00:00Z","name_a2s":"Uncletopia | London | 1 | All Maps","protocol":17,"map":"koth_harvest_final","folder":"tf","game":"Team Fortress","app_id":440,"player_count":0,"max_players":24,"Bots":0,"server_type":"Dedicated","server_os":"Linux","password":true,"vac":true,"version":"7708610","steam_id":85568392924367362,"keywords":["cp","nocrits","nodmgspread","uncletopia"],"game_id":440,"stv_port":27016,"stv_name":"Uncletopia | London | 1 | All Maps | STV","players":null},{"server_id":114,"name":"Uncletopia | London | 2 | All Maps","name_short":"lon-2","host":"lon-1.uk.uncletopia.com","port":27025,"enabled":true,"region":"eu","cc":"gb","latitude":51.509865,"longitude":-0.118092,"reserved":0,"last_update":"0001-01-01T00:00:00Z","name_a2s":"Uncletopia | London | 2 | All Maps","protocol":17,"map":"koth_lakeside_final","folder":"tf","game":"Team Fortress","app_id":440,"player_count":0,"max_players":24,"Bots":0,"server_type":"Dedicated","server_os":"Linux","password":true,"vac":true,"version":"7708610","steam_id":85568392924470941,"keywords":["cp","nocrits","nodmgspread","uncletopia"],"game_id":440,"stv_port":27026,"stv_name":"Uncletopia | London | 2 | All Maps | STV","players":null},{"server_id":320,"name":"Uncletopia | London | 3 | All Maps","name_short":"lon-3","host":"lon-1.uk.uncletopia.com","port":27035,"enabled":true,"region":"eu","cc":"gb","latitude":51.509865,"longitude":-0.118092,"reserved":0,"last_update":"0001-01-01T00:00:00Z","name_a2s":"Uncletopia | London | 3 | All Maps","protocol":17,"map":"pl_pier","folder":"tf","game":"Team Fortress","app_id":440,"player_count":0,"max_players":24,"Bots":0,"server_type":"Dedicated","server_os":"Linux","password":true,"vac":true,"version":"7708610","steam_id":85568392924510192,"keywords":["nocrits","nodmgspread","payload","uncletopia"],"game_id":440,"stv_port":27036,"stv_name":"Uncletopia | London | 3 | All Maps | STV","players":null},{"server_id":321,"name":"Uncletopia | London | 4 | All Maps","name_short":"lon-4","host":"lon-1.uk.uncletopia.com","port":27045,"enabled":true,"region":"eu","cc":"gb","latitude":51.509865,"longitude":-0.118092,"reserved":0,"last_update":"0001-01-01T00:00:00Z","name_a2s":"Uncletopia | London | 4 | All Maps","protocol":17,"map":"cp_dustbowl","folder":"tf","game":"Team Fortress","app_id":440,"player_count":0,"max_players":24,"Bots":0,"server_type":"Dedicated","server_os":"Linux","password":true,"vac":true,"version":"7708610","steam_id":85568392924510193,"keywords":["cp","nocrits","nodmgspread","uncletopia"],"game_id":440,"stv_port":27046,"stv_name":"Uncletopia | London | 4 | All Maps | STV","players":null},{"server_id":21,"name":"Uncletopia | London | 5 | All Maps","name_short":"lon-5","host":"lon-1.uk.uncletopia.com","port":27055,"enabled":true,"region":"eu","cc":"gb","latitude":51.509865,"longitude":-0.118092,"reserved":0,"last_update":"0001-01-01T00:00:00Z","name_a2s":"Uncletopia | London | 5 | All Maps","protocol":17,"map":"koth_viaduct","folder":"tf","game":"Team Fortress","app_id":440,"player_count":0,"max_players":24,"Bots":0,"server_type":"Dedicated","server_os":"Linux","password":true,"vac":true,"version":"7708610","steam_id":85568392924742829,"keywords":["cp","nocrits","nodmgspread","uncletopia"],"game_id":440,"stv_port":27056,"stv_name":"Uncletopia | London | 5 | All Maps | STV","players":null},{"server_id":22,"name":"Uncletopia | London | 6 | All Maps","name_short":"lon-6","host":"lon-1.uk.uncletopia.com","port":27065,"enabled":true,"region":"eu","cc":"gb","latitude":51.509865,"longitude":-0.118092,"reserved":0,"last_update":"0001-01-01T00:00:00Z","name_a2s":"Uncletopia | London | 6 | All Maps","protocol":17,"map":"koth_highpass","folder":"tf","game":"Team Fortress","app_id":440,"player_count":0,"max_players":24,"Bots":0,"server_type":"Dedicated","server_os":"Linux","password":true,"vac":true,"version":"7708610","steam_id":85568392924742830,"keywords":["cp","nocrits","nodmgspread","uncletopia"],"game_id":440,"stv_port":27066,"stv_name":"Uncletopia | London | 6 | All Maps | STV","players":null},{"server_id":40,"name":"Uncletopia | London | 7 | No Payload","name_short":"lon-7","host":"lon-1.uk.uncletopia.com","port":27075,"enabled":true,"region":"eu","cc":"gb","latitude":51.509865,"longitude":-0.118092,"reserved":0,"last_update":"0001-01-01T00:00:00Z","name_a2s":"Uncletopia | London | 7 | No Payload","protocol":17,"map":"koth_brazil","folder":"tf","game":"Team Fortress","app_id":440,"player_count":0,"max_players":24,"Bots":0,"server_type":"Dedicated","server_os":"Linux","password":true,"vac":true,"version":"7708610","steam_id":85568392924964314,"keywords":["cp","nocrits","nodmgspread","uncletopia"],"game_id":440,"stv_port":27076,"stv_name":"Uncletopia | London | 7 | No Payload | STV","players":null},{"server_id":41,"name":"Uncletopia | London | 8 | Community","name_short":"lon-8","host":"lon-1.uk.uncletopia.com","port":27085,"enabled":true,"region":"eu","cc":"gb","latitude":51.509865,"longitude":-0.118092,"reserved":0,"last_update":"0001-01-01T00:00:00Z","name_a2s":"Uncletopia | London | 8 | Community","protocol":17,"map":"workshop/koth_product_final.ugc454272353","folder":"tf","game":"Team Fortress","app_id":440,"player_count":0,"max_players":24,"Bots":0,"server_type":"Dedicated","server_os":"Linux","password":true,"vac":true,"version":"7708610","steam_id":85568392924964315,"keywords":["cp","nocrits","nodmgspread","uncletopia"],"game_id":440,"stv_port":27086,"stv_name":"Uncletopia | London | 8 | Community | STV","players":null},{"server_id":300,"name":"Uncletopia | Montr√©al | 1 | All Maps","name_short":"mtl-1","host":"mtl-1.ca.uncletopia.com","port":27015,"enabled":true,"region":"us-east","cc":"ca","latitude":45.50889,"longitude":-73.56167,"reserved":0,"last_update":"0001-01-01T00:00:00Z","name_a2s":"Uncletopia | Montr√©al | 1 | All Maps","protocol":17,"map":"koth_cascade","folder":"tf","game":"Team Fortress","app_id":440,"player_count":0,"max_players":24,"Bots":0,"server_type":"Dedicated","server_os":"Linux","password":true,"vac":true,"version":"7708610","steam_id":85568392924500087,"keywords":["cp","nocrits","nodmgspread","uncletopia"],"game_id":440,"stv_port":27016,"stv_name":"Uncletopia | Montr√©al | 1 | All Maps | STV","players":null},{"server_id":301,"name":"Uncletopia | Montr√©al | 2 | All Maps","name_short":"mtl-2","host":"mtl-1.ca.uncletopia.com","port":27025,"enabled":true,"region":"us-east","cc":"ca","latitude":45.50889,"longitude":-73.56167,"reserved":0,"last_update":"0001-01-01T00:00:00Z","name_a2s":"Uncletopia | Montr√©al | 2 | All Maps","protocol":17,"map":"koth_viaduct","folder":"tf","game":"Team Fortress","app_id":440,"player_count":0,"max_players":24,"Bots":0,"server_type":"Dedicated","server_os":"Linux","password":true,"vac":true,"version":"7708610","steam_id":85568392924500088,"keywords":["cp","nocrits","nodmgspread","uncletopia"],"game_id":440,"stv_port":27026,"stv_name":"Uncletopia | Montr√©al | 2 | All Maps | STV","players":null},{"server_id":302,"name":"Uncletopia | Montr√©al | 3 | All Maps","name_short":"mtl-3","host":"mtl-1.ca.uncletopia.com","port":27035,"enabled":true,"region":"us-east","cc":"ca","latitude":45.50889,"longitude":-73.56167,"reserved":0,"last_update":"0001-01-01T00:00:00Z","name_a2s":"Uncletopia | Montr√©al | 3 | All Maps","protocol":17,"map":"koth_cascade","folder":"tf","game":"Team Fortress","app_id":440,"player_count":0,"max_players":24,"Bots":0,"server_type":"Dedicated","server_os":"Linux","password":true,"vac":true,"version":"7708610","steam_id":85568392924500089,"keywords":["cp","nocrits","nodmgspread","uncletopia"],"game_id":440,"stv_port":27036,"stv_name":"Uncletopia | Montr√©al | 3 | All Maps | STV","players":null},{"server_id":303,"name":"Uncletopia | Montr√©al | 4 | No Payload","name_short":"mtl-4","host":"mtl-1.ca.uncletopia.com","port":27045,"enabled":true,"region":"us-east","cc":"ca","latitude":45.50889,"longitude":-73.56167,"reserved":0,"last_update":"0001-01-01T00:00:00Z","name_a2s":"Uncletopia | Montr√©al | 4 | No Payload","protocol":17,"map":"pl_frontier_final","folder":"tf","game":"Team Fortress","app_id":440,"player_count":0,"max_players":24,"Bots":0,"server_type":"Dedicated","server_os":"Linux","password":true,"vac":true,"version":"7708610","steam_id":85568392924500090,"keywords":["nocrits","nodmgspread","payload","uncletopia"],"game_id":440,"stv_port":0,"stv_name":"","players":null},{"server_id":13,"name":"Uncletopia | New York City | 1 | All Maps","name_short":"nyc-1","host":"nyc-1.us.uncletopia.com","port":27015,"enabled":true,"region":"us-east","cc":"us","latitude":40.73061,"longitude":-73.93524,"reserved":0,"last_update":"0001-01-01T00:00:00Z","name_a2s":"Uncletopia | New York City | 1 | All Maps","protocol":17,"map":"pl_upward","folder":"tf","game":"Team Fortress","app_id":440,"player_count":22,"max_players":24,"Bots":0,"server_type":"Dedicated","server_os":"Linux","password":true,"vac":true,"version":"7708610","steam_id":85568392924469993,"keywords":["nocrits","nodmgspread","payload","uncletopia"],"game_id":440,"stv_port":27016,"stv_name":"Uncletopia | New York City | 1 | All Maps | STV","players":[{"user_id":514,"name":"Cyborgslayer15","steam_id":76561198436090688,"connected_time":240000000000,"state":"active","ping":61},{"user_id":512,"name":"hemispherectomy","steam_id":76561198119178364,"connected_time":340000000000,"state":"active","ping":75},{"user_id":497,"name":"DreaMz","steam_id":76561199067623395,"connected_time":781000000000,"state":"active","ping":60},{"user_id":513,"name":"Juanelo","steam_id":76561199096390505,"connected_time":282000000000,"state":"active","ping":97},{"user_id":502,"name":"TheTomatoWizard","steam_id":76561199123567989,"connected_time":607000000000,"state":"active","ping":51},{"user_id":503,"name":"Murky the murloc","steam_id":76561198004343439,"connected_time":589000000000,"state":"active","ping":88},{"user_id":487,"name":"Silver","steam_id":76561198070197504,"connected_time":1725000000000,"state":"active","ping":40},{"user_id":505,"name":"DarkenedPolarity","steam_id":76561199073099596,"connected_time":584000000000,"state":"active","ping":70},{"user_id":515,"name":"Squid's","steam_id":76561198826820952,"connected_time":221000000000,"state":"active","ping":50},{"user_id":517,"name":"Airplane ;)","steam_id":76561198301058475,"connected_time":196000000000,"state":"active","ping":77},{"user_id":508,"name":"Lankton","steam_id":76561198106345718,"connected_time":531000000000,"state":"active","ping":76},{"user_id":519,"name":"Dog Goggles","steam_id":76561197995233692,"connected_time":174000000000,"state":"active","ping":63},{"user_id":449,"name":"Majozoe","steam_id":76561198007563292,"connected_time":5417000000000,"state":"active","ping":68},{"user_id":521,"name":"chilis baby back ribs","steam_id":76561198813516435,"connected_time":161000000000,"state":"active","ping":105},{"user_id":526,"name":"sys","steam_id":76561198300912581,"connected_time":63000000000,"state":"active","ping":76},{"user_id":523,"name":"All 24 Pok√©mon movies at once","steam_id":76561198164738311,"connected_time":138000000000,"state":"active","ping":77},{"user_id":524,"name":"Lifial","steam_id":76561198271885819,"connected_time":110000000000,"state":"active","ping":56},{"user_id":525,"name":"NoonCity","steam_id":76561198010165479,"connected_time":74000000000,"state":"active","ping":48},{"user_id":527,"name":"sithreis","steam_id":76561198000564263,"connected_time":52000000000,"state":"active","ping":75},{"user_id":485,"name":"SaucyAlfredo","steam_id":76561198814854234,"connected_time":2058000000000,"state":"active","ping":65},{"user_id":477,"name":"Ch4rl33","steam_id":76561198037008621,"connected_time":2775000000000,"state":"active","ping":67},{"user_id":528,"name":"Bapp","steam_id":76561198186463646,"connected_time":35000000000,"state":"spawning","ping":148}]},{"server_id":14,"name":"Uncletopia | New York City | 2 | All Maps","name_short":"nyc-2","host":"nyc-1.us.uncletopia.com","port":27025,"enabled":true,"region":"us-east","cc":"us","latitude":40.73061,"longitude":-73.93524,"reserved":0,"last_update":"0001-01-01T00:00:00Z","name_a2s":"Uncletopia | New York City | 2 | All Maps","protocol":17,"map":"koth_highpass","folder":"tf","game":"Team Fortress","app_id":440,"player_count":0,"max_players":24,"Bots":0,"server_type":"Dedicated","server_os":"Linux","password":true,"vac":true,"version":"7708610","steam_id":85568392924469994,"keywords":["cp","nocrits","nodmgspread","uncletopia"],"game_id":440,"stv_port":27026,"stv_name":"Uncletopia | New York City | 2 | All Maps | STV","players":null},{"server_id":15,"name":"Uncletopia | New York City | 3 | All Maps","name_short":"nyc-3","host":"nyc-1.us.uncletopia.com","port":27035,"enabled":true,"region":"us-east","cc":"us","latitude":40.73061,"longitude":-73.93524,"reserved":0,"last_update":"0001-01-01T00:00:00Z","name_a2s":"Uncletopia | New York City | 3 | All Maps","protocol":17,"map":"cp_steel","folder":"tf","game":"Team Fortress","app_id":440,"player_count":24,"max_players":24,"Bots":0,"server_type":"Dedicated","server_os":"Linux","password":true,"vac":true,"version":"7708610","steam_id":85568392924742820,"keywords":["cp","nocrits","nodmgspread","uncletopia"],"game_id":440,"stv_port":27036,"stv_name":"Uncletopia | New York City | 3 | All Maps | STV","players":[{"user_id":94,"name":"stealthy","steam_id":76561198071386492,"connected_time":5458000000000,"state":"active","ping":65},{"user_id":152,"name":"Tourmaline Lazuli","steam_id":76561198987049358,"connected_time":2409000000000,"state":"active","ping":65},{"user_id":162,"name":"bardy","steam_id":76561198043639662,"connected_time":1918000000000,"state":"active","ping":64},{"user_id":160,"name":"it_do_be_ivy","steam_id":76561198077796736,"connected_time":1970000000000,"state":"active","ping":51},{"user_id":165,"name":"Skelitor ‚ú™","steam_id":76561198043885634,"connected_time":1747000000000,"state":"active","ping":68},{"user_id":200,"name":"BigGreenBeast","steam_id":76561199052862674,"connected_time":433000000000,"state":"active","ping":54},{"user_id":195,"name":"CHKR","steam_id":76561198366790166,"connected_time":783000000000,"state":"active","ping":58},{"user_id":178,"name":"CamoS1250","steam_id":76561198309917434,"connected_time":1255000000000,"state":"active","ping":76},{"user_id":179,"name":"CrazyKermitRubes","steam_id":76561198009065204,"connected_time":1239000000000,"state":"active","ping":57},{"user_id":159,"name":"tabbymei","steam_id":76561199437351945,"connected_time":2027000000000,"state":"active","ping":79},{"user_id":161,"name":"PaD_Ding","steam_id":76561198831202965,"connected_time":1947000000000,"state":"active","ping":170},{"user_id":180,"name":"Bernadetta87","steam_id":76561198935616640,"connected_time":1200000000000,"state":"active","ping":80},{"user_id":201,"name":"InherentlyGu","steam_id":76561198208785211,"connected_time":404000000000,"state":"active","ping":64},{"user_id":191,"name":"Willy","steam_id":76561199240618325,"connected_time":904000000000,"state":"active","ping":73},{"user_id":206,"name":"Red Reality","steam_id":76561198434360377,"connected_time":147000000000,"state":"active","ping":129},{"user_id":181,"name":"ATmaster447","steam_id":76561198099239773,"connected_time":1197000000000,"state":"active","ping":78},{"user_id":182,"name":"Dragus","steam_id":76561198032967285,"connected_time":1195000000000,"state":"active","ping":71},{"user_id":202,"name":"jaxolotl","steam_id":76561199034893401,"connected_time":402000000000,"state":"active","ping":60},{"user_id":197,"name":"Chewbacca","steam_id":76561198041927925,"connected_time":484000000000,"state":"active","ping":60},{"user_id":204,"name":"senake","steam_id":76561199053879737,"connected_time":286000000000,"state":"active","ping":92},{"user_id":188,"name":"Byansen","steam_id":76561199039069127,"connected_time":1063000000000,"state":"active","ping":87},{"user_id":189,"name":"Sicko Mode (Chris Pratt Cover)","steam_id":76561198315786174,"connected_time":1036000000000,"state":"active","ping":52},{"user_id":173,"name":"Your Local Jester","steam_id":76561199120223717,"connected_time":1496000000000,"state":"active","ping":57}]},{"server_id":16,"name":"Uncletopia | New York City | 4 | Community","name_short":"nyc-4","host":"nyc-1.us.uncletopia.com","port":27045,"enabled":true,"region":"us-east","cc":"us","latitude":40.73061,"longitude":-73.93524,"reserved":0,"last_update":"0001-01-01T00:00:00Z","name_a2s":"Uncletopia | New York City | 4 | Community","protocol":17,"map":"workshop/koth_bagel_rc5.ugc2514036946","folder":"tf","game":"Team Fortress","app_id":440,"player_count":0,"max_players":24,"Bots":0,"server_type":"Dedicated","server_os":"Linux","password":true,"vac":true,"version":"7708610","steam_id":85568392924742821,"keywords":["cp","nocrits","nodmgspread","uncletopia"],"game_id":440,"stv_port":27046,"stv_name":"Uncletopia | New York City | 4 | Community | STV","players":null},{"server_id":142,"name":"Uncletopia | S√£o Paulo | 1 | All Maps","name_short":"sao-1","host":"sao-1.br.uncletopia.com","port":27015,"enabled":true,"region":"sa","cc":"br","latitude":-23.533773,"longitude":-46.62529,"reserved":0,"last_update":"0001-01-01T00:00:00Z","name_a2s":"Uncletopia | S√£o Paulo | 1 | All Maps","protocol":17,"map":"koth_highpass","folder":"tf","game":"Team Fortress","app_id":440,"player_count":5,"max_players":24,"Bots":0,"server_type":"Dedicated","server_os":"Linux","password":true,"vac":true,"version":"7708610","steam_id":85568392924469996,"keywords":["cp","nocrits","nodmgspread","uncletopia"],"game_id":440,"stv_port":27016,"stv_name":"Uncletopia | S√£o Paulo | 1 | All Maps | STV","players":[{"user_id":456,"name":"F‚ôØ A‚ôØ ‚àû","steam_id":76561198118943620,"connected_time":3944000000000,"state":"active","ping":39},{"user_id":471,"name":"Appollo","steam_id":76561199441662625,"connected_time":376000000000,"state":"active","ping":62},{"user_id":470,"name":"Thompy","steam_id":76561199409024712,"connected_time":569000000000,"state":"active","ping":51},{"user_id":472,"name":"PYROCANTE #SAVETF2","steam_id":76561199152529988,"connected_time":81000000000,"state":"active","ping":51},{"user_id":457,"name":"raw","steam_id":76561199067810791,"connected_time":3903000000000,"state":"active","ping":47}]},{"server_id":143,"name":"Uncletopia | S√£o Paulo | 2 | All Maps","name_short":"sao-2","host":"sao-2.br.uncletopia.com","port":27015,"enabled":true,"region":"sa","cc":"br","latitude":-23.533773,"longitude":-46.62529,"reserved":0,"last_update":"0001-01-01T00:00:00Z","name_a2s":"Uncletopia | S√£o Paulo | 2 | All Maps","protocol":17,"map":"koth_viaduct","folder":"tf","game":"Team Fortress","app_id":440,"player_count":0,"max_players":24,"Bots":0,"server_type":"Dedicated","server_os":"Linux","password":true,"vac":true,"version":"7708610","steam_id":85568392924485349,"keywords":["cp","nocrits","nodmgspread","uncletopia"],"game_id":440,"stv_port":27016,"stv_name":"Uncletopia | S√£o Paulo | 2 | All Maps | STV","players":null},{"server_id":7,"name":"Uncletopia | Seattle | 1 | All Maps","name_short":"sea-1","host":"sea-1.us.uncletopia.com","port":27015,"enabled":true,"region":"us-west","cc":"us","latitude":47.608013,"longitude":-122.33517,"reserved":0,"last_update":"0001-01-01T00:00:00Z","name_a2s":"Uncletopia | Seattle | 1 | All Maps","protocol":17,"map":"cp_mossrock","folder":"tf","game":"Team Fortress","app_id":440,"player_count":20,"max_players":24,"Bots":0,"server_type":"Dedicated","server_os":"Linux","password":true,"vac":true,"version":"7708610","steam_id":85568392924469997,"keywords":["cp","nocrits","nodmgspread","uncletopia"],"game_id":440,"stv_port":27016,"stv_name":"Uncletopia | Seattle | 1 | All Maps | STV","players":[{"user_id":327,"name":"Hotguy77‚Ñ¢ Incoming Heavy Main","steam_id":76561199222041792,"connected_time":1480000000000,"state":"active","ping":184},{"user_id":314,"name":"TMG","steam_id":76561198911086022,"connected_time":2029000000000,"state":"active","ping":106},{"user_id":333,"name":"Damn","steam_id":76561198133741201,"connected_time":973000000000,"state":"active","ping":57},{"user_id":334,"name":"Jesus Loves You57","steam_id":76561199058833769,"connected_time":959000000000,"state":"active","ping":64},{"user_id":335,"name":"DGamer50","steam_id":76561198873200099,"connected_time":555000000000,"state":"active","ping":63},{"user_id":338,"name":"boxy443 (f2p)","steam_id":76561199386363103,"connected_time":382000000000,"state":"active","ping":56},{"user_id":266,"name":"mu","steam_id":76561197997530228,"connected_time":4772000000000,"state":"active","ping":44},{"user_id":324,"name":"resting neutral face","steam_id":76561197999259502,"connected_time":1666000000000,"state":"active","ping":64},{"user_id":301,"name":"Can of Oranges (Festive)","steam_id":76561199121813529,"connected_time":2681000000000,"state":"active","ping":73},{"user_id":337,"name":"incineratedbread","steam_id":76561198133619079,"connected_time":456000000000,"state":"active","ping":41},{"user_id":339,"name":"bitmappu","steam_id":76561199000786530,"connected_time":253000000000,"state":"active","ping":77},{"user_id":340,"name":"KingSteve42","steam_id":76561198409455888,"connected_time":190000000000,"state":"active","ping":97},{"user_id":341,"name":"Ozzimo","steam_id":76561197961632819,"connected_time":178000000000,"state":"active","ping":58},{"user_id":303,"name":"Skeleton Bones Ghoulie","steam_id":76561199138772722,"connected_time":2583000000000,"state":"active","ping":77},{"user_id":342,"name":"„Çª„Ç§„Éê„Éº","steam_id":76561198169223408,"connected_time":155000000000,"state":"active","ping":59},{"user_id":328,"name":"Pyrolimited","steam_id":76561198195455657,"connected_time":1423000000000,"state":"active","ping":47},{"user_id":343,"name":"Guy TIPS TOO FROSTY Fieri","steam_id":76561198065273751,"connected_time":106000000000,"state":"active","ping":41},{"user_id":346,"name":"SlipperyBiz","steam_id":76561198011132403,"connected_time":15000000000,"state":"active","ping":111},{"user_id":345,"name":"–≥—Ä—É—Å—Ç–Ω—ã–π","steam_id":76561198274550638,"connected_time":48000000000,"state":"active","ping":107},{"user_id":347,"name":"Sailor","steam_id":76561199081983517,"connected_time":4000000000,"state":"spawning","ping":103}]},{"server_id":119,"name":"Uncletopia | Seattle | 2 | All Maps","name_short":"sea-2","host":"sea-1.us.uncletopia.com","port":27025,"enabled":true,"region":"us-west","cc":"us","latitude":47.608013,"longitude":-122.33517,"reserved":0,"last_update":"0001-01-01T00:00:00Z","name_a2s":"Uncletopia | Seattle | 2 | All Maps","protocol":17,"map":"pl_frontier_final","folder":"tf","game":"Team Fortress","app_id":440,"player_count":16,"max_players":24,"Bots":0,"server_type":"Dedicated","server_os":"Linux","password":true,"vac":true,"version":"7708610","steam_id":85568392924469998,"keywords":["nocrits","nodmgspread","payload","uncletopia"],"game_id":440,"stv_port":27026,"stv_name":"Uncletopia | Seattle | 2 | All Maps | STV","players":[{"user_id":309,"name":"themadlad67","steam_id":76561199309554436,"connected_time":765000000000,"state":"active","ping":51},{"user_id":300,"name":"GameGuru the Green Gryphon","steam_id":76561198118495354,"connected_time":1206000000000,"state":"active","ping":48},{"user_id":305,"name":"stitchu27","steam_id":76561199087081376,"connected_time":1052000000000,"state":"active","ping":115},{"user_id":308,"name":"Idontknow","steam_id":76561199207044048,"connected_time":926000000000,"state":"active","ping":47},{"user_id":277,"name":"pat back","steam_id":76561198347225801,"connected_time":2909000000000,"state":"active","ping":45},{"user_id":296,"name":"The Horny","steam_id":76561198863639459,"connected_time":1299000000000,"state":"active","ping":86},{"user_id":270,"name":"exephur","steam_id":76561198135763234,"connected_time":3152000000000,"state":"active","ping":60},{"user_id":311,"name":"Cream Corn","steam_id":76561198043791586,"connected_time":573000000000,"state":"active","ping":112},{"user_id":312,"name":"Ziggie Smalls","steam_id":76561198804592809,"connected_time":549000000000,"state":"active","ping":45},{"user_id":298,"name":"DrD","steam_id":76561198067266383,"connected_time":1266000000000,"state":"active","ping":36},{"user_id":299,"name":"XzachTLY","steam_id":76561198145534604,"connected_time":1264000000000,"state":"active","ping":66},{"user_id":315,"name":"kab789","steam_id":76561198069842202,"connected_time":129000000000,"state":"active","ping":98},{"user_id":274,"name":"-BRH- Tangled up in Bluegrass","steam_id":76561197987181139,"connected_time":3105000000000,"state":"active","ping":105},{"user_id":283,"name":"markie","steam_id":76561198042941628,"connected_time":2428000000000,"state":"active","ping":80},{"user_id":307,"name":"Spearit5464","steam_id":76561199241807676,"connected_time":995000000000,"state":"active","ping":45},{"user_id":290,"name":"ED","steam_id":76561198441715445,"connected_time":1760000000000,"state":"active","ping":120}]},{"server_id":17,"name":"Uncletopia | San Francisco | 1 | All Maps","name_short":"sfo-1","host":"sfo-1.us.uncletopia.com","port":27015,"enabled":true,"region":"us-west","cc":"us","latitude":37.77397,"longitude":-122.4313,"reserved":0,"last_update":"0001-01-01T00:00:00Z","name_a2s":"Uncletopia | San Francisco | 1 | All Maps","protocol":17,"map":"pl_snowycoast","folder":"tf","game":"Team Fortress","app_id":440,"player_count":20,"max_players":24,"Bots":0,"server_type":"Dedicated","server_os":"Linux","password":true,"vac":true,"version":"7708610","steam_id":85568392924469999,"keywords":["nocrits","nodmgspread","payload","uncletopia"],"game_id":440,"stv_port":27016,"stv_name":"Uncletopia | San Francisco | 1 | All Maps | STV","players":[{"user_id":156,"name":"huiei","steam_id":76561198073763735,"connected_time":1165000000000,"state":"active","ping":40},{"user_id":176,"name":"young thug weaponry","steam_id":76561198363821364,"connected_time":71000000000,"state":"spawning","ping":50},{"user_id":179,"name":"Paul Nantucket","steam_id":76561198831161019,"connected_time":37000000000,"state":"active","ping":40},{"user_id":140,"name":"June","steam_id":76561198141803658,"connected_time":2023000000000,"state":"active","ping":40},{"user_id":152,"name":"Danger Noodle","steam_id":76561198130841014,"connected_time":1509000000000,"state":"active","ping":41},{"user_id":154,"name":"Anxious Nerd Bird","steam_id":76561198112178602,"connected_time":1173000000000,"state":"active","ping":53},{"user_id":177,"name":"Ruby","steam_id":76561198190950354,"connected_time":70000000000,"state":"active","ping":50},{"user_id":71,"name":"DRI","steam_id":76561198157076858,"connected_time":7346000000000,"state":"active","ping":79},{"user_id":180,"name":"oil","steam_id":76561198099980149,"connected_time":32000000000,"state":"active","ping":60},{"user_id":114,"name":"corbenis","steam_id":76561199012442511,"connected_time":3847000000000,"state":"active","ping":60},{"user_id":157,"name":"flo rida","steam_id":76561198226169704,"connected_time":1160000000000,"state":"active","ping":67},{"user_id":168,"name":"DefaultKoala","steam_id":76561198059141147,"connected_time":731000000000,"state":"active","ping":82},{"user_id":178,"name":"Mudkip","steam_id":76561198164192160,"connected_time":63000000000,"state":"active","ping":46},{"user_id":159,"name":"Amogous Supreme","steam_id":76561198025476774,"connected_time":1120000000000,"state":"active","ping":49},{"user_id":129,"name":"anal fiend","steam_id":76561198026844952,"connected_time":2550000000000,"state":"active","ping":67},{"user_id":137,"name":"Tripp","steam_id":76561198033705006,"connected_time":2184000000000,"state":"active","ping":63},{"user_id":172,"name":"Marzbee115","steam_id":76561198095821025,"connected_time":440000000000,"state":"active","ping":45},{"user_id":173,"name":"squinzi","steam_id":76561198086520846,"connected_time":342000000000,"state":"active","ping":49},{"user_id":151,"name":"jungus","steam_id":76561198129862008,"connected_time":1644000000000,"state":"active","ping":46},{"user_id":175,"name":"Gametez","steam_id":76561198874716590,"connected_time":207000000000,"state":"active","ping":65}]},{"server_id":18,"name":"Uncletopia | San Francisco | 2 | All Maps","name_short":"sfo-2","host":"sfo-1.us.uncletopia.com","port":27025,"enabled":true,"region":"us-west","cc":"us","latitude":37.77397,"longitude":-122.4313,"reserved":0,"last_update":"0001-01-01T00:00:00Z","name_a2s":"Uncletopia | San Francisco | 2 | All Maps","protocol":17,"map":"koth_cascade","folder":"tf","game":"Team Fortress","app_id":440,"player_count":0,"max_players":24,"Bots":0,"server_type":"Dedicated","server_os":"Linux","password":true,"vac":true,"version":"7708610","steam_id":85568392924470000,"keywords":["cp","nocrits","nodmgspread","uncletopia"],"game_id":440,"stv_port":0,"stv_name":"","players":null},{"server_id":19,"name":"Uncletopia | San Francisco | 3 | No Payload","name_short":"sfo-3","host":"sfo-1.us.uncletopia.com","port":27035,"enabled":true,"region":"us-west","cc":"us","latitude":37.77397,"longitude":-122.4313,"reserved":0,"last_update":"0001-01-01T00:00:00Z","name_a2s":"Uncletopia | San Francisco | 3 | No Payload","protocol":17,"map":"cp_yukon_final","folder":"tf","game":"Team Fortress","app_id":440,"player_count":0,"max_players":24,"Bots":0,"server_type":"Dedicated","server_os":"Linux","password":true,"vac":true,"version":"7708610","steam_id":85568392924742824,"keywords":["cp","nocrits","nodmgspread","uncletopia"],"game_id":440,"stv_port":27036,"stv_name":"Uncletopia | San Francisco | 3 | No Payload | STV","players":null},{"server_id":20,"name":"Uncletopia | San Francisco | 4 | Community","name_short":"sfo-4","host":"sfo-1.us.uncletopia.com","port":27045,"enabled":true,"region":"us-west","cc":"us","latitude":37.77397,"longitude":-122.4313,"reserved":0,"last_update":"0001-01-01T00:00:00Z","name_a2s":"Uncletopia | San Francisco | 4 | Community","protocol":17,"map":"workshop/koth_synthetic_rc6a.ugc1549817316","folder":"tf","game":"Team Fortress","app_id":440,"player_count":0,"max_players":24,"Bots":0,"server_type":"Dedicated","server_os":"Linux","password":true,"vac":true,"version":"7708610","steam_id":85568392924742826,"keywords":["cp","nocrits","nodmgspread","uncletopia"],"game_id":440,"stv_port":27046,"stv_name":"Uncletopia | San Francisco | 4 | Community | STV","players":null},{"server_id":141,"name":"Uncletopia | Sydney | 1 | All Maps","name_short":"syd-1","host":"syd-1.au.uncletopia.com","port":27015,"enabled":true,"region":"au","cc":"au","latitude":-33.865143,"longitude":151.2099,"reserved":0,"last_update":"0001-01-01T00:00:00Z","name_a2s":"Uncletopia | Sydney | 1 | All Maps","protocol":17,"map":"cp_altitude","folder":"tf","game":"Team Fortress","app_id":440,"player_count":23,"max_players":24,"Bots":0,"server_type":"Dedicated","server_os":"Linux","password":true,"vac":true,"version":"7708610","steam_id":85568392924470001,"keywords":["cp","nocrits","nodmgspread","uncletopia"],"game_id":440,"stv_port":27016,"stv_name":"Uncletopia | Sydney | 1 | All Maps | STV","players":[{"user_id":333,"name":"hendog","steam_id":76561198063477445,"connected_time":429000000000,"state":"active","ping":62},{"user_id":228,"name":"Marzell","steam_id":76561198151276153,"connected_time":7576000000000,"state":"active","ping":79},{"user_id":312,"name":"shirt without the r","steam_id":76561199071810220,"connected_time":1282000000000,"state":"active","ping":56},{"user_id":311,"name":"seiran","steam_id":76561198880907232,"connected_time":1288000000000,"state":"active","ping":79},{"user_id":339,"name":"Pseudoman","steam_id":76561198131158447,"connected_time":38000000000,"state":"active","ping":118},{"user_id":338,"name":"Gavin.","steam_id":76561198405783348,"connected_time":94000000000,"state":"active","ping":60},{"user_id":334,"name":"cbpop","steam_id":76561198992538857,"connected_time":395000000000,"state":"active","ping":92},{"user_id":316,"name":"HYPER","steam_id":76561198302487295,"connected_time":1187000000000,"state":"active","ping":47},{"user_id":275,"name":"NewChris","steam_id":76561198254754182,"connected_time":4162000000000,"state":"active","ping":75},{"user_id":299,"name":"Dame Da Ne Guy","steam_id":76561198145027367,"connected_time":2587000000000,"state":"active","ping":72},{"user_id":269,"name":"LightningBlock","steam_id":76561198289997742,"connected_time":4519000000000,"state":"active","ping":32},{"user_id":340,"name":"clout","steam_id":76561198073310502,"connected_time":5000000000,"state":"spawning","ping":89},{"user_id":307,"name":"curtis","steam_id":76561197993731862,"connected_time":1816000000000,"state":"active","ping":95},{"user_id":325,"name":"BoomerLikeSentinel","steam_id":76561198999276228,"connected_time":859000000000,"state":"active","ping":77},{"user_id":332,"name":"blicky","steam_id":76561198029829077,"connected_time":660000000000,"state":"active","ping":95},{"user_id":303,"name":"lime.daleks","steam_id":76561198155866980,"connected_time":2270000000000,"state":"active","ping":55},{"user_id":320,"name":"skud","steam_id":76561198136866711,"connected_time":1155000000000,"state":"active","ping":51},{"user_id":300,"name":"Swaggeroth","steam_id":76561198084066189,"connected_time":2584000000000,"state":"active","ping":42},{"user_id":322,"name":"gerald","steam_id":76561198274740718,"connected_time":1101000000000,"state":"active","ping":94},{"user_id":308,"name":"CypressFluff (She/Her)","steam_id":76561198174667818,"connected_time":1585000000000,"state":"active","ping":64},{"user_id":244,"name":"Kiwoo","steam_id":76561198097429186,"connected_time":6229000000000,"state":"active","ping":88},{"user_id":323,"name":"spud_","steam_id":76561198048354831,"connected_time":1100000000000,"state":"active","ping":46},{"user_id":324,"name":"mattypro101","steam_id":76561199388828115,"connected_time":1013000000000,"state":"active","ping":60}]},{"server_id":123,"name":"Uncletopia | Sydney | 2 | All Maps","name_short":"syd-2","host":"syd-1.au.uncletopia.com","port":27025,"enabled":true,"region":"au","cc":"au","latitude":-33.865143,"longitude":151.2099,"reserved":0,"last_update":"0001-01-01T00:00:00Z","name_a2s":"Uncletopia | Sydney | 2 | All Maps","protocol":17,"map":"koth_highpass","folder":"tf","game":"Team Fortress","app_id":440,"player_count":1,"max_players":24,"Bots":0,"server_type":"Dedicated","server_os":"Linux","password":true,"vac":true,"version":"7708610","steam_id":85568392924470002,"keywords":["cp","nocrits","nodmgspread","uncletopia"],"game_id":440,"stv_port":27026,"stv_name":"Uncletopia | Sydney | 2 | All Maps | STV","players":[{"user_id":12,"name":"Furrido","steam_id":76561198095836791,"connected_time":226000000000,"state":"active","ping":52}]},{"server_id":395,"name":"Uncletopia | Sydney | 3 | All Maps","name_short":"syd-3","host":"syd-1.au.uncletopia.com","port":27035,"enabled":true,"region":"au","cc":"au","latitude":-33.865143,"longitude":151.2099,"reserved":0,"last_update":"0001-01-01T00:00:00Z","name_a2s":"Uncletopia | Sydney | 3 | All Maps","protocol":17,"map":"pl_barnblitz","folder":"tf","game":"Team Fortress","app_id":440,"player_count":11,"max_players":24,"Bots":0,"server_type":"Dedicated","server_os":"Linux","password":true,"vac":true,"version":"7708610","steam_id":85568392925194467,"keywords":["nocrits","nodmgspread","payload","uncletopia"],"game_id":440,"stv_port":27036,"stv_name":"Uncletopia | Sydney | 3 | All Maps | STV","players":[{"user_id":11,"name":"AmethystDragon10","steam_id":76561198412979983,"connected_time":5810000000000,"state":"active","ping":75},{"user_id":32,"name":"Bitcoin Gazillionare","steam_id":76561198411811796,"connected_time":1032000000000,"state":"active","ping":77},{"user_id":13,"name":"Pickled Cow","steam_id":76561198292517991,"connected_time":4494000000000,"state":"active","ping":40},{"user_id":29,"name":"chimney","steam_id":76561198808724546,"connected_time":1218000000000,"state":"active","ping":62},{"user_id":40,"name":"hijik","steam_id":76561198359069277,"connected_time":90000000000,"state":"active","ping":137},{"user_id":16,"name":"ree boy","steam_id":76561199024189820,"connected_time":4232000000000,"state":"active","ping":77},{"user_id":31,"name":"Charm","steam_id":76561198028891054,"connected_time":1075000000000,"state":"active","ping":60},{"user_id":27,"name":"RedEyes","steam_id":76561197973698135,"connected_time":1697000000000,"state":"active","ping":64},{"user_id":39,"name":"theeg","steam_id":76561198985005836,"connected_time":270000000000,"state":"active","ping":47},{"user_id":38,"name":"Gasoline","steam_id":76561198879023728,"connected_time":306000000000,"state":"active","ping":65},{"user_id":37,"name":"waffles","steam_id":76561199005815714,"connected_time":467000000000,"state":"active","ping":46}]},{"server_id":396,"name":"Uncletopia | Sydney | 4 | All Maps","name_short":"syd-4","host":"syd-1.au.uncletopia.com","port":27045,"enabled":true,"region":"au","cc":"au","latitude":-33.865143,"longitude":151.2099,"reserved":0,"last_update":"0001-01-01T00:00:00Z","name_a2s":"Uncletopia | Sydney | 4 | All Maps","protocol":17,"map":"koth_lakeside_final","folder":"tf","game":"Team Fortress","app_id":440,"player_count":0,"max_players":24,"Bots":0,"server_type":"Dedicated","server_os":"Linux","password":true,"vac":true,"version":"7708610","steam_id":85568392925397958,"keywords":["cp","nocrits","nodmgspread","uncletopia"],"game_id":440,"stv_port":0,"stv_name":"","players":null},{"server_id":58,"name":"Uncletopia | Sydney | 5 | No Payload","name_short":"syd-5","host":"syd-1.au.uncletopia.com","port":27055,"enabled":true,"region":"au","cc":"au","latitude":-33.865143,"longitude":151.2099,"reserved":0,"last_update":"0001-01-01T00:00:00Z","name_a2s":"Uncletopia | Sydney | 5 | No Payload","protocol":17,"map":"koth_cascade","folder":"tf","game":"Team Fortress","app_id":440,"player_count":0,"max_players":24,"Bots":0,"server_type":"Dedicated","server_os":"Linux","password":true,"vac":true,"version":"7708610","steam_id":85568392925397959,"keywords":["cp","nocrits","nodmgspread","uncletopia"],"game_id":440,"stv_port":0,"stv_name":"","players":null},{"server_id":59,"name":"Uncletopia | Sydney | 6 | Community","name_short":"syd-6","host":"syd-1.au.uncletopia.com","port":27065,"enabled":true,"region":"au","cc":"au","latitude":-33.865143,"longitude":151.2099,"reserved":0,"last_update":"0001-01-01T00:00:00Z","name_a2s":"Uncletopia | Sydney | 6 | Community","protocol":17,"map":"workshop/koth_synthetic_rc6a.ugc1549817316","folder":"tf","game":"Team Fortress","app_id":440,"player_count":0,"max_players":24,"Bots":0,"server_type":"Dedicated","server_os":"Linux","password":true,"vac":true,"version":"7708610","steam_id":85568392925397960,"keywords":["cp","nocrits","nodmgspread","uncletopia"],"game_id":440,"stv_port":27066,"stv_name":"Uncletopia | Sydney | 6 | Community | STV","players":null},{"server_id":49,"name":"Uncletopia | Warsaw | 1 | All Maps","name_short":"waw-1","host":"waw-1.pl.uncletopia.com","port":27015,"enabled":true,"region":"eu","cc":"pl","latitude":52.2297,"longitude":21.017532,"reserved":0,"last_update":"0001-01-01T00:00:00Z","name_a2s":"Uncletopia | Warsaw | 1 | All Maps","protocol":17,"map":"koth_viaduct","folder":"tf","game":"Team Fortress","app_id":440,"player_count":0,"max_players":24,"Bots":0,"server_type":"Dedicated","server_os":"Linux","password":true,"vac":true,"version":"7708610","steam_id":85568392925397850,"keywords":["cp","nocrits","nodmgspread","uncletopia"],"game_id":440,"stv_port":27016,"stv_name":"Uncletopia | Warsaw | 1 | All Maps | STV","players":null},{"server_id":50,"name":"Uncletopia | Warsaw | 2 | All Maps","name_short":"waw-2","host":"waw-1.pl.uncletopia.com","port":27025,"enabled":true,"region":"eu","cc":"pl","latitude":52.2297,"longitude":21.017532,"reserved":0,"last_update":"0001-01-01T00:00:00Z","name_a2s":"Uncletopia | Warsaw | 2 | All Maps","protocol":17,"map":"koth_lakeside_final","folder":"tf","game":"Team Fortress","app_id":440,"player_count":0,"max_players":24,"Bots":0,"server_type":"Dedicated","server_os":"Linux","password":true,"vac":true,"version":"7708610","steam_id":85568392925397851,"keywords":["cp","nocrits","nodmgspread","uncletopia"],"game_id":440,"stv_port":27026,"stv_name":"Uncletopia | Warsaw | 2 | All Maps | STV","players":null},{"server_id":51,"name":"Uncletopia | Warsaw | 3 | All Maps","name_short":"waw-3","host":"waw-1.pl.uncletopia.com","port":27035,"enabled":true,"region":"eu","cc":"pl","latitude":52.2297,"longitude":21.017532,"reserved":0,"last_update":"0001-01-01T00:00:00Z","name_a2s":"Uncletopia | Warsaw | 3 | All Maps","protocol":17,"map":"koth_highpass","folder":"tf","game":"Team Fortress","app_id":440,"player_count":0,"max_players":24,"Bots":0,"server_type":"Dedicated","server_os":"Linux","password":true,"vac":true,"version":"7708610","steam_id":85568392925397852,"keywords":["cp","nocrits","nodmgspread","uncletopia"],"game_id":440,"stv_port":27036,"stv_name":"Uncletopia | Warsaw | 3 | All Maps | STV","players":null},{"server_id":52,"name":"Uncletopia | Warsaw | 4 | All Maps","name_short":"waw-4","host":"waw-1.pl.uncletopia.com","port":27045,"enabled":true,"region":"eu","cc":"pl","latitude":52.2297,"longitude":21.017532,"reserved":0,"last_update":"0001-01-01T00:00:00Z","name_a2s":"Uncletopia | Warsaw | 4 | All Maps","protocol":17,"map":"cp_process_final","folder":"tf","game":"Team Fortress","app_id":440,"player_count":0,"max_players":24,"Bots":0,"server_type":"Dedicated","server_os":"Linux","password":true,"vac":true,"version":"7708610","steam_id":85568392925397853,"keywords":["cp","nocrits","nodmgspread","uncletopia"],"game_id":440,"stv_port":27046,"stv_name":"Uncletopia | Warsaw | 4 | All Maps | STV","players":null},{"server_id":53,"name":"Uncletopia | Warsaw | 5 | No Payload","name_short":"waw-5","host":"waw-1.pl.uncletopia.com","port":27055,"enabled":true,"region":"eu","cc":"pl","latitude":52.2297,"longitude":21.017532,"reserved":0,"last_update":"0001-01-01T00:00:00Z","name_a2s":"Uncletopia | Warsaw | 5 | No Payload","protocol":17,"map":"plr_pipeline","folder":"tf","game":"Team Fortress","app_id":440,"player_count":0,"max_players":24,"Bots":0,"server_type":"Dedicated","server_os":"Linux","password":true,"vac":true,"version":"7708610","steam_id":85568392925397854,"keywords":["nocrits","nodmgspread","payload","uncletopia"],"game_id":440,"stv_port":27056,"stv_name":"Uncletopia | Warsaw | 5 | No Payload | STV","players":null},{"server_id":54,"name":"Uncletopia | Warsaw | 6 | Community","name_short":"waw-6","host":"waw-1.pl.uncletopia.com","port":27065,"enabled":true,"region":"eu","cc":"pl","latitude":52.2297,"longitude":21.017532,"reserved":0,"last_update":"0001-01-01T00:00:00Z","name_a2s":"Uncletopia | Warsaw | 6 | Community","protocol":17,"map":"koth_highpass","folder":"tf","game":"Team Fortress","app_id":440,"player_count":0,"max_players":24,"Bots":0,"server_type":"Dedicated","server_os":"Linux","password":true,"vac":true,"version":"7708610","steam_id":85568392925397856,"keywords":["cp","nocrits","nodmgspread","uncletopia"],"game_id":440,"stv_port":0,"stv_name":"","players":null}]}