{"status":true,"message":"","result":[{"server_id":9,"name":"Uncletopia | Atlanta | 1 | All Maps","name_short":"atl-1","host":"atl-1.us.uncletopia.com","port":27015,"enabled":true,"region":"us-east","cc":"us","latitude":33.753746,"longitude":-84.38633,"reserved":0,"last_update":"0001-01-01T00:00:00Z","name_a2s":"Uncletopia | Atlanta | 1 | All Maps","protocol":17,"map":"cp_mountainlab","folder":"tf","game":"Team Fortress","app_id":440,"player_count":24,"max_players":24,"Bots":0,"server_type":"Dedicated","server_os":"Linux","password":true,"vac":true,"version":"7723704","steam_id":85568392924469982,"keywords":["cp","nocrits","nodmgspread","uncletopia"],"game_id":440,"stv_port":27016,"stv_name":"Uncletopia | Atlanta | 1 | All Maps | STV","players":[{"user_id":312,"name":"Danny","steam_id":76561198984537901,"connected_time":293000000000,"state":"active","ping":71},{"user_id":222,"name":"ATL1 | Lancer Fan Club","steam_id":76561198355495948,"connected_time":6628000000000,"state":"active","ping":78},{"user_id":296,"name":"DannyM","steam_id":76561198351165570,"connected_time":1654000000000,"state":"active","ping":55},{"user_id":173,"name":"The Great Eagle Scourge of 1822","steam_id":76561198325086209,"connected_time":11372000000000,"state":"active","ping":103},{"user_id":286,"name":"Brown_Dream","steam_id":76561198975766145,"connected_time":2407000000000,"state":"active","ping":64},{"user_id":308,"name":"Big Thrust","steam_id":76561198038173702,"connected_time":700000000000,"state":"active","ping":93},{"user_id":298,"name":"Jerry","steam_id":76561198253546017,"connected_time":1369000000000,"state":"active","ping":74},{"user_id":303,"name":"John Taxenfraud","steam_id":76561199011358805,"connected_time":843000000000,"state":"active","ping":54},{"user_id":241,"name":"LemonCloud","steam_id":76561199158389887,"connected_time":5704000000000,"state":"active","ping":55},{"user_id":272,"name":"ATL1 | Vee (very holly \u0026 jolly)","steam_id":76561198330432889,"connected_time":3564000000000,"state":"active","ping":72},{"user_id":252,"name":"The Horror","steam_id":76561198355271470,"connected_time":5076000000000,"state":"active","ping":75},{"user_id":289,"name":"DrMerry","steam_id":76561198987103524,"connected_time":2072000000000,"state":"active","ping":61},{"user_id":304,"name":"TreyWay \"Bangtown\" Murphy III","steam_id":76561198064252295,"connected_time":807000000000,"state":"active","ping":73},{"user_id":281,"name":"ECCO","steam_id":76561198002821513,"connected_time":3085000000000,"state":"active","ping":63},{"user_id":280,"name":"mocha #WORLDSTAR","steam_id":76561198825658971,"connected_time":3109000000000,"state":"active","ping":102},{"user_id":269,"name":"SnowStorm","steam_id":76561198095817025,"connected_time":3896000000000,"state":"active","ping":40},{"user_id":288,"name":"christmas.jimmy.2014","steam_id":76561199177672325,"connected_time":2172000000000,"state":"active","ping":41},{"user_id":293,"name":"Mage","steam_id":76561198285026879,"connected_time":1857000000000,"state":"active","ping":78},{"user_id":311,"name":"Kzjytsugn","steam_id":76561198130241974,"connected_time":598000000000,"state":"active","ping":115},{"user_id":271,"name":"el vengador de la tienda","steam_id":76561199081928341,"connected_time":3607000000000,"state":"active","ping":73},{"user_id":310,"name":"OCDkitty","steam_id":76561198266296221,"connected_time":655000000000,"state":"active","ping":74},{"user_id":307,"name":"Gn0wm","steam_id":76561199149825278,"connected_time":772000000000,"state":"active","ping":64},{"user_id":290,"name":"Spy_Is_Pye","steam_id":76561199439622967,"connected_time":2067000000000,"state":"active","ping":64},{"user_id":282,"name":"aversa","steam_id":76561198840460101,"connected_time":3061000000000,"state":"active","ping":85}]},{"server_id":400,"name":"Uncletopia | Atlanta | 3 | All Maps","name_short":"atl-3","host":"atl-1.us.uncletopia.com","port":27035,"enabled":true,"region":"us-east","cc":"us","latitude":33.753746,"longitude":-84.38633,"reserved":0,"last_update":"0001-01-01T00:00:00Z","name_a2s":"Uncletopia | Atlanta | 3 | All Maps","protocol":17,"map":"koth_lakeside_final","folder":"tf","game":"Team Fortress","app_id":440,"player_count":0,"max_players":24,"Bots":0,"server_type":"Dedicated","server_os":"Linux","password":true,"vac":true,"version":"7723704","steam_id":85568392924515187,"keywords":["cp","nocrits","nodmgspread","uncletopia"],"game_id":440,"stv_port":27036,"stv_name":"Uncletopia | Atlanta | 3 | All Maps | STV","players":null},{"server_id":401,"name":"Uncletopia | Atlanta | 4 | No Payload","name_short":"atl-4","host":"atl-1.us.uncletopia.com","port":27045,"enabled":true,"region":"us-east","cc":"us","latitude":33.753746,"longitude":-84.38633,"reserved":0,"last_update":"0001-01-01T00:00:00Z","name_a2s":"Uncletopia | Atlanta | 4 | No Payload","protocol":17,"map":"cp_freight_final1","folder":"tf","game":"Team Fortress","app_id":440,"player_count":0,"max_players":24,"Bots":0,"server_type":"Dedicated","server_os":"Linux","password":true,"vac":true,"version":"7723704","steam_id":85568392924515188,"keywords":["cp","nocrits","nodmgspread","uncletopia"],"game_id":440,"stv_port":27046,"stv_name":"Uncletopia | Atlanta | 4 | No Payload | STV","players":null},{"server_id":2,"name":"Uncletopia | Chicago | 1 | All Maps","name_short":"chi-1","host":"chi-1.us.uncletopia.com","port":27015,"enabled":true,"region":"us-central","cc":"us","latitude":41.881832,"longitude":-87.62318,"reserved":0,"last_update":"0001-01-01T00:00:00Z","name_a2s":"Uncletopia | Chicago | 1 | All Maps","protocol":17,"map":"pl_upward","folder":"tf","game":"Team Fortress","app_id":440,"player_count":24,"max_players":24,"Bots":0,"server_type":"Dedicated","server_os":"Linux","password":true,"vac":true,"version":"7723704","steam_id":85568392924469984,"keywords":["nocrits","nodmgspread","payload","uncletopia"],"game_id":440,"stv_port":27016,"stv_name":"Uncletopia | Chicago | 1 | All Maps | STV","players":[{"user_id":336,"name":"Ata","steam_id":76561198349085545,"connected_time":341000000000,"state":"active","ping":78},{"user_id":337,"name":"Shrake","steam_id":76561198114379995,"connected_time":331000000000,"state":"active","ping":30},{"user_id":300,"name":"able","steam_id":76561198292552182,"connected_time":3328000000000,"state":"active","ping":46},{"user_id":334,"name":"Hylic","steam_id":76561199051314589,"connected_time":445000000000,"state":"active","ping":63},{"user_id":335,"name":"Max_Attack","steam_id":76561198944028607,"connected_time":433000000000,"state":"active","ping":77},{"user_id":316,"name":"Scum Knight","steam_id":76561198282444763,"connected_time":2002000000000,"state":"active","ping":59},{"user_id":317,"name":"Bruised Banana","steam_id":76561198364172677,"connected_time":1970000000000,"state":"active","ping":72},{"user_id":329,"name":"kite","steam_id":76561198346516392,"connected_time":883000000000,"state":"active","ping":74},{"user_id":201,"name":"no","steam_id":76561198248853140,"connected_time":9616000000000,"state":"active","ping":50},{"user_id":234,"name":"mumbles","steam_id":76561197994528974,"connected_time":7327000000000,"state":"active","ping":117},{"user_id":314,"name":"i love destroy lonely:3","steam_id":76561198443865951,"connected_time":2248000000000,"state":"active","ping":62},{"user_id":333,"name":"Veir≈´ Viseris","steam_id":76561197989857176,"connected_time":727000000000,"state":"active","ping":155},{"user_id":260,"name":"DON QUIXOTE","steam_id":76561198091111592,"connected_time":5462000000000,"state":"active","ping":63},{"user_id":318,"name":"savagedachshund","steam_id":76561199208468955,"connected_time":1947000000000,"state":"active","ping":92},{"user_id":294,"name":"Lost","steam_id":76561198025933206,"connected_time":3918000000000,"state":"active","ping":60},{"user_id":338,"name":"toastman","steam_id":76561198207073088,"connected_time":330000000000,"state":"active","ping":74},{"user_id":322,"name":"Gad","steam_id":76561198020792373,"connected_time":1482000000000,"state":"active","ping":55},{"user_id":326,"name":"Lost (15)","steam_id":76561198093713427,"connected_time":1414000000000,"state":"active","ping":60},{"user_id":342,"name":"4d4","steam_id":76561198402360789,"connected_time":23000000000,"state":"spawning","ping":64},{"user_id":220,"name":"Astori√¶!","steam_id":76561199090168858,"connected_time":8339000000000,"state":"active","ping":67},{"user_id":292,"name":"JFK Gamer","steam_id":76561199229169396,"connected_time":4032000000000,"state":"active","ping":72},{"user_id":331,"name":"The Animated Gamer","steam_id":76561198120639995,"connected_time":846000000000,"state":"active","ping":91},{"user_id":341,"name":"CoconutRice","steam_id":76561198114909164,"connected_time":61000000000,"state":"active","ping":51},{"user_id":238,"name":"John Calibur","steam_id":76561197999986606,"connected_time":6988000000000,"state":"active","ping":99}]},{"server_id":106,"name":"Uncletopia | Chicago | 2 | All Maps","name_short":"chi-2","host":"chi-1.us.uncletopia.com","port":27025,"enabled":true,"region":"us-central","cc":"us","latitude":41.881832,"longitude":-87.62318,"reserved":0,"last_update":"0001-01-01T00:00:00Z","name_a2s":"Uncletopia | Chicago | 2 | All Maps","protocol":17,"map":"cp_steel","folder":"tf","game":"Team Fortress","app_id":440,"player_count":24,"max_players":24,"Bots":0,"server_type":"Dedicated","server_os":"Linux","password":true,"vac":true,"version":"7723704","steam_id":85568392924469985,"keywords":["cp","nocrits","nodmgspread","uncletopia"],"game_id":440,"stv_port":27026,"stv_name":"Uncletopia | Chicago | 2 | All Maps | STV","players":[{"user_id":135,"name":"Shame","steam_id":76561198100490994,"connected_time":1391000000000,"state":"active","ping":76},{"user_id":146,"name":"Quietsharp","steam_id":76561198277968438,"connected_time":217000000000,"state":"active","ping":105},{"user_id":144,"name":"megatokertom87","steam_id":76561198420227358,"connected_time":744000000000,"state":"active","ping":66},{"user_id":23,"name":"katryna","steam_id":76561198023440304,"connected_time":9001000000000,"state":"active","ping":59},{"user_id":143,"name":"Drachma","steam_id":76561198007310514,"connected_time":811000000000,"state":"active","ping":67},{"user_id":131,"name":"Nefy","steam_id":76561198030017316,"connected_time":1514000000000,"state":"active","ping":82},{"user_id":116,"name":"Samus","steam_id":76561198121933439,"connected_time":2152000000000,"state":"active","ping":81},{"user_id":128,"name":"joethefool","steam_id":76561199015436319,"connected_time":1558000000000,"state":"active","ping":75},{"user_id":147,"name":"MrLeftTurn","steam_id":76561198856743969,"connected_time":216000000000,"state":"active","ping":132},{"user_id":127,"name":"steel_v41","steam_id":76561199014781716,"connected_time":1621000000000,"state":"active","ping":167},{"user_id":150,"name":"Jeviled","steam_id":76561198114246519,"connected_time":102000000000,"state":"active","ping":103},{"user_id":119,"name":"swan","steam_id":76561198012569200,"connected_time":2074000000000,"state":"active","ping":75},{"user_id":137,"name":"psy","steam_id":76561198013195018,"connected_time":1282000000000,"state":"active","ping":75},{"user_id":139,"name":"MissXis","steam_id":76561198256277680,"connected_time":1254000000000,"state":"active","ping":50},{"user_id":108,"name":"Gachalover","steam_id":76561199231552074,"connected_time":3061000000000,"state":"active","ping":67},{"user_id":148,"name":"Heliodor","steam_id":76561198070465874,"connected_time":192000000000,"state":"active","ping":69},{"user_id":134,"name":"Kestrel","steam_id":76561198416482705,"connected_time":1479000000000,"state":"active","ping":73},{"user_id":145,"name":"JustSomeInternetGuy","steam_id":76561199066037843,"connected_time":435000000000,"state":"active","ping":76},{"user_id":149,"name":"Wan Shi Tong","steam_id":76561198076441225,"connected_time":175000000000,"state":"active","ping":72},{"user_id":61,"name":"roln","steam_id":76561198041066271,"connected_time":7175000000000,"state":"active","ping":76},{"user_id":125,"name":"Merchants of Misery","steam_id":76561199188142396,"connected_time":1666000000000,"state":"active","ping":75},{"user_id":90,"name":"Winter the Witchie","steam_id":76561198151971178,"connected_time":5328000000000,"state":"active","ping":58},{"user_id":151,"name":"liebZ","steam_id":76561198210449121,"connected_time":63000000000,"state":"active","ping":63},{"user_id":141,"name":"Convict Police Officers","steam_id":76561197993527275,"connected_time":1210000000000,"state":"active","ping":58}]},{"server_id":402,"name":"Uncletopia | Chicago | 3 | All Maps","name_short":"chi-3","host":"chi-1.us.uncletopia.com","port":27035,"enabled":true,"region":"us-central","cc":"us","latitude":41.881832,"longitude":-87.62318,"reserved":0,"last_update":"0001-01-01T00:00:00Z","name_a2s":"Uncletopia | Chicago | 3 | All Maps","protocol":17,"map":"pl_barnblitz","folder":"tf","game":"Team Fortress","app_id":440,"player_count":0,"max_players":24,"Bots":0,"server_type":"Dedicated","server_os":"Linux","password":true,"vac":true,"version":"7723704","steam_id":85568392924515191,"keywords":["nocrits","nodmgspread","payload","uncletopia"],"game_id":440,"stv_port":27036,"stv_name":"Uncletopia | Chicago | 3 | All Maps | STV","players":null},{"server_id":403,"name":"Uncletopia | Chicago | 4 | All Maps","name_short":"chi-4","host":"chi-1.us.uncletopia.com","port":27045,"enabled":true,"region":"us-central","cc":"us","latitude":41.881832,"longitude":-87.62318,"reserved":0,"last_update":"0001-01-01T00:00:00Z","name_a2s":"Uncletopia | Chicago | 4 | All Maps","protocol":17,"map":"koth_highpass","folder":"tf","game":"Team Fortress","app_id":440,"player_count":0,"max_players":24,"Bots":0,"server_type":"Dedicated","server_os":"Linux","password":true,"vac":true,"version":"7723704","steam_id":85568392924515193,"keywords":["cp","nocrits","nodmgspread","uncletopia"],"game_id":440,"stv_port":27046,"stv_name":"Uncletopia | Chicago | 4 | All Maps | STV","players":null},{"server_id":36,"name":"Uncletopia | Chicago | 5 | All Maps","name_short":"chi-5","host":"chi-2.us.uncletopia.com","port":27015,"enabled":true,"region":"us-central","cc":"us","latitude":41.881832,"longitude":-87.62318,"reserved":0,"last_update":"0001-01-01T00:00:00Z","name_a2s":"Uncletopia | Chicago | 5 | All Maps","protocol":17,"map":"koth_cascade","folder":"tf","game":"Team Fortress","app_id":440,"player_count":3,"max_players":24,"Bots":0,"server_type":"Dedicated","server_os":"Linux","password":true,"vac":true,"version":"7723704","steam_id":85568392924866362,"keywords":["cp","nocrits","nodmgspread","uncletopia"],"game_id":440,"stv_port":27016,"stv_name":"Uncletopia | Chicago | 5 | All Maps | STV","players":[{"user_id":5,"name":"V1dia","steam_id":76561198376807150,"connected_time":202000000000,"state":"active","ping":75},{"user_id":6,"name":"DemoKnight tf2 [[Pan Militia]]","steam_id":76561199100258990,"connected_time":197000000000,"state":"active","ping":97},{"user_id":7,"name":"Goose Pyro","steam_id":76561198994984332,"connected_time":110000000000,"state":"active","ping":192}]},{"server_id":37,"name":"Uncletopia | Chicago | 6 | All Maps","name_short":"chi-6","host":"chi-2.us.uncletopia.com","port":27025,"enabled":true,"region":"us-central","cc":"us","latitude":41.881832,"longitude":-87.62318,"reserved":0,"last_update":"0001-01-01T00:00:00Z","name_a2s":"Uncletopia | Chicago | 6 | All Maps","protocol":17,"map":"pl_barnblitz","folder":"tf","game":"Team Fortress","app_id":440,"player_count":0,"max_players":24,"Bots":0,"server_type":"Dedicated","server_os":"Linux","password":true,"vac":true,"version":"7723704","steam_id":85568392924866363,"keywords":["nocrits","nodmgspread","payload","uncletopia"],"game_id":440,"stv_port":27026,"stv_name":"Uncletopia | Chicago | 6 | All Maps | STV","players":null},{"server_id":38,"name":"Uncletopia | Chicago | 7 | No Payload","name_short":"chi-7","host":"chi-2.us.uncletopia.com","port":27035,"enabled":true,"region":"us-central","cc":"us","latitude":41.881832,"longitude":-87.62318,"reserved":0,"last_update":"0001-01-01T00:00:00Z","name_a2s":"","protocol":0,"map":"","folder":"","game":"","app_id":0,"player_count":0,"max_players":0,"Bots":0,"server_type":"","server_os":"","password":false,"vac":false,"version":"","steam_id":0,"keywords":null,"game_id":0,"stv_port":0,"stv_name":"","players":null},{"server_id":39,"name":"Uncletopia | Chicago | 8 | Community","name_short":"chi-8","host":"chi-2.us.uncletopia.com","port":27045,"enabled":true,"region":"us-central","cc":"us","latitude":41.881832,"longitude":-87.62318,"reserved":0,"last_update":"0001-01-01T00:00:00Z","name_a2s":"Uncletopia | Chicago | 8 | Community","protocol":17,"map":"workshop/cp_reckoner_rc6.ugc674719999","folder":"tf","game":"Team Fortress","app_id":440,"player_count":0,"max_players":24,"Bots":0,"server_type":"Dedicated","server_os":"Linux","password":true,"vac":true,"version":"7723704","steam_id":85568392924866365,"keywords":["cp","nocrits","nodmgspread","uncletopia"],"game_id":440,"stv_port":27046,"stv_name":"Uncletopia | Chicago | 8 | Community | STV","players":null},{"server_id":8,"name":"Uncletopia | Dallas | 1 | All Maps","name_short":"dal-1","host":"dal-1.us.uncletopia.com","port":27015,"enabled":true,"region":"us-central","cc":"us","latitude":32.779167,"longitude":-96.80889,"reserved":0,"last_update":"0001-01-01T00:00:00Z","name_a2s":"Uncletopia | Dallas | 1 | All Maps","protocol":17,"map":"pl_pier","folder":"tf","game":"Team Fortress","app_id":440,"player_count":24,"max_players":24,"Bots":0,"server_type":"Dedicated","server_os":"Linux","password":true,"vac":true,"version":"7723704","steam_id":85568392924469986,"keywords":["nocrits","nodmgspread","payload","uncletopia"],"game_id":440,"stv_port":27016,"stv_name":"Uncletopia | Dallas | 1 | All Maps | STV","players":[{"user_id":94,"name":"existential dread","steam_id":76561198041907345,"connected_time":391000000000,"state":"active","ping":86},{"user_id":76,"name":"2019","steam_id":76561198129785792,"connected_time":2928000000000,"state":"active","ping":160},{"user_id":77,"name":"Caoticaos","steam_id":76561198114800227,"connected_time":2662000000000,"state":"active","ping":130},{"user_id":78,"name":"potatofacts98","steam_id":76561198083721201,"connected_time":2641000000000,"state":"active","ping":83},{"user_id":92,"name":"Zell Da Sheepy","steam_id":76561198978753666,"connected_time":721000000000,"state":"active","ping":69},{"user_id":68,"name":"SPC Ham Sandwich","steam_id":76561198035752185,"connected_time":4717000000000,"state":"active","ping":67},{"user_id":79,"name":"pungabot","steam_id":76561198009088243,"connected_time":2639000000000,"state":"active","ping":89},{"user_id":69,"name":"poey","steam_id":76561198865346767,"connected_time":4671000000000,"state":"active","ping":69},{"user_id":74,"name":"McNamJam","steam_id":76561198028128686,"connected_time":3316000000000,"state":"active","ping":92},{"user_id":93,"name":"glass","steam_id":76561198845795659,"connected_time":675000000000,"state":"active","ping":41},{"user_id":62,"name":"Rin \"Hindwing\" Redtail","steam_id":76561199074865638,"connected_time":4848000000000,"state":"active","ping":53},{"user_id":95,"name":"AmazingPlasma","steam_id":76561199005527586,"connected_time":345000000000,"state":"active","ping":93},{"user_id":70,"name":"Motreir","steam_id":76561198151717946,"connected_time":4591000000000,"state":"active","ping":79},{"user_id":86,"name":"xXx_The_REAL_Marge_Simpson_xXx","steam_id":76561199116846851,"connected_time":969000000000,"state":"active","ping":62},{"user_id":34,"name":"non_ai","steam_id":76561198270951938,"connected_time":6760000000000,"state":"active","ping":87},{"user_id":81,"name":"Emma","steam_id":76561198318093783,"connected_time":1805000000000,"state":"active","ping":70},{"user_id":90,"name":"SizableChap","steam_id":76561199148162904,"connected_time":906000000000,"state":"active","ping":66},{"user_id":84,"name":"Femboy (real)","steam_id":76561198829717392,"connected_time":1223000000000,"state":"active","ping":54},{"user_id":91,"name":"Bis","steam_id":76561198207940136,"connected_time":898000000000,"state":"active","ping":52},{"user_id":80,"name":"Pornelius Hubert","steam_id":76561198186128723,"connected_time":2277000000000,"state":"active","ping":55},{"user_id":55,"name":"You Don't Nomi.","steam_id":76561197969137836,"connected_time":5447000000000,"state":"active","ping":94},{"user_id":58,"name":"Eightyy  Fourr","steam_id":76561197960374225,"connected_time":4877000000000,"state":"active","ping":47},{"user_id":41,"name":"hellohello","steam_id":76561198094058177,"connected_time":6490000000000,"state":"active","ping":62},{"user_id":85,"name":"Azazel","steam_id":76561198370600754,"connected_time":976000000000,"state":"active","ping":47}]},{"server_id":108,"name":"Uncletopia | Dallas | 2 | All Maps","name_short":"dal-2","host":"dal-1.us.uncletopia.com","port":27025,"enabled":true,"region":"us-central","cc":"us","latitude":32.779167,"longitude":-96.80889,"reserved":0,"last_update":"0001-01-01T00:00:00Z","name_a2s":"Uncletopia | Dallas | 2 | All Maps","protocol":17,"map":"cp_dustbowl","folder":"tf","game":"Team Fortress","app_id":440,"player_count":3,"max_players":24,"Bots":0,"server_type":"Dedicated","server_os":"Linux","password":true,"vac":true,"version":"7723704","steam_id":85568392924469988,"keywords":["cp","nocrits","nodmgspread","uncletopia"],"game_id":440,"stv_port":27026,"stv_name":"Uncletopia | Dallas | 2 | All Maps | STV","players":[{"user_id":10,"name":"Power With Flower","steam_id":76561198798123834,"connected_time":1722000000000,"state":"active","ping":77},{"user_id":11,"name":"daryn","steam_id":76561198983110799,"connected_time":1476000000000,"state":"active","ping":44},{"user_id":15,"name":"sta em deck gaming","steam_id":76561198811312368,"connected_time":201000000000,"state":"active","ping":135}]},{"server_id":5,"name":"Uncletopia | Frankfurt | 1 | All Maps","name_short":"frk-1","host":"frk-1.de.uncletopia.com","port":27015,"enabled":true,"region":"eu","cc":"de","latitude":50.110924,"longitude":8.682127,"reserved":0,"last_update":"0001-01-01T00:00:00Z","name_a2s":"Uncletopia | Frankfurt | 1 | All Maps","protocol":17,"map":"pl_snowycoast","folder":"tf","game":"Team Fortress","app_id":440,"player_count":13,"max_players":24,"Bots":0,"server_type":"Dedicated","server_os":"Linux","password":true,"vac":true,"version":"7723704","steam_id":85568392924469989,"keywords":["nocrits","nodmgspread","payload","uncletopia"],"game_id":440,"stv_port":27016,"stv_name":"Uncletopia | Frankfurt | 1 | All Maps | STV","players":[{"user_id":417,"name":"MrClyde","steam_id":76561198132627420,"connected_time":1175000000000,"state":"active","ping":68},{"user_id":425,"name":"Optimist 50","steam_id":76561198039631442,"connected_time":355000000000,"state":"active","ping":75},{"user_id":427,"name":"Dino","steam_id":76561198886992363,"connected_time":137000000000,"state":"active","ping":91},{"user_id":423,"name":"Average Sandvich Enjoyer","steam_id":76561198970762992,"connected_time":670000000000,"state":"active","ping":67},{"user_id":410,"name":"PLUTO","steam_id":76561198312436128,"connected_time":1580000000000,"state":"active","ping":125},{"user_id":411,"name":"Artock","steam_id":76561198808599713,"connected_time":1504000000000,"state":"active","ping":81},{"user_id":424,"name":"The_Masterminder","steam_id":76561199046044993,"connected_time":526000000000,"state":"active","ping":60},{"user_id":426,"name":"Animatic","steam_id":76561198186421601,"connected_time":299000000000,"state":"active","ping":173},{"user_id":428,"name":"Frank","steam_id":76561198086672774,"connected_time":52000000000,"state":"active","ping":55},{"user_id":413,"name":"RedPyro2009","steam_id":76561198935824363,"connected_time":1362000000000,"state":"active","ping":66},{"user_id":429,"name":"methŒ±mphetamine addict","steam_id":76561198397916409,"connected_time":44000000000,"state":"spawning","ping":91},{"user_id":415,"name":"Kqyt","steam_id":76561198044885742,"connected_time":1274000000000,"state":"active","ping":75},{"user_id":430,"name":"Granko Polo","steam_id":76561198078252690,"connected_time":4000000000,"state":"spawning","ping":59}]},{"server_id":110,"name":"Uncletopia | Frankfurt | 2 | All Maps","name_short":"frk-2","host":"frk-1.de.uncletopia.com","port":27025,"enabled":true,"region":"eu","cc":"de","latitude":50.110924,"longitude":8.682127,"reserved":0,"last_update":"0001-01-01T00:00:00Z","name_a2s":"Uncletopia | Frankfurt | 2 | All Maps","protocol":17,"map":"pl_pier","folder":"tf","game":"Team Fortress","app_id":440,"player_count":22,"max_players":24,"Bots":0,"server_type":"Dedicated","server_os":"Linux","password":true,"vac":true,"version":"7723704","steam_id":85568392924469990,"keywords":["nocrits","nodmgspread","payload","uncletopia"],"game_id":440,"stv_port":27026,"stv_name":"Uncletopia | Frankfurt | 2 | All Maps | STV","players":[{"user_id":471,"name":"Alfred Schroom","steam_id":76561198117990411,"connected_time":35000000000,"state":"active","ping":109},{"user_id":459,"name":"Insomnael","steam_id":76561198010791637,"connected_time":1054000000000,"state":"spawning","ping":213},{"user_id":428,"name":"girth gremlin","steam_id":76561198436424012,"connected_time":2738000000000,"state":"active","ping":62},{"user_id":465,"name":"simn","steam_id":76561198159182269,"connected_time":462000000000,"state":"spawning","ping":46},{"user_id":467,"name":"–ú—è–∫–∏—à(—Ö–ª–µ–±–Ω—ã–π)","steam_id":76561199223895282,"connected_time":257000000000,"state":"spawning","ping":102},{"user_id":374,"name":"0xDEADBEEF","steam_id":76561199075416111,"connected_time":6125000000000,"state":"spawning","ping":102},{"user_id":445,"name":"sareena","steam_id":76561198810194062,"connected_time":1818000000000,"state":"active","ping":104},{"user_id":444,"name":"Vershal Smershal","steam_id":76561198116223995,"connected_time":1963000000000,"state":"spawning","ping":69},{"user_id":431,"name":"Scotty","steam_id":76561197991276547,"connected_time":2695000000000,"state":"active","ping":88},{"user_id":453,"name":"Beaverlog","steam_id":76561198274240168,"connected_time":1344000000000,"state":"spawning","ping":75},{"user_id":473,"name":"arkoler trade.tf","steam_id":76561198236430736,"connected_time":13000000000,"state":"spawning","ping":51},{"user_id":447,"name":"üúè Drepp","steam_id":76561197998867164,"connected_time":1752000000000,"state":"spawning","ping":72},{"user_id":396,"name":":)","steam_id":76561198039964082,"connected_time":4742000000000,"state":"spawning","ping":71},{"user_id":448,"name":"tallen","steam_id":76561198061708595,"connected_time":1680000000000,"state":"active","ping":126},{"user_id":372,"name":"Fran","steam_id":76561199070516960,"connected_time":6223000000000,"state":"active","ping":127},{"user_id":435,"name":"ÍßÅ‡ºíXenon‡ºíÍßÇ","steam_id":76561198120502313,"connected_time":2584000000000,"state":"spawning","ping":69},{"user_id":470,"name":"RektoDuck","steam_id":76561198031348484,"connected_time":46000000000,"state":"spawning","ping":119},{"user_id":359,"name":"Dr Sex","steam_id":76561198029044617,"connected_time":6809000000000,"state":"spawning","ping":76},{"user_id":469,"name":"Dr Ludwig","steam_id":76561198426522902,"connected_time":170000000000,"state":"spawning","ping":78},{"user_id":442,"name":"Oceanic | tuesday maybe","steam_id":76561197979741827,"connected_time":2114000000000,"state":"active","ping":67},{"user_id":400,"name":"JohnTraveltime","steam_id":76561199244281754,"connected_time":4709000000000,"state":"active","ping":95},{"user_id":401,"name":"MrLroy","steam_id":76561199053452683,"connected_time":4709000000000,"state":"active","ping":206}]},{"server_id":308,"name":"Uncletopia | Frankfurt | 3 | All Maps","name_short":"frk-3","host":"frk-1.de.uncletopia.com","port":27035,"enabled":true,"region":"eu","cc":"de","latitude":50.110924,"longitude":8.682127,"reserved":0,"last_update":"0001-01-01T00:00:00Z","name_a2s":"Uncletopia | Frankfurt | 3 | All Maps","protocol":17,"map":"cp_altitude","folder":"tf","game":"Team Fortress","app_id":440,"player_count":24,"max_players":24,"Bots":0,"server_type":"Dedicated","server_os":"Linux","password":true,"vac":true,"version":"7723704","steam_id":85568392924504274,"keywords":["cp","nocrits","nodmgspread","uncletopia"],"game_id":440,"stv_port":27036,"stv_name":"Uncletopia | Frankfurt | 3 | All Maps | STV","players":[{"user_id":607,"name":"jo","steam_id":76561198109074418,"connected_time":983000000000,"state":"active","ping":62},{"user_id":616,"name":"=PB=","steam_id":76561197999146612,"connected_time":599000000000,"state":"active","ping":57},{"user_id":512,"name":"ldshwt","steam_id":76561198090364357,"connected_time":8149000000000,"state":"active","ping":49},{"user_id":618,"name":"walluu","steam_id":76561198121830870,"connected_time":372000000000,"state":"active","ping":75},{"user_id":609,"name":"Zega","steam_id":76561198053871537,"connected_time":854000000000,"state":"active","ping":88},{"user_id":622,"name":"SaltyCupcakes","steam_id":76561198256386417,"connected_time":56000000000,"state":"active","ping":54},{"user_id":601,"name":"3 Italians in a trenchcoat.","steam_id":76561198094993151,"connected_time":2406000000000,"state":"active","ping":57},{"user_id":608,"name":"NO end to POOTIS","steam_id":76561198144879361,"connected_time":975000000000,"state":"active","ping":100},{"user_id":621,"name":"I only heal f2p","steam_id":76561198019935109,"connected_time":134000000000,"state":"active","ping":67},{"user_id":620,"name":"sinapsid","steam_id":76561199130784607,"connected_time":331000000000,"state":"active","ping":83},{"user_id":581,"name":"the rizzard of oz","steam_id":76561198066631833,"connected_time":3423000000000,"state":"active","ping":76},{"user_id":613,"name":"Pokershark","steam_id":76561198080086744,"connected_time":765000000000,"state":"active","ping":81},{"user_id":576,"name":"vani","steam_id":76561197991778291,"connected_time":4275000000000,"state":"active","ping":75},{"user_id":619,"name":"Dzan50","steam_id":76561198059758591,"connected_time":344000000000,"state":"active","ping":67},{"user_id":602,"name":"Kreos","steam_id":76561198094772516,"connected_time":2186000000000,"state":"active","ping":51},{"user_id":596,"name":"lord-carlos","steam_id":76561198025150761,"connected_time":2540000000000,"state":"active","ping":58},{"user_id":597,"name":"sillycatlover","steam_id":76561199208283508,"connected_time":2534000000000,"state":"active","ping":78},{"user_id":605,"name":"Irbynx","steam_id":76561197980421195,"connected_time":1181000000000,"state":"active","ping":85},{"user_id":611,"name":"steven","steam_id":76561198028240570,"connected_time":834000000000,"state":"active","ping":61},{"user_id":500,"name":"XPullaHiiri","steam_id":76561198031652375,"connected_time":9336000000000,"state":"active","ping":84},{"user_id":577,"name":"puddie","steam_id":76561198154778838,"connected_time":4271000000000,"state":"active","ping":146},{"user_id":579,"name":"sheepy dab's hand","steam_id":76561198040284781,"connected_time":3621000000000,"state":"active","ping":72},{"user_id":606,"name":"seene aadu","steam_id":76561198161778234,"connected_time":1016000000000,"state":"active","ping":69},{"user_id":615,"name":"BoPoe","steam_id":76561198093333882,"connected_time":698000000000,"state":"active","ping":113}]},{"server_id":309,"name":"Uncletopia | Frankfurt | 4 | All Maps","name_short":"frk-4","host":"frk-1.de.uncletopia.com","port":27045,"enabled":true,"region":"eu","cc":"de","latitude":50.110924,"longitude":8.682127,"reserved":0,"last_update":"0001-01-01T00:00:00Z","name_a2s":"Uncletopia | Frankfurt | 4 | All Maps","protocol":17,"map":"pl_badwater","folder":"tf","game":"Team Fortress","app_id":440,"player_count":24,"max_players":24,"Bots":0,"server_type":"Dedicated","server_os":"Linux","password":true,"vac":true,"version":"7723704","steam_id":85568392924504275,"keywords":["nocrits","nodmgspread","payload","uncletopia"],"game_id":440,"stv_port":27046,"stv_name":"Uncletopia | Frankfurt | 4 | All Maps | STV","players":[{"user_id":564,"name":"fandango","steam_id":76561198135249335,"connected_time":1308000000000,"state":"active","ping":49},{"user_id":558,"name":"Ben Dover","steam_id":76561198034264020,"connected_time":1665000000000,"state":"active","ping":119},{"user_id":506,"name":"Koli","steam_id":76561197992428783,"connected_time":4123000000000,"state":"active","ping":45},{"user_id":573,"name":"sperma gyerek","steam_id":76561198742407927,"connected_time":685000000000,"state":"active","ping":72},{"user_id":577,"name":"Speibsackerl","steam_id":76561198058135257,"connected_time":281000000000,"state":"active","ping":55},{"user_id":566,"name":"NaN","steam_id":76561198071098413,"connected_time":1184000000000,"state":"active","ping":59},{"user_id":553,"name":"Rask","steam_id":76561198052934944,"connected_time":1755000000000,"state":"active","ping":91},{"user_id":567,"name":"Mor'du","steam_id":76561198274105878,"connected_time":1129000000000,"state":"active","ping":74},{"user_id":541,"name":"Insain Bolt!","steam_id":76561198025687726,"connected_time":2565000000000,"state":"active","ping":58},{"user_id":576,"name":"sorry \u003c3 Der√©k","steam_id":76561198159410471,"connected_time":597000000000,"state":"active","ping":73},{"user_id":529,"name":"DoctorProfessor Grandrof","steam_id":76561198036088735,"connected_time":2805000000000,"state":"active","ping":62},{"user_id":569,"name":"After8","steam_id":76561198090750865,"connected_time":987000000000,"state":"active","ping":61},{"user_id":524,"name":"Jin","steam_id":76561198248878364,"connected_time":2911000000000,"state":"active","ping":47},{"user_id":557,"name":"lettuce at 58p","steam_id":76561199401283123,"connected_time":1677000000000,"state":"active","ping":57},{"user_id":544,"name":"wickEd_","steam_id":76561198048068999,"connected_time":2357000000000,"state":"active","ping":146},{"user_id":574,"name":"loveless","steam_id":76561198142256651,"connected_time":612000000000,"state":"active","ping":88},{"user_id":509,"name":"hushhx","steam_id":76561198216200092,"connected_time":4028000000000,"state":"active","ping":62},{"user_id":526,"name":"Okacha","steam_id":76561198341166854,"connected_time":2900000000000,"state":"active","ping":85},{"user_id":527,"name":"john fortress","steam_id":76561198202668788,"connected_time":2869000000000,"state":"active","ping":66},{"user_id":560,"name":"DirtyFred","steam_id":76561198031814950,"connected_time":1644000000000,"state":"active","ping":67},{"user_id":570,"name":"Soulman25 (FIN)","steam_id":76561198103611974,"connected_time":951000000000,"state":"active","ping":104},{"user_id":478,"name":"K.V. #RemoveRandomCrits","steam_id":76561197994832993,"connected_time":6551000000000,"state":"active","ping":74},{"user_id":578,"name":"Pronton","steam_id":76561198082502910,"connected_time":13000000000,"state":"active","ping":81},{"user_id":549,"name":"Alfred2.2","steam_id":76561198339314744,"connected_time":2029000000000,"state":"active","ping":70}]},{"server_id":310,"name":"Uncletopia | Frankfurt | 5 | All Maps","name_short":"frk-5","host":"frk-1.de.uncletopia.com","port":27055,"enabled":true,"region":"eu","cc":"de","latitude":50.110924,"longitude":8.682127,"reserved":0,"last_update":"0001-01-01T00:00:00Z","name_a2s":"Uncletopia | Frankfurt | 5 | All Maps","protocol":17,"map":"koth_highpass","folder":"tf","game":"Team Fortress","app_id":440,"player_count":23,"max_players":24,"Bots":0,"server_type":"Dedicated","server_os":"Linux","password":true,"vac":true,"version":"7723704","steam_id":85568392924504277,"keywords":["cp","nocrits","nodmgspread","uncletopia"],"game_id":440,"stv_port":27056,"stv_name":"Uncletopia | Frankfurt | 5 | All Maps | STV","players":[{"user_id":388,"name":"Radegast the Brown","steam_id":76561198075489505,"connected_time":522000000000,"state":"active","ping":62},{"user_id":384,"name":"Ta–øgen","steam_id":76561198120329367,"connected_time":572000000000,"state":"active","ping":95},{"user_id":401,"name":"Victoria Wood (as seen on TV)","steam_id":76561198066243851,"connected_time":3000000000,"state":"spawning","ping":70},{"user_id":392,"name":"FranekOcean","steam_id":76561198254852945,"connected_time":461000000000,"state":"active","ping":61},{"user_id":397,"name":"xocu","steam_id":76561198248994066,"connected_time":344000000000,"state":"active","ping":71},{"user_id":387,"name":"Miecio04","steam_id":76561198412639639,"connected_time":538000000000,"state":"active","ping":60},{"user_id":385,"name":"IKERIUS","steam_id":76561198274164589,"connected_time":564000000000,"state":"active","ping":72},{"user_id":359,"name":"nyanezt","steam_id":76561198253734265,"connected_time":1756000000000,"state":"active","ping":82},{"user_id":394,"name":"nynon","steam_id":76561197998432126,"connected_time":385000000000,"state":"active","ping":118},{"user_id":367,"name":"Hexabit","steam_id":76561198028625661,"connected_time":1201000000000,"state":"active","ping":66},{"user_id":330,"name":"masutaaa","steam_id":76561198072233046,"connected_time":3924000000000,"state":"active","ping":88},{"user_id":390,"name":"Toxxie","steam_id":76561198119594781,"connected_time":504000000000,"state":"active","ping":72},{"user_id":400,"name":"V","steam_id":76561198014138033,"connected_time":172000000000,"state":"active","ping":46},{"user_id":396,"name":"mishka.*","steam_id":76561198040003628,"connected_time":350000000000,"state":"active","ping":76},{"user_id":369,"name":"Subnet001","steam_id":76561198029163028,"connected_time":1166000000000,"state":"active","ping":57},{"user_id":370,"name":"Wyremingo","steam_id":76561198314337596,"connected_time":1163000000000,"state":"active","ping":104},{"user_id":371,"name":"twitch.tv/biofun_","steam_id":76561198170609049,"connected_time":1102000000000,"state":"active","ping":64},{"user_id":379,"name":"Smuggs","steam_id":76561197999456003,"connected_time":838000000000,"state":"active","ping":56},{"user_id":398,"name":"Jingleboob's 1# Elf","steam_id":76561198067204908,"connected_time":242000000000,"state":"active","ping":63},{"user_id":373,"name":"jingleboob","steam_id":76561198097507847,"connected_time":1096000000000,"state":"active","ping":80},{"user_id":375,"name":"Shwal","steam_id":76561198138840448,"connected_time":990000000000,"state":"active","ping":173},{"user_id":376,"name":"Fruit","steam_id":76561198346687933,"connected_time":975000000000,"state":"active","ping":66},{"user_id":378,"name":"KaLaNi","steam_id":76561198255925883,"connected_time":898000000000,"state":"active","ping":93}]},{"server_id":311,"name":"Uncletopia | Frankfurt | 6 | All Maps","name_short":"frk-6","host":"frk-1.de.uncletopia.com","port":27065,"enabled":true,"region":"eu","cc":"de","latitude":50.110924,"longitude":8.682127,"reserved":0,"last_update":"0001-01-01T00:00:00Z","name_a2s":"Uncletopia | Frankfurt | 6 | All Maps","protocol":17,"map":"cp_process_final","folder":"tf","game":"Team Fortress","app_id":440,"player_count":24,"max_players":24,"Bots":0,"server_type":"Dedicated","server_os":"Linux","password":true,"vac":true,"version":"7723704","steam_id":85568392924504278,"keywords":["cp","nocrits","nodmgspread","uncletopia"],"game_id":440,"stv_port":27066,"stv_name":"Uncletopia | Frankfurt | 6 | All Maps | STV","players":[{"user_id":256,"name":"Perci","steam_id":76561198097789669,"connected_time":4767000000000,"state":"active","ping":61},{"user_id":318,"name":"?","steam_id":76561199114927025,"connected_time":125000000000,"state":"active","ping":105},{"user_id":310,"name":"Jonas Destark","steam_id":76561198030327441,"connected_time":555000000000,"state":"active","ping":61},{"user_id":313,"name":"Greyhunter","steam_id":76561197960884202,"connected_time":377000000000,"state":"active","ping":47},{"user_id":308,"name":"78","steam_id":76561198208328357,"connected_time":581000000000,"state":"active","ping":88},{"user_id":275,"name":"Nithle","steam_id":76561198025372740,"connected_time":2935000000000,"state":"active","ping":76},{"user_id":305,"name":"Reeeeeeeeee80","steam_id":76561199438276394,"connected_time":713000000000,"state":"active","ping":86},{"user_id":288,"name":"tristan","steam_id":76561198096097448,"connected_time":2050000000000,"state":"active","ping":54},{"user_id":314,"name":"wolfgang","steam_id":76561199111818670,"connected_time":371000000000,"state":"active","ping":96},{"user_id":280,"name":"Fat Pigeon","steam_id":76561198817940142,"connected_time":2533000000000,"state":"active","ping":55},{"user_id":297,"name":"KFC Enjoyer","steam_id":76561198840259819,"connected_time":1614000000000,"state":"active","ping":45},{"user_id":293,"name":"Udinese Dion","steam_id":76561198067931573,"connected_time":1894000000000,"state":"active","ping":69},{"user_id":273,"name":"meriones","steam_id":76561198034234373,"connected_time":3124000000000,"state":"active","ping":60},{"user_id":241,"name":"Ultimo","steam_id":76561198061802565,"connected_time":5439000000000,"state":"active","ping":111},{"user_id":294,"name":"do you, mr jones?","steam_id":76561198451550035,"connected_time":1876000000000,"state":"active","ping":84},{"user_id":316,"name":"Coach","steam_id":76561198090835995,"connected_time":258000000000,"state":"active","ping":73},{"user_id":283,"name":"Guy with squares as username","steam_id":76561198269524918,"connected_time":2196000000000,"state":"active","ping":52},{"user_id":190,"name":"Gernhardt Reinlunzen #savetf2","steam_id":76561198147571688,"connected_time":7850000000000,"state":"active","ping":52},{"user_id":315,"name":"Frog","steam_id":76561198043981067,"connected_time":333000000000,"state":"active","ping":67},{"user_id":306,"name":"Moutari","steam_id":76561199020465304,"connected_time":706000000000,"state":"active","ping":60},{"user_id":317,"name":"ZOGG FearLand","steam_id":76561198352683491,"connected_time":231000000000,"state":"active","ping":57},{"user_id":247,"name":"LasagnaLarry22","steam_id":76561198089478290,"connected_time":5341000000000,"state":"active","ping":56},{"user_id":307,"name":"Seeis","steam_id":76561197987086409,"connected_time":658000000000,"state":"active","ping":94},{"user_id":254,"name":"Pyraq","steam_id":76561198163646895,"connected_time":5081000000000,"state":"active","ping":63}]},{"server_id":23,"name":"Uncletopia | Frankfurt | 7 | No Payload","name_short":"frk-7","host":"frk-1.de.uncletopia.com","port":27075,"enabled":true,"region":"eu","cc":"de","latitude":50.110924,"longitude":8.682127,"reserved":0,"last_update":"0001-01-01T00:00:00Z","name_a2s":"Uncletopia | Frankfurt | 7 | No Payload","protocol":17,"map":"ctf_turbine","folder":"tf","game":"Team Fortress","app_id":440,"player_count":21,"max_players":24,"Bots":0,"server_type":"Dedicated","server_os":"Linux","password":true,"vac":true,"version":"7723704","steam_id":85568392924742827,"keywords":["ctf","nocrits","nodmgspread","uncletopia"],"game_id":440,"stv_port":27076,"stv_name":"Uncletopia | Frankfurt | 7 | No Payload | STV","players":[{"user_id":129,"name":"Dragonmitri","steam_id":76561198144683775,"connected_time":1016000000000,"state":"active","ping":70},{"user_id":141,"name":"Spy","steam_id":76561198122074582,"connected_time":544000000000,"state":"active","ping":87},{"user_id":142,"name":"THE D","steam_id":76561198830600406,"connected_time":383000000000,"state":"active","ping":78},{"user_id":95,"name":"Him","steam_id":76561198086400484,"connected_time":2465000000000,"state":"active","ping":65},{"user_id":96,"name":"vertigo!","steam_id":76561198914976373,"connected_time":2452000000000,"state":"active","ping":50},{"user_id":97,"name":"mismu","steam_id":76561198854358215,"connected_time":2426000000000,"state":"active","ping":45},{"user_id":144,"name":"Tedkon","steam_id":76561198034141061,"connected_time":190000000000,"state":"active","ping":124},{"user_id":128,"name":"pablo","steam_id":76561198089285014,"connected_time":1107000000000,"state":"active","ping":64},{"user_id":145,"name":"mark","steam_id":76561198309246388,"connected_time":182000000000,"state":"active","ping":50},{"user_id":143,"name":"2tonOrca","steam_id":76561198874754081,"connected_time":335000000000,"state":"active","ping":62},{"user_id":138,"name":"kid named finger","steam_id":76561198364466446,"connected_time":667000000000,"state":"active","ping":61},{"user_id":139,"name":"Bob Salami","steam_id":76561198150681340,"connected_time":643000000000,"state":"active","ping":80},{"user_id":125,"name":"Ok","steam_id":76561198356826506,"connected_time":1322000000000,"state":"active","ping":48},{"user_id":59,"name":"Dark|TBE","steam_id":76561199093438455,"connected_time":4668000000000,"state":"active","ping":48},{"user_id":61,"name":"Oak_Tree_From_Minecraft","steam_id":76561199223984137,"connected_time":4606000000000,"state":"active","ping":56},{"user_id":147,"name":"JIJI","steam_id":76561198137597283,"connected_time":135000000000,"state":"active","ping":103},{"user_id":148,"name":"Par","steam_id":76561198093230963,"connected_time":107000000000,"state":"active","ping":59},{"user_id":77,"name":"gullr","steam_id":76561198283606917,"connected_time":3822000000000,"state":"active","ping":48},{"user_id":109,"name":"domfoor22","steam_id":76561199445914774,"connected_time":1995000000000,"state":"active","ping":157},{"user_id":149,"name":"Slick","steam_id":76561197994232008,"connected_time":104000000000,"state":"active","ping":65},{"user_id":78,"name":"Fatass","steam_id":76561198143115077,"connected_time":3818000000000,"state":"active","ping":90}]},{"server_id":24,"name":"Uncletopia | Frankfurt | 8 | Community","name_short":"frk-8","host":"frk-1.de.uncletopia.com","port":27085,"enabled":true,"region":"eu","cc":"de","latitude":50.110924,"longitude":8.682127,"reserved":0,"last_update":"0001-01-01T00:00:00Z","name_a2s":"Uncletopia | Frankfurt | 8 | Community","protocol":17,"map":"workshop/koth_ashville_final.ugc2130459942","folder":"tf","game":"Team Fortress","app_id":440,"player_count":0,"max_players":24,"Bots":0,"server_type":"Dedicated","server_os":"Linux","password":true,"vac":true,"version":"7723704","steam_id":85568392924742828,"keywords":["cp","nocrits","nodmgspread","uncletopia"],"game_id":440,"stv_port":27086,"stv_name":"Uncletopia | Frankfurt | 8 | Community | STV","players":null},{"server_id":202,"name":"Uncletopia | Hong Kong | 1 | All Maps","name_short":"hgk-1","host":"hgk-1.hk.uncletopia.com","port":27015,"enabled":true,"region":"asia","cc":"hk","latitude":22.302711,"longitude":114.177216,"reserved":0,"last_update":"0001-01-01T00:00:00Z","name_a2s":"Uncletopia | Hong Kong | 1 | All Maps","protocol":17,"map":"koth_cascade","folder":"tf","game":"Team Fortress","app_id":440,"player_count":0,"max_players":24,"Bots":0,"server_type":"Dedicated","server_os":"Linux","password":true,"vac":true,"version":"7723704","steam_id":85568392924494504,"keywords":["cp","nocrits","nodmgspread","uncletopia"],"game_id":440,"stv_port":27016,"stv_name":"Uncletopia | Hong Kong | 1 | All Maps | STV","players":null},{"server_id":1,"name":"Uncletopia | Los Angeles | 1 | All Maps","name_short":"lax-1","host":"lax-1.us.uncletopia.com","port":27015,"enabled":true,"region":"us-west","cc":"us","latitude":33.94279,"longitude":-118.41004,"reserved":0,"last_update":"0001-01-01T00:00:00Z","name_a2s":"Uncletopia | Los Angeles | 1 | All Maps","protocol":17,"map":"pl_pier","folder":"tf","game":"Team Fortress","app_id":440,"player_count":0,"max_players":24,"Bots":0,"server_type":"Dedicated","server_os":"Linux","password":true,"vac":true,"version":"7723704","steam_id":85568392924469991,"keywords":["nocrits","nodmgspread","payload","uncletopia"],"game_id":440,"stv_port":27016,"stv_name":"Uncletopia | Los Angeles | 1 | All Maps | STV","players":null},{"server_id":112,"name":"Uncletopia | Los Angeles | 2 | All Maps","name_short":"lax-2","host":"lax-1.us.uncletopia.com","port":27025,"enabled":true,"region":"us-west","cc":"us","latitude":33.94279,"longitude":-118.41004,"reserved":0,"last_update":"0001-01-01T00:00:00Z","name_a2s":"Uncletopia | Los Angeles | 2 | All Maps","protocol":17,"map":"pl_pier","folder":"tf","game":"Team Fortress","app_id":440,"player_count":1,"max_players":24,"Bots":0,"server_type":"Dedicated","server_os":"Linux","password":true,"vac":true,"version":"7723704","steam_id":85568392924469992,"keywords":["nocrits","nodmgspread","payload","uncletopia"],"game_id":440,"stv_port":27026,"stv_name":"Uncletopia | Los Angeles | 2 | All Maps | STV","players":[{"user_id":7,"name":"Drog0nXV | Trade.tf","steam_id":76561198864720623,"connected_time":44000000000,"state":"spawning","ping":60}]},{"server_id":324,"name":"Uncletopia | Los Angeles | 3 | All Maps","name_short":"lax-3","host":"lax-1.us.uncletopia.com","port":27035,"enabled":true,"region":"us-west","cc":"us","latitude":33.94279,"longitude":-118.41004,"reserved":0,"last_update":"0001-01-01T00:00:00Z","name_a2s":"Uncletopia | Los Angeles | 3 | All Maps","protocol":17,"map":"koth_highpass","folder":"tf","game":"Team Fortress","app_id":440,"player_count":0,"max_players":24,"Bots":0,"server_type":"Dedicated","server_os":"Linux","password":true,"vac":true,"version":"7723704","steam_id":85568392924510198,"keywords":["cp","nocrits","nodmgspread","uncletopia"],"game_id":440,"stv_port":27036,"stv_name":"Uncletopia | Los Angeles | 3 | All Maps | STV","players":null},{"server_id":25,"name":"Uncletopia | Los Angeles | 4 | No Payload","name_short":"lax-4","host":"lax-1.us.uncletopia.com","port":27045,"enabled":true,"region":"us-west","cc":"us","latitude":33.94279,"longitude":-118.41004,"reserved":0,"last_update":"0001-01-01T00:00:00Z","name_a2s":"Uncletopia | Los Angeles | 4 | No Payload","protocol":17,"map":"cp_mountainlab","folder":"tf","game":"Team Fortress","app_id":440,"player_count":0,"max_players":24,"Bots":0,"server_type":"Dedicated","server_os":"Linux","password":true,"vac":true,"version":"7723704","steam_id":85568392924510199,"keywords":["cp","nocrits","nodmgspread","uncletopia"],"game_id":440,"stv_port":27046,"stv_name":"Uncletopia | Los Angeles | 4 | No Payload | STV","players":null},{"server_id":11,"name":"Uncletopia | London | 1 | All Maps","name_short":"lon-1","host":"lon-1.uk.uncletopia.com","port":27015,"enabled":true,"region":"eu","cc":"gb","latitude":51.509865,"longitude":-0.118092,"reserved":0,"last_update":"0001-01-01T00:00:00Z","name_a2s":"Uncletopia | London | 1 | All Maps","protocol":17,"map":"pl_borneo","folder":"tf","game":"Team Fortress","app_id":440,"player_count":0,"max_players":24,"Bots":0,"server_type":"Dedicated","server_os":"Linux","password":true,"vac":true,"version":"7723704","steam_id":85568392924367362,"keywords":["nocrits","nodmgspread","payload","uncletopia"],"game_id":440,"stv_port":27016,"stv_name":"Uncletopia | London | 1 | All Maps | STV","players":null},{"server_id":114,"name":"Uncletopia | London | 2 | All Maps","name_short":"lon-2","host":"lon-1.uk.uncletopia.com","port":27025,"enabled":true,"region":"eu","cc":"gb","latitude":51.509865,"longitude":-0.118092,"reserved":0,"last_update":"0001-01-01T00:00:00Z","name_a2s":"Uncletopia | London | 2 | All Maps","protocol":17,"map":"pl_snowycoast","folder":"tf","game":"Team Fortress","app_id":440,"player_count":24,"max_players":24,"Bots":0,"server_type":"Dedicated","server_os":"Linux","password":true,"vac":true,"version":"7723704","steam_id":85568392924470941,"keywords":["nocrits","nodmgspread","payload","uncletopia"],"game_id":440,"stv_port":27026,"stv_name":"Uncletopia | London | 2 | All Maps | STV","players":[{"user_id":419,"name":"VK2124 :D","steam_id":76561198111130688,"connected_time":10097000000000,"state":"active","ping":59},{"user_id":604,"name":"Creative","steam_id":76561198835034247,"connected_time":1821000000000,"state":"active","ping":92},{"user_id":587,"name":"Jonkheervanflep","steam_id":76561198006853101,"connected_time":2406000000000,"state":"active","ping":77},{"user_id":617,"name":"Frazzles","steam_id":76561199228009586,"connected_time":830000000000,"state":"active","ping":43},{"user_id":623,"name":"Hideo Kojima","steam_id":76561199072684968,"connected_time":222000000000,"state":"active","ping":62},{"user_id":620,"name":"Eleren","steam_id":76561198123361225,"connected_time":533000000000,"state":"active","ping":49},{"user_id":602,"name":"TheBeardedM1G","steam_id":76561198040208946,"connected_time":1884000000000,"state":"active","ping":48},{"user_id":595,"name":"Nathan","steam_id":76561198040069336,"connected_time":2214000000000,"state":"active","ping":46},{"user_id":586,"name":"Lewylow","steam_id":76561198005425686,"connected_time":2426000000000,"state":"active","ping":60},{"user_id":600,"name":"TheLogicult","steam_id":76561198072324306,"connected_time":1927000000000,"state":"active","ping":29},{"user_id":618,"name":"i am bread","steam_id":76561199180277321,"connected_time":798000000000,"state":"active","ping":41},{"user_id":501,"name":"YeetusFeetus","steam_id":76561199043598948,"connected_time":7567000000000,"state":"active","ping":120},{"user_id":627,"name":"aaaaa aa aaa","steam_id":76561198377289568,"connected_time":156000000000,"state":"active","ping":62},{"user_id":610,"name":"Cazulas","steam_id":76561198027460283,"connected_time":1405000000000,"state":"active","ping":69},{"user_id":624,"name":"Smissmin","steam_id":76561198005342133,"connected_time":183000000000,"state":"active","ping":46},{"user_id":567,"name":"ArekanPL","steam_id":76561198306811916,"connected_time":4184000000000,"state":"active","ping":80},{"user_id":625,"name":"Farmbot 512","steam_id":76561198346383246,"connected_time":176000000000,"state":"active","ping":85},{"user_id":628,"name":"G6 sherlock","steam_id":76561198802967796,"connected_time":0,"state":"spawning","ping":0},{"user_id":590,"name":"KITE MAN!  HELL YEAH!","steam_id":76561198079386295,"connected_time":2322000000000,"state":"active","ping":53},{"user_id":621,"name":"Gencay","steam_id":76561198973232202,"connected_time":504000000000,"state":"active","ping":97},{"user_id":612,"name":"DJ –ïBAN","steam_id":76561198027646597,"connected_time":1375000000000,"state":"active","ping":111},{"user_id":607,"name":"prank em john","steam_id":76561199265289808,"connected_time":1786000000000,"state":"active","ping":112},{"user_id":626,"name":"Lord GabeN","steam_id":76561198140862723,"connected_time":165000000000,"state":"active","ping":128},{"user_id":622,"name":"Flint","steam_id":76561197995920776,"connected_time":498000000000,"state":"active","ping":53}]},{"server_id":320,"name":"Uncletopia | London | 3 | All Maps","name_short":"lon-3","host":"lon-1.uk.uncletopia.com","port":27035,"enabled":true,"region":"eu","cc":"gb","latitude":51.509865,"longitude":-0.118092,"reserved":0,"last_update":"0001-01-01T00:00:00Z","name_a2s":"Uncletopia | London | 3 | All Maps","protocol":17,"map":"pl_frontier_final","folder":"tf","game":"Team Fortress","app_id":440,"player_count":24,"max_players":24,"Bots":0,"server_type":"Dedicated","server_os":"Linux","password":true,"vac":true,"version":"7723704","steam_id":85568392924510192,"keywords":["nocrits","nodmgspread","payload","uncletopia"],"game_id":440,"stv_port":27036,"stv_name":"Uncletopia | London | 3 | All Maps | STV","players":[{"user_id":121,"name":"My left foot itches","steam_id":76561198078411001,"connected_time":210000000000,"state":"active","ping":87},{"user_id":102,"name":"Spik√†","steam_id":76561197999582114,"connected_time":1667000000000,"state":"active","ping":75},{"user_id":113,"name":"i heal gay people","steam_id":76561198032167311,"connected_time":958000000000,"state":"active","ping":83},{"user_id":90,"name":"Kahvi","steam_id":76561198723244199,"connected_time":2413000000000,"state":"active","ping":75},{"user_id":114,"name":"Jesus Hank Christ","steam_id":76561199233973551,"connected_time":633000000000,"state":"active","ping":83},{"user_id":27,"name":"mafutbolero","steam_id":76561199233664005,"connected_time":6001000000000,"state":"active","ping":58},{"user_id":122,"name":"Millero15","steam_id":76561198143105719,"connected_time":158000000000,"state":"active","ping":77},{"user_id":116,"name":"dustee","steam_id":76561198023486582,"connected_time":537000000000,"state":"active","ping":60},{"user_id":67,"name":"Svilar","steam_id":76561198828348612,"connected_time":3606000000000,"state":"active","ping":52},{"user_id":104,"name":"Vollys","steam_id":76561198018077773,"connected_time":1438000000000,"state":"active","ping":65},{"user_id":105,"name":"Bluns","steam_id":76561198155231597,"connected_time":1363000000000,"state":"active","ping":79},{"user_id":123,"name":"AWJ ÀÜ-ÀÜ","steam_id":76561198053628243,"connected_time":149000000000,"state":"active","ping":44},{"user_id":127,"name":"Knee-eater","steam_id":76561199114057061,"connected_time":102000000000,"state":"active","ping":56},{"user_id":108,"name":"Texas Red","steam_id":76561199069782779,"connected_time":1261000000000,"state":"active","ping":89},{"user_id":117,"name":"Lukas","steam_id":76561198009118452,"connected_time":342000000000,"state":"active","ping":61},{"user_id":125,"name":"Shezza","steam_id":76561198903969123,"connected_time":113000000000,"state":"active","ping":75},{"user_id":119,"name":"haus","steam_id":76561198186770569,"connected_time":305000000000,"state":"active","ping":65},{"user_id":110,"name":"Moz","steam_id":76561198027171160,"connected_time":1116000000000,"state":"active","ping":135},{"user_id":83,"name":"Shardarzan","steam_id":76561199158307332,"connected_time":2864000000000,"state":"active","ping":73},{"user_id":111,"name":"No, Why?","steam_id":76561198888755969,"connected_time":1090000000000,"state":"active","ping":79},{"user_id":112,"name":"suchy.dada","steam_id":76561199311028019,"connected_time":1060000000000,"state":"active","ping":66},{"user_id":128,"name":"self care","steam_id":76561199117720299,"connected_time":23000000000,"state":"active","ping":67},{"user_id":120,"name":"scout TF2","steam_id":76561198072037878,"connected_time":304000000000,"state":"active","ping":47},{"user_id":94,"name":"king251311","steam_id":76561199063310889,"connected_time":2326000000000,"state":"active","ping":78}]},{"server_id":321,"name":"Uncletopia | London | 4 | All Maps","name_short":"lon-4","host":"lon-1.uk.uncletopia.com","port":27045,"enabled":true,"region":"eu","cc":"gb","latitude":51.509865,"longitude":-0.118092,"reserved":0,"last_update":"0001-01-01T00:00:00Z","name_a2s":"Uncletopia | London | 4 | All Maps","protocol":17,"map":"pl_badwater","folder":"tf","game":"Team Fortress","app_id":440,"player_count":24,"max_players":24,"Bots":0,"server_type":"Dedicated","server_os":"Linux","password":true,"vac":true,"version":"7723704","steam_id":85568392924510193,"keywords":["nocrits","nodmgspread","payload","uncletopia"],"game_id":440,"stv_port":27046,"stv_name":"Uncletopia | London | 4 | All Maps | STV","players":[{"user_id":426,"name":"Maya #transrights","steam_id":76561198290614621,"connected_time":424000000000,"state":"active","ping":52},{"user_id":411,"name":"your_local_penguin","steam_id":76561199224954346,"connected_time":1276000000000,"state":"active","ping":96},{"user_id":412,"name":"Grandmatch","steam_id":76561198139164259,"connected_time":1256000000000,"state":"active","ping":128},{"user_id":437,"name":"Loberless","steam_id":76561198277844777,"connected_time":86000000000,"state":"active","ping":42},{"user_id":430,"name":"F","steam_id":76561199149462792,"connected_time":272000000000,"state":"active","ping":53},{"user_id":395,"name":"vedatbora35","steam_id":76561199242623968,"connected_time":3227000000000,"state":"active","ping":110},{"user_id":428,"name":"void monad","steam_id":76561198117012334,"connected_time":336000000000,"state":"active","ping":93},{"user_id":438,"name":"R!not","steam_id":76561197986328786,"connected_time":74000000000,"state":"active","ping":43},{"user_id":414,"name":"pvpb0t","steam_id":76561197982333923,"connected_time":1056000000000,"state":"active","ping":75},{"user_id":431,"name":"Jamie Hyneman","steam_id":76561198364121077,"connected_time":266000000000,"state":"active","ping":98},{"user_id":419,"name":"Weed Obama","steam_id":76561198082407601,"connected_time":968000000000,"state":"active","ping":68},{"user_id":416,"name":"Videomaniac","steam_id":76561199238019761,"connected_time":1048000000000,"state":"active","ping":102},{"user_id":417,"name":"heisenburger","steam_id":76561198284589853,"connected_time":1036000000000,"state":"active","ping":84},{"user_id":399,"name":"pizza pasta (the boxer)","steam_id":76561198106455841,"connected_time":2743000000000,"state":"active","ping":61},{"user_id":418,"name":"Octoblue64","steam_id":76561198388997283,"connected_time":987000000000,"state":"active","ping":46},{"user_id":422,"name":"GamingCarp","steam_id":76561198285235511,"connected_time":835000000000,"state":"active","ping":47},{"user_id":432,"name":"Diana Ball","steam_id":76561198382533813,"connected_time":264000000000,"state":"active","ping":46},{"user_id":393,"name":"StefaNN","steam_id":76561198075273499,"connected_time":3504000000000,"state":"active","ping":61},{"user_id":301,"name":"Roman Polanski","steam_id":76561198108321988,"connected_time":10540000000000,"state":"active","ping":70},{"user_id":436,"name":"Thors","steam_id":76561197968739075,"connected_time":138000000000,"state":"active","ping":43},{"user_id":434,"name":"Cherr1Bomb","steam_id":76561198967510260,"connected_time":242000000000,"state":"active","ping":52},{"user_id":425,"name":"Dr. Cox","steam_id":76561198246629218,"connected_time":763000000000,"state":"active","ping":101},{"user_id":401,"name":"Ixsus\u003c3","steam_id":76561198094756869,"connected_time":2226000000000,"state":"active","ping":71},{"user_id":407,"name":"Hohlyatina","steam_id":76561198169154183,"connected_time":1682000000000,"state":"active","ping":75}]},{"server_id":21,"name":"Uncletopia | London | 5 | All Maps","name_short":"lon-5","host":"lon-1.uk.uncletopia.com","port":27055,"enabled":true,"region":"eu","cc":"gb","latitude":51.509865,"longitude":-0.118092,"reserved":0,"last_update":"0001-01-01T00:00:00Z","name_a2s":"Uncletopia | London | 5 | All Maps","protocol":17,"map":"koth_cascade","folder":"tf","game":"Team Fortress","app_id":440,"player_count":0,"max_players":24,"Bots":0,"server_type":"Dedicated","server_os":"Linux","password":true,"vac":true,"version":"7723704","steam_id":85568392924742829,"keywords":["cp","nocrits","nodmgspread","uncletopia"],"game_id":440,"stv_port":27056,"stv_name":"Uncletopia | London | 5 | All Maps | STV","players":null},{"server_id":22,"name":"Uncletopia | London | 6 | All Maps","name_short":"lon-6","host":"lon-1.uk.uncletopia.com","port":27065,"enabled":true,"region":"eu","cc":"gb","latitude":51.509865,"longitude":-0.118092,"reserved":0,"last_update":"0001-01-01T00:00:00Z","name_a2s":"Uncletopia | London | 6 | All Maps","protocol":17,"map":"cp_mountainlab","folder":"tf","game":"Team Fortress","app_id":440,"player_count":22,"max_players":24,"Bots":0,"server_type":"Dedicated","server_os":"Linux","password":true,"vac":true,"version":"7723704","steam_id":85568392924742830,"keywords":["cp","nocrits","nodmgspread","uncletopia"],"game_id":440,"stv_port":27066,"stv_name":"Uncletopia | London | 6 | All Maps | STV","players":[{"user_id":111,"name":"·ö®·öæ·õñ·ö¢·ö±","steam_id":76561198125459690,"connected_time":3994000000000,"state":"active","ping":45},{"user_id":171,"name":"ronnie","steam_id":76561198377533237,"connected_time":1000000000,"state":"spawning","ping":57},{"user_id":85,"name":"–∏–≤–∞–Ω","steam_id":76561198072730591,"connected_time":5396000000000,"state":"active","ping":63},{"user_id":166,"name":"NNN","steam_id":76561199016117890,"connected_time":641000000000,"state":"active","ping":130},{"user_id":168,"name":"Sebtacular","steam_id":76561198334284616,"connected_time":145000000000,"state":"active","ping":58},{"user_id":119,"name":"Spyeter","steam_id":76561198201688495,"connected_time":3512000000000,"state":"active","ping":75},{"user_id":144,"name":"Citrus","steam_id":76561198090650837,"connected_time":2202000000000,"state":"active","ping":49},{"user_id":122,"name":"rat performance","steam_id":76561198065854668,"connected_time":3409000000000,"state":"active","ping":45},{"user_id":151,"name":"Raze (F2P)","steam_id":76561198120226105,"connected_time":1734000000000,"state":"active","ping":99},{"user_id":157,"name":"Gaming Gaming (real) (fake)","steam_id":76561198348066287,"connected_time":1543000000000,"state":"active","ping":60},{"user_id":142,"name":"Aster","steam_id":76561198037920420,"connected_time":2553000000000,"state":"active","ping":178},{"user_id":152,"name":"NoShield","steam_id":76561198831300551,"connected_time":1699000000000,"state":"active","ping":128},{"user_id":169,"name":"whale hunter","steam_id":76561198125002620,"connected_time":143000000000,"state":"active","ping":50},{"user_id":165,"name":"Yeeeeeeeet","steam_id":76561198291605978,"connected_time":805000000000,"state":"active","ping":90},{"user_id":107,"name":"„ÄéDorarhim„Äè","steam_id":76561198220232352,"connected_time":4225000000000,"state":"active","ping":45},{"user_id":101,"name":"Nix (they/them)","steam_id":76561198150006573,"connected_time":4542000000000,"state":"active","ping":51},{"user_id":170,"name":"Kralian","steam_id":76561198826960955,"connected_time":139000000000,"state":"active","ping":69},{"user_id":143,"name":"LegoKatt","steam_id":76561198064536870,"connected_time":2507000000000,"state":"active","ping":87},{"user_id":115,"name":"Goofy Gaming 597","steam_id":76561198372536459,"connected_time":3739000000000,"state":"active","ping":42},{"user_id":156,"name":"del2o","steam_id":76561199072601822,"connected_time":1593000000000,"state":"active","ping":126},{"user_id":167,"name":"I wuv you \u003c3","steam_id":76561199436238409,"connected_time":344000000000,"state":"active","ping":82},{"user_id":109,"name":"Weeb","steam_id":76561198297928869,"connected_time":4086000000000,"state":"active","ping":44}]},{"server_id":40,"name":"Uncletopia | London | 7 | No Payload","name_short":"lon-7","host":"lon-1.uk.uncletopia.com","port":27075,"enabled":true,"region":"eu","cc":"gb","latitude":51.509865,"longitude":-0.118092,"reserved":0,"last_update":"0001-01-01T00:00:00Z","name_a2s":"Uncletopia | London | 7 | No Payload","protocol":17,"map":"ctf_landfall","folder":"tf","game":"Team Fortress","app_id":440,"player_count":0,"max_players":24,"Bots":0,"server_type":"Dedicated","server_os":"Linux","password":true,"vac":true,"version":"7723704","steam_id":85568392924964314,"keywords":["ctf","nocrits","nodmgspread","uncletopia"],"game_id":440,"stv_port":27076,"stv_name":"Uncletopia | London | 7 | No Payload | STV","players":null},{"server_id":41,"name":"Uncletopia | London | 8 | Community","name_short":"lon-8","host":"lon-1.uk.uncletopia.com","port":27085,"enabled":true,"region":"eu","cc":"gb","latitude":51.509865,"longitude":-0.118092,"reserved":0,"last_update":"0001-01-01T00:00:00Z","name_a2s":"Uncletopia | London | 8 | Community","protocol":17,"map":"workshop/koth_bagel_rc5.ugc2514036946","folder":"tf","game":"Team Fortress","app_id":440,"player_count":0,"max_players":24,"Bots":0,"server_type":"Dedicated","server_os":"Linux","password":true,"vac":true,"version":"7723704","steam_id":85568392924964315,"keywords":["cp","nocrits","nodmgspread","uncletopia"],"game_id":440,"stv_port":27086,"stv_name":"Uncletopia | London | 8 | Community | STV","players":null},{"server_id":300,"name":"Uncletopia | Montr√©al | 1 | All Maps","name_short":"mtl-1","host":"mtl-1.ca.uncletopia.com","port":27015,"enabled":true,"region":"us-east","cc":"ca","latitude":45.50889,"longitude":-73.56167,"reserved":0,"last_update":"0001-01-01T00:00:00Z","name_a2s":"","protocol":0,"map":"","folder":"","game":"","app_id":0,"player_count":0,"max_players":0,"Bots":0,"server_type":"","server_os":"","password":false,"vac":false,"version":"","steam_id":0,"keywords":null,"game_id":0,"stv_port":0,"stv_name":"","players":null},{"server_id":301,"name":"Uncletopia | Montr√©al | 2 | All Maps","name_short":"mtl-2","host":"mtl-1.ca.uncletopia.com","port":27025,"enabled":true,"region":"us-east","cc":"ca","latitude":45.50889,"longitude":-73.56167,"reserved":0,"last_update":"0001-01-01T00:00:00Z","name_a2s":"","protocol":0,"map":"","folder":"","game":"","app_id":0,"player_count":0,"max_players":0,"Bots":0,"server_type":"","server_os":"","password":false,"vac":false,"version":"","steam_id":0,"keywords":null,"game_id":0,"stv_port":0,"stv_name":"","players":null},{"server_id":302,"name":"Uncletopia | Montr√©al | 3 | All Maps","name_short":"mtl-3","host":"mtl-1.ca.uncletopia.com","port":27035,"enabled":true,"region":"us-east","cc":"ca","latitude":45.50889,"longitude":-73.56167,"reserved":0,"last_update":"0001-01-01T00:00:00Z","name_a2s":"","protocol":0,"map":"","folder":"","game":"","app_id":0,"player_count":0,"max_players":0,"Bots":0,"server_type":"","server_os":"","password":false,"vac":false,"version":"","steam_id":0,"keywords":null,"game_id":0,"stv_port":0,"stv_name":"","players":null},{"server_id":303,"name":"Uncletopia | Montr√©al | 4 | No Payload","name_short":"mtl-4","host":"mtl-1.ca.uncletopia.com","port":27045,"enabled":true,"region":"us-east","cc":"ca","latitude":45.50889,"longitude":-73.56167,"reserved":0,"last_update":"0001-01-01T00:00:00Z","name_a2s":"","protocol":0,"map":"","folder":"","game":"","app_id":0,"player_count":0,"max_players":0,"Bots":0,"server_type":"","server_os":"","password":false,"vac":false,"version":"","steam_id":0,"keywords":null,"game_id":0,"stv_port":0,"stv_name":"","players":null},{"server_id":13,"name":"Uncletopia | New York City | 1 | All Maps","name_short":"nyc-1","host":"nyc-1.us.uncletopia.com","port":27015,"enabled":true,"region":"us-east","cc":"us","latitude":40.73061,"longitude":-73.93524,"reserved":0,"last_update":"0001-01-01T00:00:00Z","name_a2s":"Uncletopia | New York City | 1 | All Maps","protocol":17,"map":"pl_barnblitz","folder":"tf","game":"Team Fortress","app_id":440,"player_count":24,"max_players":24,"Bots":0,"server_type":"Dedicated","server_os":"Linux","password":true,"vac":true,"version":"7723704","steam_id":85568392924469993,"keywords":["nocrits","nodmgspread","payload","uncletopia"],"game_id":440,"stv_port":27016,"stv_name":"Uncletopia | New York City | 1 | All Maps | STV","players":[{"user_id":162,"name":"wack","steam_id":76561198095697330,"connected_time":857000000000,"state":"active","ping":63},{"user_id":163,"name":"MrMineHeads","steam_id":76561198129344936,"connected_time":821000000000,"state":"active","ping":67},{"user_id":85,"name":"Epicus Lusor","steam_id":76561198271981088,"connected_time":5532000000000,"state":"active","ping":71},{"user_id":135,"name":"Pixeled","steam_id":76561198088917077,"connected_time":2760000000000,"state":"active","ping":80},{"user_id":164,"name":"shadysessions","steam_id":76561198032464781,"connected_time":819000000000,"state":"active","ping":56},{"user_id":170,"name":"massive wang","steam_id":76561199091221238,"connected_time":587000000000,"state":"active","ping":75},{"user_id":166,"name":"dan","steam_id":76561198061589465,"connected_time":747000000000,"state":"active","ping":44},{"user_id":155,"name":"beanman","steam_id":76561198373432485,"connected_time":1189000000000,"state":"active","ping":92},{"user_id":159,"name":"your discord kitten uwu","steam_id":76561198192330781,"connected_time":1041000000000,"state":"active","ping":49},{"user_id":150,"name":"Nicoarn121","steam_id":76561198156297440,"connected_time":1679000000000,"state":"active","ping":36},{"user_id":172,"name":"bite of 87 (real NOT CLICKBAIT)","steam_id":76561198045832398,"connected_time":480000000000,"state":"active","ping":92},{"user_id":156,"name":"OurIceCreamMan","steam_id":76561199387400627,"connected_time":1184000000000,"state":"active","ping":94},{"user_id":144,"name":"-=Bits=-Dinkleberg","steam_id":76561198080367616,"connected_time":1964000000000,"state":"active","ping":103},{"user_id":145,"name":"Carthage","steam_id":76561198049001571,"connected_time":1914000000000,"state":"active","ping":130},{"user_id":171,"name":"The Fool","steam_id":76561198081397523,"connected_time":523000000000,"state":"active","ping":50},{"user_id":133,"name":"I'm probably done trolling","steam_id":76561198046470470,"connected_time":2811000000000,"state":"active","ping":62},{"user_id":81,"name":"Arizona","steam_id":76561198113748347,"connected_time":5664000000000,"state":"active","ping":102},{"user_id":139,"name":"[GUT] RiDiK¬Æ","steam_id":76561197969756446,"connected_time":2577000000000,"state":"active","ping":80},{"user_id":124,"name":"hippo mode","steam_id":76561198073455521,"connected_time":3183000000000,"state":"active","ping":45},{"user_id":167,"name":"Harold","steam_id":76561198057317770,"connected_time":726000000000,"state":"active","ping":113},{"user_id":168,"name":"zeromyth","steam_id":76561198879719236,"connected_time":717000000000,"state":"active","ping":80},{"user_id":169,"name":"Ellen Baker","steam_id":76561198065712435,"connected_time":716000000000,"state":"active","ping":131},{"user_id":157,"name":"Seru","steam_id":76561199219827214,"connected_time":1164000000000,"state":"active","ping":93},{"user_id":173,"name":"SuperJagops","steam_id":76561198034689716,"connected_time":144000000000,"state":"active","ping":50}]},{"server_id":14,"name":"Uncletopia | New York City | 2 | All Maps","name_short":"nyc-2","host":"nyc-1.us.uncletopia.com","port":27025,"enabled":true,"region":"us-east","cc":"us","latitude":40.73061,"longitude":-73.93524,"reserved":0,"last_update":"0001-01-01T00:00:00Z","name_a2s":"Uncletopia | New York City | 2 | All Maps","protocol":17,"map":"plr_nightfall_final","folder":"tf","game":"Team Fortress","app_id":440,"player_count":7,"max_players":24,"Bots":0,"server_type":"Dedicated","server_os":"Linux","password":true,"vac":true,"version":"7723704","steam_id":85568392924469994,"keywords":["nocrits","nodmgspread","payload","uncletopia"],"game_id":440,"stv_port":27026,"stv_name":"Uncletopia | New York City | 2 | All Maps | STV","players":[{"user_id":164,"name":"Walmart Employee","steam_id":76561198840373909,"connected_time":452000000000,"state":"active","ping":88},{"user_id":166,"name":"swiffie","steam_id":76561198226286700,"connected_time":317000000000,"state":"active","ping":152},{"user_id":169,"name":"Bee_Pirate","steam_id":76561199000599111,"connected_time":204000000000,"state":"active","ping":53},{"user_id":167,"name":"KaraTheThing","steam_id":76561198299621448,"connected_time":261000000000,"state":"active","ping":72},{"user_id":161,"name":"Rice Guy","steam_id":76561199054415572,"connected_time":617000000000,"state":"active","ping":67},{"user_id":102,"name":"Tourmaline Lazuli","steam_id":76561198987049358,"connected_time":6549000000000,"state":"active","ping":58},{"user_id":142,"name":"Geloman","steam_id":76561198005501322,"connected_time":2870000000000,"state":"active","ping":55}]},{"server_id":15,"name":"Uncletopia | New York City | 3 | All Maps","name_short":"nyc-3","host":"nyc-1.us.uncletopia.com","port":27035,"enabled":true,"region":"us-east","cc":"us","latitude":40.73061,"longitude":-73.93524,"reserved":0,"last_update":"0001-01-01T00:00:00Z","name_a2s":"Uncletopia | New York City | 3 | All Maps","protocol":17,"map":"pl_swiftwater_final1","folder":"tf","game":"Team Fortress","app_id":440,"player_count":24,"max_players":24,"Bots":0,"server_type":"Dedicated","server_os":"Linux","password":true,"vac":true,"version":"7723704","steam_id":85568392924742820,"keywords":["nocrits","nodmgspread","payload","uncletopia"],"game_id":440,"stv_port":27036,"stv_name":"Uncletopia | New York City | 3 | All Maps | STV","players":[{"user_id":114,"name":"Weird","steam_id":76561199082362722,"connected_time":261000000000,"state":"active","ping":127},{"user_id":54,"name":"kozaevazam","steam_id":76561199374664643,"connected_time":4426000000000,"state":"active","ping":179},{"user_id":89,"name":"MitcheyHD","steam_id":76561198066489645,"connected_time":1807000000000,"state":"active","ping":64},{"user_id":104,"name":"Brad Delson","steam_id":76561198403209815,"connected_time":838000000000,"state":"active","ping":83},{"user_id":88,"name":"keffers | Chrimbus Time","steam_id":76561198202338796,"connected_time":1853000000000,"state":"active","ping":83},{"user_id":102,"name":"captain crunch","steam_id":76561199178885266,"connected_time":870000000000,"state":"active","ping":74},{"user_id":103,"name":"4on4","steam_id":76561199445487950,"connected_time":849000000000,"state":"active","ping":124},{"user_id":96,"name":"Bashirider","steam_id":76561198260522253,"connected_time":1499000000000,"state":"active","ping":42},{"user_id":112,"name":"ryce","steam_id":76561198114572309,"connected_time":507000000000,"state":"active","ping":74},{"user_id":97,"name":"Doominic","steam_id":76561198259172209,"connected_time":1412000000000,"state":"active","ping":85},{"user_id":81,"name":"CyberSyn","steam_id":76561198169966346,"connected_time":2348000000000,"state":"active","ping":64},{"user_id":115,"name":"static","steam_id":76561199093261935,"connected_time":139000000000,"state":"active","ping":58},{"user_id":113,"name":"John Waffles Brown","steam_id":76561197989105786,"connected_time":354000000000,"state":"active","ping":67},{"user_id":107,"name":"Karrot","steam_id":76561198058970903,"connected_time":751000000000,"state":"active","ping":38},{"user_id":83,"name":"spinz","steam_id":76561198353098481,"connected_time":2261000000000,"state":"active","ping":56},{"user_id":100,"name":"Bigger bathroom","steam_id":76561198034771900,"connected_time":1155000000000,"state":"active","ping":68},{"user_id":116,"name":"I_Stare_At_Walls","steam_id":76561199111525373,"connected_time":136000000000,"state":"active","ping":56},{"user_id":117,"name":"Challenger Charles","steam_id":76561198005576553,"connected_time":124000000000,"state":"active","ping":75},{"user_id":109,"name":"‚ù§ Ashley ‚ù§","steam_id":76561198056428303,"connected_time":737000000000,"state":"active","ping":118},{"user_id":118,"name":"piper","steam_id":76561198413930183,"connected_time":95000000000,"state":"active","ping":46},{"user_id":94,"name":"Cthulwho?","steam_id":76561198165550810,"connected_time":1606000000000,"state":"active","ping":80},{"user_id":110,"name":"SevenOilRigs","steam_id":76561198125072988,"connected_time":720000000000,"state":"active","ping":102},{"user_id":75,"name":"Waffle Wannabe","steam_id":76561198064510650,"connected_time":3611000000000,"state":"active","ping":58},{"user_id":95,"name":"gryeko","steam_id":76561198142243074,"connected_time":1556000000000,"state":"active","ping":56}]},{"server_id":16,"name":"Uncletopia | New York City | 4 | Community","name_short":"nyc-4","host":"nyc-1.us.uncletopia.com","port":27045,"enabled":true,"region":"us-east","cc":"us","latitude":40.73061,"longitude":-73.93524,"reserved":0,"last_update":"0001-01-01T00:00:00Z","name_a2s":"Uncletopia | New York City | 4 | Community","protocol":17,"map":"cp_process_final","folder":"tf","game":"Team Fortress","app_id":440,"player_count":0,"max_players":24,"Bots":0,"server_type":"Dedicated","server_os":"Linux","password":true,"vac":true,"version":"7723704","steam_id":85568392924742821,"keywords":["cp","nocrits","nodmgspread","uncletopia"],"game_id":440,"stv_port":27046,"stv_name":"Uncletopia | New York City | 4 | Community | STV","players":null},{"server_id":142,"name":"Uncletopia | S√£o Paulo | 1 | All Maps","name_short":"sao-1","host":"sao-1.br.uncletopia.com","port":27015,"enabled":true,"region":"sa","cc":"br","latitude":-23.533773,"longitude":-46.62529,"reserved":0,"last_update":"0001-01-01T00:00:00Z","name_a2s":"Uncletopia | S√£o Paulo | 1 | All Maps","protocol":17,"map":"koth_viaduct","folder":"tf","game":"Team Fortress","app_id":440,"player_count":19,"max_players":24,"Bots":0,"server_type":"Dedicated","server_os":"Linux","password":true,"vac":true,"version":"7723704","steam_id":85568392924469996,"keywords":["cp","nocrits","nodmgspread","uncletopia"],"game_id":440,"stv_port":27016,"stv_name":"Uncletopia | S√£o Paulo | 1 | All Maps | STV","players":[{"user_id":40,"name":"Ï¶àÌïò","steam_id":76561198143438576,"connected_time":4262000000000,"state":"active","ping":36},{"user_id":45,"name":"Pendrive is Insane","steam_id":76561199427354854,"connected_time":3521000000000,"state":"active","ping":39},{"user_id":46,"name":"polaco","steam_id":76561198002562184,"connected_time":3325000000000,"state":"active","ping":50},{"user_id":89,"name":"Cristovam","steam_id":76561198324416913,"connected_time":126000000000,"state":"active","ping":47},{"user_id":47,"name":"homeiswheretheheartdies","steam_id":76561198088376285,"connected_time":3315000000000,"state":"active","ping":52},{"user_id":74,"name":"ayumi","steam_id":76561197977365746,"connected_time":1619000000000,"state":"active","ping":43},{"user_id":48,"name":"The one who knocks","steam_id":76561198439711724,"connected_time":3289000000000,"state":"active","ping":71},{"user_id":49,"name":"NenF | Yatosemtato","steam_id":76561199066360306,"connected_time":3175000000000,"state":"active","ping":79},{"user_id":62,"name":"Victoresta21","steam_id":76561198042799537,"connected_time":2378000000000,"state":"active","ping":52},{"user_id":51,"name":"Derretimento Geral 2017","steam_id":76561198194300069,"connected_time":3011000000000,"state":"active","ping":34},{"user_id":81,"name":"Andriel","steam_id":76561198281652242,"connected_time":944000000000,"state":"active","ping":47},{"user_id":78,"name":"Ducknator","steam_id":76561198053365492,"connected_time":1050000000000,"state":"active","ping":106},{"user_id":59,"name":"Fabmilan","steam_id":76561198054487300,"connected_time":2400000000000,"state":"active","ping":50},{"user_id":60,"name":"Zoom!","steam_id":76561198289562649,"connected_time":2392000000000,"state":"active","ping":44},{"user_id":61,"name":"dnavarrotc","steam_id":76561198102380569,"connected_time":2383000000000,"state":"active","ping":62},{"user_id":64,"name":"big chillskis -cbt","steam_id":76561198091345625,"connected_time":2311000000000,"state":"active","ping":60},{"user_id":71,"name":"pomptrash","steam_id":76561199304776654,"connected_time":1936000000000,"state":"active","ping":81},{"user_id":69,"name":"O incrivel Mauro","steam_id":76561198970997510,"connected_time":2039000000000,"state":"active","ping":45},{"user_id":72,"name":"BlacKMesA","steam_id":76561198242354526,"connected_time":1666000000000,"state":"active","ping":73}]},{"server_id":143,"name":"Uncletopia | S√£o Paulo | 2 | All Maps","name_short":"sao-2","host":"sao-2.br.uncletopia.com","port":27015,"enabled":true,"region":"sa","cc":"br","latitude":-23.533773,"longitude":-46.62529,"reserved":0,"last_update":"0001-01-01T00:00:00Z","name_a2s":"Uncletopia | S√£o Paulo | 2 | All Maps","protocol":17,"map":"cp_dustbowl","folder":"tf","game":"Team Fortress","app_id":440,"player_count":1,"max_players":24,"Bots":0,"server_type":"Dedicated","server_os":"Linux","password":true,"vac":true,"version":"7723704","steam_id":85568392924485349,"keywords":["cp","nocrits","nodmgspread","uncletopia"],"game_id":440,"stv_port":27016,"stv_name":"Uncletopia | S√£o Paulo | 2 | All Maps | STV","players":[{"user_id":15,"name":"V√©io do Saco Bunito","steam_id":76561199017322667,"connected_time":42000000000,"state":"spawning","ping":49}]},{"server_id":7,"name":"Uncletopia | Seattle | 1 | All Maps","name_short":"sea-1","host":"sea-1.us.uncletopia.com","port":27015,"enabled":true,"region":"us-west","cc":"us","latitude":47.608013,"longitude":-122.33517,"reserved":0,"last_update":"0001-01-01T00:00:00Z","name_a2s":"Uncletopia | Seattle | 1 | All Maps","protocol":17,"map":"pl_pier","folder":"tf","game":"Team Fortress","app_id":440,"player_count":16,"max_players":24,"Bots":0,"server_type":"Dedicated","server_os":"Linux","password":true,"vac":true,"version":"7723704","steam_id":85568392924469997,"keywords":["nocrits","nodmgspread","payload","uncletopia"],"game_id":440,"stv_port":27016,"stv_name":"Uncletopia | Seattle | 1 | All Maps | STV","players":[{"user_id":32,"name":"charcoal","steam_id":76561198356860204,"connected_time":161000000000,"state":"active","ping":52},{"user_id":33,"name":"Marlee_Goat","steam_id":76561198828640523,"connected_time":153000000000,"state":"active","ping":89},{"user_id":13,"name":"Raniel Dicciardo","steam_id":76561198053859538,"connected_time":1409000000000,"state":"active","ping":67},{"user_id":34,"name":"crumblejon","steam_id":76561198111273302,"connected_time":113000000000,"state":"active","ping":92},{"user_id":15,"name":"General Fisticuffs","steam_id":76561198255721392,"connected_time":1321000000000,"state":"active","ping":108},{"user_id":35,"name":"‚ô°kitten‚ô°","steam_id":76561198286383854,"connected_time":91000000000,"state":"active","ping":91},{"user_id":17,"name":"Mr.Thirteen","steam_id":76561198047468836,"connected_time":1299000000000,"state":"active","ping":64},{"user_id":24,"name":"Mom","steam_id":76561198207936000,"connected_time":679000000000,"state":"active","ping":77},{"user_id":21,"name":"Little Timmy","steam_id":76561198437430213,"connected_time":1004000000000,"state":"active","ping":66},{"user_id":36,"name":"Aardappel","steam_id":76561198030894676,"connected_time":58000000000,"state":"active","ping":67},{"user_id":22,"name":"squash","steam_id":76561198150281353,"connected_time":996000000000,"state":"active","ping":59},{"user_id":37,"name":"goob","steam_id":76561198872316133,"connected_time":29000000000,"state":"active","ping":60},{"user_id":38,"name":"moonage72","steam_id":76561199187008629,"connected_time":4000000000,"state":"spawning","ping":178},{"user_id":28,"name":"ena - d","steam_id":76561198072329335,"connected_time":303000000000,"state":"active","ping":126},{"user_id":30,"name":"smushedtomato","steam_id":76561198383837457,"connected_time":262000000000,"state":"active","ping":85},{"user_id":31,"name":"Ashanti Clan","steam_id":76561198032651105,"connected_time":202000000000,"state":"active","ping":65}]},{"server_id":119,"name":"Uncletopia | Seattle | 2 | All Maps","name_short":"sea-2","host":"sea-1.us.uncletopia.com","port":27025,"enabled":true,"region":"us-west","cc":"us","latitude":47.608013,"longitude":-122.33517,"reserved":0,"last_update":"0001-01-01T00:00:00Z","name_a2s":"Uncletopia | Seattle | 2 | All Maps","protocol":17,"map":"pl_barnblitz","folder":"tf","game":"Team Fortress","app_id":440,"player_count":24,"max_players":24,"Bots":0,"server_type":"Dedicated","server_os":"Linux","password":true,"vac":true,"version":"7723704","steam_id":85568392924469998,"keywords":["nocrits","nodmgspread","payload","uncletopia"],"game_id":440,"stv_port":27026,"stv_name":"Uncletopia | Seattle | 2 | All Maps | STV","players":[{"user_id":122,"name":"Dargon","steam_id":76561198059383981,"connected_time":287000000000,"state":"active","ping":86},{"user_id":111,"name":"„Çª„Ç§„Éê„Éº","steam_id":76561198169223408,"connected_time":620000000000,"state":"active","ping":60},{"user_id":124,"name":"The Best Healer","steam_id":76561198079452621,"connected_time":203000000000,"state":"active","ping":55},{"user_id":22,"name":"trackpad gaming | f2p","steam_id":76561198840414371,"connected_time":3098000000000,"state":"active","ping":50},{"user_id":23,"name":"G. Howard Dee","steam_id":76561198058382812,"connected_time":2983000000000,"state":"active","ping":83},{"user_id":112,"name":"SesataPomang","steam_id":76561198145133059,"connected_time":611000000000,"state":"active","ping":96},{"user_id":25,"name":"Satori Komeiji","steam_id":76561198158211423,"connected_time":2761000000000,"state":"active","ping":66},{"user_id":119,"name":"Stapler","steam_id":76561198099295077,"connected_time":382000000000,"state":"active","ping":66},{"user_id":114,"name":"The Horny","steam_id":76561198863639459,"connected_time":591000000000,"state":"active","ping":71},{"user_id":116,"name":"dysesthesia","steam_id":76561198027159018,"connected_time":459000000000,"state":"active","ping":128},{"user_id":123,"name":"triplewatercup","steam_id":76561199229583030,"connected_time":231000000000,"state":"active","ping":123},{"user_id":76,"name":"frogwatch","steam_id":76561198420683272,"connected_time":1321000000000,"state":"active","ping":49},{"user_id":34,"name":"Sticky","steam_id":76561198031581547,"connected_time":2416000000000,"state":"active","ping":75},{"user_id":45,"name":"OH JIMMY I'M HOME #SaveTf2","steam_id":76561198396658806,"connected_time":2157000000000,"state":"active","ping":88},{"user_id":118,"name":"About That Gift I Owed Ya","steam_id":76561198071506287,"connected_time":407000000000,"state":"active","ping":85},{"user_id":120,"name":"bongcloud","steam_id":76561198116337540,"connected_time":381000000000,"state":"active","ping":94},{"user_id":121,"name":"That One Scout Main #SaveTF2","steam_id":76561198956603460,"connected_time":377000000000,"state":"active","ping":54},{"user_id":38,"name":"jodie.blend","steam_id":76561198140701807,"connected_time":2265000000000,"state":"active","ping":98},{"user_id":39,"name":"xXcLaImEd__ReApErXx [F2P]","steam_id":76561198067232540,"connected_time":2260000000000,"state":"active","ping":121},{"user_id":64,"name":"JacenHan","steam_id":76561198077796718,"connected_time":1687000000000,"state":"active","ping":62},{"user_id":58,"name":"ADHDking","steam_id":76561198116099017,"connected_time":1782000000000,"state":"active","ping":118},{"user_id":43,"name":"Ham Fatty","steam_id":76561198071454198,"connected_time":2232000000000,"state":"active","ping":108},{"user_id":62,"name":"Oktayey","steam_id":76561198143213426,"connected_time":1707000000000,"state":"active","ping":64},{"user_id":108,"name":"scuttles","steam_id":76561199250039100,"connected_time":648000000000,"state":"active","ping":115}]},{"server_id":17,"name":"Uncletopia | San Francisco | 1 | All Maps","name_short":"sfo-1","host":"sfo-1.us.uncletopia.com","port":27015,"enabled":true,"region":"us-west","cc":"us","latitude":37.77397,"longitude":-122.4313,"reserved":0,"last_update":"0001-01-01T00:00:00Z","name_a2s":"Uncletopia | San Francisco | 1 | All Maps","protocol":17,"map":"koth_viaduct","folder":"tf","game":"Team Fortress","app_id":440,"player_count":0,"max_players":24,"Bots":0,"server_type":"Dedicated","server_os":"Linux","password":true,"vac":true,"version":"7723704","steam_id":85568392924469999,"keywords":["cp","nocrits","nodmgspread","uncletopia"],"game_id":440,"stv_port":27016,"stv_name":"Uncletopia | San Francisco | 1 | All Maps | STV","players":null},{"server_id":18,"name":"Uncletopia | San Francisco | 2 | All Maps","name_short":"sfo-2","host":"sfo-1.us.uncletopia.com","port":27025,"enabled":true,"region":"us-west","cc":"us","latitude":37.77397,"longitude":-122.4313,"reserved":0,"last_update":"0001-01-01T00:00:00Z","name_a2s":"Uncletopia | San Francisco | 2 | All Maps","protocol":17,"map":"koth_viaduct","folder":"tf","game":"Team Fortress","app_id":440,"player_count":0,"max_players":24,"Bots":0,"server_type":"Dedicated","server_os":"Linux","password":true,"vac":true,"version":"7723704","steam_id":85568392924470000,"keywords":["cp","nocrits","nodmgspread","uncletopia"],"game_id":440,"stv_port":27026,"stv_name":"Uncletopia | San Francisco | 2 | All Maps | STV","players":null},{"server_id":19,"name":"Uncletopia | San Francisco | 3 | No Payload","name_short":"sfo-3","host":"sfo-1.us.uncletopia.com","port":27035,"enabled":true,"region":"us-west","cc":"us","latitude":37.77397,"longitude":-122.4313,"reserved":0,"last_update":"0001-01-01T00:00:00Z","name_a2s":"Uncletopia | San Francisco | 3 | No Payload","protocol":17,"map":"pl_snowycoast","folder":"tf","game":"Team Fortress","app_id":440,"player_count":0,"max_players":24,"Bots":0,"server_type":"Dedicated","server_os":"Linux","password":true,"vac":true,"version":"7723704","steam_id":85568392924742824,"keywords":["nocrits","nodmgspread","payload","uncletopia"],"game_id":440,"stv_port":27036,"stv_name":"Uncletopia | San Francisco | 3 | No Payload | STV","players":null},{"server_id":20,"name":"Uncletopia | San Francisco | 4 | Community","name_short":"sfo-4","host":"sfo-1.us.uncletopia.com","port":27045,"enabled":true,"region":"us-west","cc":"us","latitude":37.77397,"longitude":-122.4313,"reserved":0,"last_update":"0001-01-01T00:00:00Z","name_a2s":"Uncletopia | San Francisco | 4 | Community","protocol":17,"map":"workshop/pl_barnblitz_pro7.ugc582280235","folder":"tf","game":"Team Fortress","app_id":440,"player_count":0,"max_players":24,"Bots":0,"server_type":"Dedicated","server_os":"Linux","password":true,"vac":true,"version":"7723704","steam_id":85568392924742826,"keywords":["nocrits","nodmgspread","payload","uncletopia"],"game_id":440,"stv_port":27046,"stv_name":"Uncletopia | San Francisco | 4 | Community | STV","players":null},{"server_id":141,"name":"Uncletopia | Sydney | 1 | All Maps","name_short":"syd-1","host":"syd-1.au.uncletopia.com","port":27015,"enabled":true,"region":"au","cc":"au","latitude":-33.865143,"longitude":151.2099,"reserved":0,"last_update":"0001-01-01T00:00:00Z","name_a2s":"Uncletopia | Sydney | 1 | All Maps","protocol":17,"map":"pl_frontier_final","folder":"tf","game":"Team Fortress","app_id":440,"player_count":0,"max_players":24,"Bots":0,"server_type":"Dedicated","server_os":"Linux","password":true,"vac":true,"version":"7723704","steam_id":85568392924470001,"keywords":["nocrits","nodmgspread","payload","uncletopia"],"game_id":440,"stv_port":27016,"stv_name":"Uncletopia | Sydney | 1 | All Maps | STV","players":null},{"server_id":123,"name":"Uncletopia | Sydney | 2 | All Maps","name_short":"syd-2","host":"syd-1.au.uncletopia.com","port":27025,"enabled":true,"region":"au","cc":"au","latitude":-33.865143,"longitude":151.2099,"reserved":0,"last_update":"0001-01-01T00:00:00Z","name_a2s":"Uncletopia | Sydney | 2 | All Maps","protocol":17,"map":"cp_sunshine","folder":"tf","game":"Team Fortress","app_id":440,"player_count":0,"max_players":24,"Bots":0,"server_type":"Dedicated","server_os":"Linux","password":true,"vac":true,"version":"7723704","steam_id":85568392924470002,"keywords":["cp","nocrits","nodmgspread","uncletopia"],"game_id":440,"stv_port":27026,"stv_name":"Uncletopia | Sydney | 2 | All Maps | STV","players":null},{"server_id":395,"name":"Uncletopia | Sydney | 3 | All Maps","name_short":"syd-3","host":"syd-1.au.uncletopia.com","port":27035,"enabled":true,"region":"au","cc":"au","latitude":-33.865143,"longitude":151.2099,"reserved":0,"last_update":"0001-01-01T00:00:00Z","name_a2s":"Uncletopia | Sydney | 3 | All Maps","protocol":17,"map":"cp_altitude","folder":"tf","game":"Team Fortress","app_id":440,"player_count":0,"max_players":24,"Bots":0,"server_type":"Dedicated","server_os":"Linux","password":true,"vac":true,"version":"7723704","steam_id":85568392925194467,"keywords":["cp","nocrits","nodmgspread","uncletopia"],"game_id":440,"stv_port":27036,"stv_name":"Uncletopia | Sydney | 3 | All Maps | STV","players":null},{"server_id":396,"name":"Uncletopia | Sydney | 4 | All Maps","name_short":"syd-4","host":"syd-1.au.uncletopia.com","port":27045,"enabled":true,"region":"au","cc":"au","latitude":-33.865143,"longitude":151.2099,"reserved":0,"last_update":"0001-01-01T00:00:00Z","name_a2s":"Uncletopia | Sydney | 4 | All Maps","protocol":17,"map":"pl_upward","folder":"tf","game":"Team Fortress","app_id":440,"player_count":0,"max_players":24,"Bots":0,"server_type":"Dedicated","server_os":"Linux","password":true,"vac":true,"version":"7723704","steam_id":85568392925397958,"keywords":["nocrits","nodmgspread","payload","uncletopia"],"game_id":440,"stv_port":27046,"stv_name":"Uncletopia | Sydney | 4 | All Maps | STV","players":null},{"server_id":58,"name":"Uncletopia | Sydney | 5 | No Payload","name_short":"syd-5","host":"syd-1.au.uncletopia.com","port":27055,"enabled":true,"region":"au","cc":"au","latitude":-33.865143,"longitude":151.2099,"reserved":0,"last_update":"0001-01-01T00:00:00Z","name_a2s":"Uncletopia | Sydney | 5 | No Payload","protocol":17,"map":"koth_cascade","folder":"tf","game":"Team Fortress","app_id":440,"player_count":0,"max_players":24,"Bots":0,"server_type":"Dedicated","server_os":"Linux","password":true,"vac":true,"version":"7723704","steam_id":85568392925397959,"keywords":["cp","nocrits","nodmgspread","uncletopia"],"game_id":440,"stv_port":27056,"stv_name":"Uncletopia | Sydney | 5 | No Payload | STV","players":null},{"server_id":59,"name":"Uncletopia | Sydney | 6 | Community","name_short":"syd-6","host":"syd-1.au.uncletopia.com","port":27065,"enabled":true,"region":"au","cc":"au","latitude":-33.865143,"longitude":151.2099,"reserved":0,"last_update":"0001-01-01T00:00:00Z","name_a2s":"Uncletopia | Sydney | 6 | Community","protocol":17,"map":"koth_lakeside_final","folder":"tf","game":"Team Fortress","app_id":440,"player_count":0,"max_players":24,"Bots":0,"server_type":"Dedicated","server_os":"Linux","password":true,"vac":true,"version":"7723704","steam_id":85568392925397960,"keywords":["cp","nocrits","nodmgspread","uncletopia"],"game_id":440,"stv_port":27066,"stv_name":"Uncletopia | Sydney | 6 | Community | STV","players":null},{"server_id":49,"name":"Uncletopia | Warsaw | 1 | All Maps","name_short":"waw-1","host":"waw-1.pl.uncletopia.com","port":27015,"enabled":true,"region":"eu","cc":"pl","latitude":52.2297,"longitude":21.017532,"reserved":0,"last_update":"0001-01-01T00:00:00Z","name_a2s":"Uncletopia | Warsaw | 1 | All Maps","protocol":17,"map":"cp_dustbowl","folder":"tf","game":"Team Fortress","app_id":440,"player_count":0,"max_players":24,"Bots":0,"server_type":"Dedicated","server_os":"Linux","password":true,"vac":true,"version":"7723704","steam_id":85568392925397850,"keywords":["cp","nocrits","nodmgspread","uncletopia"],"game_id":440,"stv_port":27016,"stv_name":"Uncletopia | Warsaw | 1 | All Maps | STV","players":null},{"server_id":50,"name":"Uncletopia | Warsaw | 2 | All Maps","name_short":"waw-2","host":"waw-1.pl.uncletopia.com","port":27025,"enabled":true,"region":"eu","cc":"pl","latitude":52.2297,"longitude":21.017532,"reserved":0,"last_update":"0001-01-01T00:00:00Z","name_a2s":"Uncletopia | Warsaw | 2 | All Maps","protocol":17,"map":"pl_snowycoast","folder":"tf","game":"Team Fortress","app_id":440,"player_count":0,"max_players":24,"Bots":0,"server_type":"Dedicated","server_os":"Linux","password":true,"vac":true,"version":"7723704","steam_id":85568392925397851,"keywords":["nocrits","nodmgspread","payload","uncletopia"],"game_id":440,"stv_port":27026,"stv_name":"Uncletopia | Warsaw | 2 | All Maps | STV","players":null},{"server_id":51,"name":"Uncletopia | Warsaw | 3 | All Maps","name_short":"waw-3","host":"waw-1.pl.uncletopia.com","port":27035,"enabled":true,"region":"eu","cc":"pl","latitude":52.2297,"longitude":21.017532,"reserved":0,"last_update":"0001-01-01T00:00:00Z","name_a2s":"Uncletopia | Warsaw | 3 | All Maps","protocol":17,"map":"koth_lakeside_final","folder":"tf","game":"Team Fortress","app_id":440,"player_count":0,"max_players":24,"Bots":0,"server_type":"Dedicated","server_os":"Linux","password":true,"vac":true,"version":"7723704","steam_id":85568392925397852,"keywords":["cp","nocrits","nodmgspread","uncletopia"],"game_id":440,"stv_port":27036,"stv_name":"Uncletopia | Warsaw | 3 | All Maps | STV","players":null},{"server_id":52,"name":"Uncletopia | Warsaw | 4 | All Maps","name_short":"waw-4","host":"waw-1.pl.uncletopia.com","port":27045,"enabled":true,"region":"eu","cc":"pl","latitude":52.2297,"longitude":21.017532,"reserved":0,"last_update":"0001-01-01T00:00:00Z","name_a2s":"Uncletopia | Warsaw | 4 | All Maps","protocol":17,"map":"cp_snakewater_final1","folder":"tf","game":"Team Fortress","app_id":440,"player_count":0,"max_players":24,"Bots":0,"server_type":"Dedicated","server_os":"Linux","password":true,"vac":true,"version":"7723704","steam_id":85568392925397853,"keywords":["cp","nocrits","nodmgspread","uncletopia"],"game_id":440,"stv_port":27046,"stv_name":"Uncletopia | Warsaw | 4 | All Maps | STV","players":null},{"server_id":53,"name":"Uncletopia | Warsaw | 5 | No Payload","name_short":"waw-5","host":"waw-1.pl.uncletopia.com","port":27055,"enabled":true,"region":"eu","cc":"pl","latitude":52.2297,"longitude":21.017532,"reserved":0,"last_update":"0001-01-01T00:00:00Z","name_a2s":"Uncletopia | Warsaw | 5 | No Payload","protocol":17,"map":"koth_highpass","folder":"tf","game":"Team Fortress","app_id":440,"player_count":0,"max_players":24,"Bots":0,"server_type":"Dedicated","server_os":"Linux","password":true,"vac":true,"version":"7723704","steam_id":85568392925397854,"keywords":["cp","nocrits","nodmgspread","uncletopia"],"game_id":440,"stv_port":27056,"stv_name":"Uncletopia | Warsaw | 5 | No Payload | STV","players":null},{"server_id":54,"name":"Uncletopia | Warsaw | 6 | Community","name_short":"waw-6","host":"waw-1.pl.uncletopia.com","port":27065,"enabled":true,"region":"eu","cc":"pl","latitude":52.2297,"longitude":21.017532,"reserved":0,"last_update":"0001-01-01T00:00:00Z","name_a2s":"Uncletopia | Warsaw | 6 | Community","protocol":17,"map":"workshop/koth_bagel_rc5.ugc2514036946","folder":"tf","game":"Team Fortress","app_id":440,"player_count":0,"max_players":24,"Bots":0,"server_type":"Dedicated","server_os":"Linux","password":true,"vac":true,"version":"7723704","steam_id":85568392925397856,"keywords":["cp","nocrits","nodmgspread","uncletopia"],"game_id":440,"stv_port":27066,"stv_name":"Uncletopia | Warsaw | 6 | Community | STV","players":null}]}