{"status":true,"message":"","result":[{"server_id":9,"name":"Uncletopia | Atlanta | 1 | All Maps","name_short":"atl-1","host":"atl-1.us.uncletopia.com","port":27015,"enabled":true,"region":"us-east","cc":"us","latitude":33.753746,"longitude":-84.38633,"reserved":0,"last_update":"0001-01-01T00:00:00Z","name_a2s":"Uncletopia | Atlanta | 1 | All Maps","protocol":17,"map":"pl_upward","folder":"tf","game":"Team Fortress","app_id":440,"player_count":19,"max_players":24,"Bots":0,"server_type":"Dedicated","server_os":"Linux","password":true,"vac":true,"version":"7880732","steam_id":85568392924469982,"keywords":["nocrits","nodmgspread","payload","uncletopia"],"game_id":440,"stv_port":27016,"stv_name":"Uncletopia | Atlanta | 1 | All Maps | STV","players":[{"user_id":175,"name":"Womp","steam_id":76561198245103000,"connected_time":694000000000,"state":"active","ping":65},{"user_id":153,"name":"Succubus_Lilith (She/They)","steam_id":76561198240578890,"connected_time":2254000000000,"state":"active","ping":66},{"user_id":161,"name":"lil hog","steam_id":76561199230929836,"connected_time":1608000000000,"state":"active","ping":85},{"user_id":159,"name":"NBA Youngboy","steam_id":76561199118797200,"connected_time":1718000000000,"state":"active","ping":63},{"user_id":176,"name":"Vladimir Puddin","steam_id":76561198139674520,"connected_time":156000000000,"state":"active","ping":72},{"user_id":177,"name":"boneyard","steam_id":76561199080454140,"connected_time":69000000000,"state":"active","ping":66},{"user_id":172,"name":"Bones","steam_id":76561198069735882,"connected_time":905000000000,"state":"active","ping":49},{"user_id":115,"name":"Lancer Fan Club","steam_id":76561198355495948,"connected_time":4722000000000,"state":"active","ping":51},{"user_id":178,"name":"1 awper :)","steam_id":76561198133234284,"connected_time":55000000000,"state":"active","ping":75},{"user_id":156,"name":"Andrestor","steam_id":76561198005934930,"connected_time":1856000000000,"state":"active","ping":113},{"user_id":179,"name":"Todd Howard Fancam","steam_id":76561198043602407,"connected_time":2000000000,"state":"spawning","ping":69},{"user_id":112,"name":"chexo4","steam_id":76561198150532531,"connected_time":4818000000000,"state":"active","ping":48},{"user_id":163,"name":"braindead","steam_id":76561198263631055,"connected_time":1464000000000,"state":"active","ping":45},{"user_id":171,"name":"G-G-G-GAMERSHOT","steam_id":76561198798980951,"connected_time":1048000000000,"state":"active","ping":59},{"user_id":169,"name":"Lincs","steam_id":76561198049851872,"connected_time":1237000000000,"state":"active","ping":75},{"user_id":160,"name":"BIG HOG","steam_id":76561198079923652,"connected_time":1676000000000,"state":"active","ping":74},{"user_id":174,"name":"Flint","steam_id":76561198066547582,"connected_time":733000000000,"state":"active","ping":111},{"user_id":128,"name":"Monkey Mode","steam_id":76561197961267543,"connected_time":4278000000000,"state":"active","ping":59},{"user_id":148,"name":"Ġ1 ♦ Synth","steam_id":76561198058660228,"connected_time":2329000000000,"state":"active","ping":39}]},{"server_id":104,"name":"Uncletopia | Atlanta | 2 | All Maps","name_short":"atl-2","host":"atl-1.us.uncletopia.com","port":27025,"enabled":true,"region":"us-east","cc":"us","latitude":33.753746,"longitude":-84.38633,"reserved":0,"last_update":"0001-01-01T00:00:00Z","name_a2s":"Uncletopia | Atlanta | 2 | All Maps","protocol":17,"map":"pl_swiftwater_final1","folder":"tf","game":"Team Fortress","app_id":440,"player_count":12,"max_players":24,"Bots":0,"server_type":"Dedicated","server_os":"Linux","password":true,"vac":true,"version":"7880732","steam_id":85568392924469983,"keywords":["nocrits","nodmgspread","payload","uncletopia"],"game_id":440,"stv_port":27026,"stv_name":"Uncletopia | Atlanta | 2 | All Maps | STV","players":[{"user_id":158,"name":"The Cool Man","steam_id":76561198096420556,"connected_time":939000000000,"state":"active","ping":91},{"user_id":151,"name":"蛋捲:D","steam_id":76561198353606160,"connected_time":1636000000000,"state":"active","ping":74},{"user_id":159,"name":"Justis","steam_id":76561197963835016,"connected_time":319000000000,"state":"active","ping":86},{"user_id":160,"name":"The Feds","steam_id":76561199134834554,"connected_time":134000000000,"state":"active","ping":86},{"user_id":138,"name":"SuperFresh","steam_id":76561198200723198,"connected_time":2635000000000,"state":"active","ping":52},{"user_id":83,"name":"Fresh0c0","steam_id":76561198271933283,"connected_time":7390000000000,"state":"active","ping":79},{"user_id":148,"name":"Impresio","steam_id":76561198129127347,"connected_time":1904000000000,"state":"active","ping":83},{"user_id":141,"name":"Animal Slices","steam_id":76561198137545511,"connected_time":2301000000000,"state":"active","ping":71},{"user_id":120,"name":"ArcWorld Tour Nerf Bat","steam_id":76561198257691881,"connected_time":3863000000000,"state":"active","ping":90},{"user_id":156,"name":"erotic smishes","steam_id":76561199046490785,"connected_time":1313000000000,"state":"active","ping":78},{"user_id":157,"name":"SuperViolence","steam_id":76561198973670368,"connected_time":1088000000000,"state":"active","ping":112},{"user_id":135,"name":"Cartoonultra","steam_id":76561198907857771,"connected_time":2771000000000,"state":"active","ping":132}]},{"server_id":400,"name":"Uncletopia | Atlanta | 3 | Community","name_short":"atl-3","host":"atl-1.us.uncletopia.com","port":27035,"enabled":true,"region":"us-east","cc":"us","latitude":33.753746,"longitude":-84.38633,"reserved":0,"last_update":"0001-01-01T00:00:00Z","name_a2s":"Uncletopia | Atlanta | 3 | Community","protocol":17,"map":"workshop/koth_bagel_rc6.ugc2514036946","folder":"tf","game":"Team Fortress","app_id":440,"player_count":4,"max_players":24,"Bots":0,"server_type":"Dedicated","server_os":"Linux","password":true,"vac":true,"version":"7880732","steam_id":85568392924515187,"keywords":["cp","nocrits","nodmgspread","uncletopia"],"game_id":440,"stv_port":27036,"stv_name":"Uncletopia | Atlanta | 3 | Community | STV","players":[{"user_id":161,"name":"unmined nitra","steam_id":76561198066566813,"connected_time":2170000000000,"state":"active","ping":127},{"user_id":160,"name":"GAm","steam_id":76561197991427335,"connected_time":2219000000000,"state":"active","ping":45},{"user_id":156,"name":"gamer dilbert","steam_id":76561197984752473,"connected_time":2385000000000,"state":"active","ping":45},{"user_id":174,"name":"Bow_","steam_id":76561198109608134,"connected_time":1843000000000,"state":"active","ping":86}]},{"server_id":401,"name":"Uncletopia | Atlanta | 4 | No Payload","name_short":"atl-4","host":"atl-1.us.uncletopia.com","port":27045,"enabled":true,"region":"us-east","cc":"us","latitude":33.753746,"longitude":-84.38633,"reserved":0,"last_update":"0001-01-01T00:00:00Z","name_a2s":"","protocol":0,"map":"","folder":"","game":"","app_id":0,"player_count":0,"max_players":0,"Bots":0,"server_type":"","server_os":"","password":false,"vac":false,"version":"","steam_id":0,"keywords":null,"game_id":0,"stv_port":0,"stv_name":"","players":null},{"server_id":2,"name":"Uncletopia | Chicago | 1 | All Maps","name_short":"chi-1","host":"chi-1.us.uncletopia.com","port":27015,"enabled":true,"region":"us-central","cc":"us","latitude":41.881832,"longitude":-87.62318,"reserved":0,"last_update":"0001-01-01T00:00:00Z","name_a2s":"Uncletopia | Chicago | 1 | All Maps","protocol":17,"map":"pl_goldrush","folder":"tf","game":"Team Fortress","app_id":440,"player_count":23,"max_players":24,"Bots":0,"server_type":"Dedicated","server_os":"Linux","password":true,"vac":true,"version":"7880732","steam_id":85568392924469984,"keywords":["nocrits","nodmgspread","payload","uncletopia"],"game_id":440,"stv_port":27016,"stv_name":"Uncletopia | Chicago | 1 | All Maps | STV","players":[{"user_id":138,"name":"TallBit","steam_id":76561199059748976,"connected_time":2683000000000,"state":"active","ping":54},{"user_id":136,"name":"ZofoJackson","steam_id":76561197998366861,"connected_time":2694000000000,"state":"active","ping":59},{"user_id":130,"name":"Gamba","steam_id":76561198069264650,"connected_time":3324000000000,"state":"active","ping":58},{"user_id":90,"name":"επιλέγω","steam_id":76561198076639682,"connected_time":5984000000000,"state":"active","ping":71},{"user_id":118,"name":"Rec","steam_id":76561198022813906,"connected_time":3979000000000,"state":"active","ping":50},{"user_id":156,"name":"Fatcat.win(false) ;","steam_id":76561198069007806,"connected_time":138000000000,"state":"active","ping":62},{"user_id":144,"name":"Owen","steam_id":76561198025446908,"connected_time":1912000000000,"state":"active","ping":65},{"user_id":126,"name":"Adam (Cursed Confetti Creature)","steam_id":76561198317690197,"connected_time":3371000000000,"state":"active","ping":48},{"user_id":119,"name":"Penny #girl","steam_id":76561198144281771,"connected_time":3728000000000,"state":"active","ping":69},{"user_id":124,"name":"jrdoran","steam_id":76561197984753094,"connected_time":3455000000000,"state":"active","ping":59},{"user_id":127,"name":"AYAYA!!!","steam_id":76561198992102180,"connected_time":3362000000000,"state":"active","ping":48},{"user_id":133,"name":"Company vampire","steam_id":76561198083175190,"connected_time":3217000000000,"state":"active","ping":68},{"user_id":157,"name":"wheresgeorge","steam_id":76561198986281248,"connected_time":22000000000,"state":"active","ping":88},{"user_id":146,"name":"Kero","steam_id":76561198343231436,"connected_time":1526000000000,"state":"active","ping":62},{"user_id":123,"name":"büddeh","steam_id":76561198070735936,"connected_time":3491000000000,"state":"active","ping":60},{"user_id":131,"name":"Goober","steam_id":76561198988863807,"connected_time":3320000000000,"state":"active","ping":79},{"user_id":125,"name":"Mindset","steam_id":76561198107074449,"connected_time":3455000000000,"state":"active","ping":48},{"user_id":145,"name":"Also Known As Assteeth","steam_id":76561198049837377,"connected_time":1763000000000,"state":"active","ping":51},{"user_id":155,"name":"Cedric","steam_id":76561198072090580,"connected_time":436000000000,"state":"active","ping":119},{"user_id":106,"name":"Nigel","steam_id":76561198115574712,"connected_time":5102000000000,"state":"active","ping":57},{"user_id":140,"name":"Tito","steam_id":76561198041702529,"connected_time":2416000000000,"state":"active","ping":90},{"user_id":65,"name":"Lia_Rein","steam_id":76561198151569597,"connected_time":7652000000000,"state":"active","ping":145},{"user_id":69,"name":"Argo","steam_id":76561198353725622,"connected_time":7447000000000,"state":"active","ping":87}]},{"server_id":106,"name":"Uncletopia | Chicago | 2 | All Maps","name_short":"chi-2","host":"chi-1.us.uncletopia.com","port":27025,"enabled":true,"region":"us-central","cc":"us","latitude":41.881832,"longitude":-87.62318,"reserved":0,"last_update":"0001-01-01T00:00:00Z","name_a2s":"Uncletopia | Chicago | 2 | All Maps","protocol":17,"map":"pl_borneo","folder":"tf","game":"Team Fortress","app_id":440,"player_count":11,"max_players":24,"Bots":0,"server_type":"Dedicated","server_os":"Linux","password":true,"vac":true,"version":"7880732","steam_id":85568392924469985,"keywords":["nocrits","nodmgspread","payload","uncletopia"],"game_id":440,"stv_port":27026,"stv_name":"Uncletopia | Chicago | 2 | All Maps | STV","players":[{"user_id":140,"name":"GardenOfStone","steam_id":76561199069870534,"connected_time":2839000000000,"state":"active","ping":76},{"user_id":161,"name":"nhbiker","steam_id":76561198081277675,"connected_time":685000000000,"state":"active","ping":48},{"user_id":162,"name":"gendermutt","steam_id":76561198152857317,"connected_time":629000000000,"state":"active","ping":53},{"user_id":155,"name":"Zoot","steam_id":76561198121944243,"connected_time":1250000000000,"state":"active","ping":69},{"user_id":152,"name":"vv","steam_id":76561198134813102,"connected_time":1474000000000,"state":"active","ping":59},{"user_id":163,"name":"Stormz64(But weezer)","steam_id":76561198239036482,"connected_time":183000000000,"state":"active","ping":41},{"user_id":157,"name":"Sage","steam_id":76561198143101697,"connected_time":1049000000000,"state":"active","ping":99},{"user_id":160,"name":"ShadowDragon0125","steam_id":76561198343849022,"connected_time":777000000000,"state":"active","ping":81},{"user_id":142,"name":"Sableye","steam_id":76561198061247147,"connected_time":2790000000000,"state":"active","ping":61},{"user_id":67,"name":"CherriKat (she/her)","steam_id":76561198821297512,"connected_time":8178000000000,"state":"active","ping":92},{"user_id":145,"name":"\u003cTFF\u003e Gurn","steam_id":76561198011393367,"connected_time":2745000000000,"state":"active","ping":90}]},{"server_id":402,"name":"Uncletopia | Chicago | 3 | All Maps","name_short":"chi-3","host":"chi-1.us.uncletopia.com","port":27035,"enabled":true,"region":"us-central","cc":"us","latitude":41.881832,"longitude":-87.62318,"reserved":0,"last_update":"0001-01-01T00:00:00Z","name_a2s":"Uncletopia | Chicago | 3 | All Maps","protocol":17,"map":"pl_borneo","folder":"tf","game":"Team Fortress","app_id":440,"player_count":2,"max_players":24,"Bots":0,"server_type":"Dedicated","server_os":"Linux","password":true,"vac":true,"version":"7880732","steam_id":85568392924515191,"keywords":["nocrits","nodmgspread","payload","uncletopia"],"game_id":440,"stv_port":27036,"stv_name":"Uncletopia | Chicago | 3 | All Maps | STV","players":[{"user_id":136,"name":"Frigiduck","steam_id":76561198129883125,"connected_time":3020000000000,"state":"active","ping":57},{"user_id":139,"name":"Lavender","steam_id":76561198142770666,"connected_time":2951000000000,"state":"active","ping":63}]},{"server_id":403,"name":"Uncletopia | Chicago | 4 | All Maps","name_short":"chi-4","host":"chi-1.us.uncletopia.com","port":27045,"enabled":true,"region":"us-central","cc":"us","latitude":41.881832,"longitude":-87.62318,"reserved":0,"last_update":"0001-01-01T00:00:00Z","name_a2s":"Uncletopia | Chicago | 4 | All Maps","protocol":17,"map":"cp_dustbowl","folder":"tf","game":"Team Fortress","app_id":440,"player_count":10,"max_players":24,"Bots":0,"server_type":"Dedicated","server_os":"Linux","password":true,"vac":true,"version":"7880732","steam_id":85568392924515193,"keywords":["cp","nocrits","nodmgspread","uncletopia"],"game_id":440,"stv_port":27046,"stv_name":"Uncletopia | Chicago | 4 | All Maps | STV","players":[{"user_id":150,"name":"zambi","steam_id":76561198123985208,"connected_time":345000000000,"state":"active","ping":67},{"user_id":131,"name":"Yosh","steam_id":76561198027078899,"connected_time":1894000000000,"state":"active","ping":75},{"user_id":151,"name":"RiverEgg","steam_id":76561198888913405,"connected_time":334000000000,"state":"active","ping":48},{"user_id":153,"name":"-Danger-","steam_id":76561198025405728,"connected_time":157000000000,"state":"active","ping":69},{"user_id":136,"name":"FizzleWizard","steam_id":76561198045990868,"connected_time":1823000000000,"state":"active","ping":63},{"user_id":134,"name":"SirKnight5067","steam_id":76561198377306047,"connected_time":1850000000000,"state":"active","ping":55},{"user_id":101,"name":"Rx Auntie","steam_id":76561198051618393,"connected_time":3351000000000,"state":"active","ping":56},{"user_id":135,"name":"SLEEPY-Class NHP","steam_id":76561198064583865,"connected_time":1849000000000,"state":"active","ping":55},{"user_id":111,"name":"Clean Lines","steam_id":76561197960691518,"connected_time":2573000000000,"state":"active","ping":53},{"user_id":128,"name":"BLACK MAN FROM JOJO","steam_id":76561198272948471,"connected_time":1982000000000,"state":"active","ping":45}]},{"server_id":36,"name":"Uncletopia | Chicago | 5 | All Maps","name_short":"chi-5","host":"chi-2.us.uncletopia.com","port":27015,"enabled":true,"region":"us-central","cc":"us","latitude":41.881832,"longitude":-87.62318,"reserved":0,"last_update":"0001-01-01T00:00:00Z","name_a2s":"Uncletopia | Chicago | 5 | All Maps","protocol":17,"map":"koth_lakeside_final","folder":"tf","game":"Team Fortress","app_id":440,"player_count":0,"max_players":24,"Bots":0,"server_type":"Dedicated","server_os":"Linux","password":true,"vac":true,"version":"7880732","steam_id":85568392924866362,"keywords":["cp","nocrits","nodmgspread","uncletopia"],"game_id":440,"stv_port":27016,"stv_name":"Uncletopia | Chicago | 5 | All Maps | STV","players":null},{"server_id":37,"name":"Uncletopia | Chicago | 6 | All Maps","name_short":"chi-6","host":"chi-2.us.uncletopia.com","port":27025,"enabled":true,"region":"us-central","cc":"us","latitude":41.881832,"longitude":-87.62318,"reserved":0,"last_update":"0001-01-01T00:00:00Z","name_a2s":"Uncletopia | Chicago | 6 | All Maps","protocol":17,"map":"koth_cascade","folder":"tf","game":"Team Fortress","app_id":440,"player_count":0,"max_players":24,"Bots":0,"server_type":"Dedicated","server_os":"Linux","password":true,"vac":true,"version":"7880732","steam_id":85568392924866363,"keywords":["cp","nocrits","nodmgspread","uncletopia"],"game_id":440,"stv_port":27026,"stv_name":"Uncletopia | Chicago | 6 | All Maps | STV","players":null},{"server_id":38,"name":"Uncletopia | Chicago | 7 | Stopwatch Beta","name_short":"chi-7","host":"chi-2.us.uncletopia.com","port":27035,"enabled":true,"region":"us-central","cc":"us","latitude":41.881832,"longitude":-87.62318,"reserved":0,"last_update":"0001-01-01T00:00:00Z","name_a2s":"Uncletopia | Chicago | 7 | Stopwatch Beta","protocol":17,"map":"cp_mountainlab","folder":"tf","game":"Team Fortress","app_id":440,"player_count":0,"max_players":24,"Bots":0,"server_type":"Dedicated","server_os":"Linux","password":true,"vac":true,"version":"7880732","steam_id":85568392924866364,"keywords":["cp","nocrits","nodmgspread","uncletopia"],"game_id":440,"stv_port":27036,"stv_name":"Uncletopia | Chicago | 7 | Stopwatch Beta | STV","players":null},{"server_id":39,"name":"Uncletopia | Chicago | 8 | Community","name_short":"chi-8","host":"chi-2.us.uncletopia.com","port":27045,"enabled":true,"region":"us-central","cc":"us","latitude":41.881832,"longitude":-87.62318,"reserved":0,"last_update":"0001-01-01T00:00:00Z","name_a2s":"Uncletopia | Chicago | 8 | Community","protocol":17,"map":"cp_sunshine","folder":"tf","game":"Team Fortress","app_id":440,"player_count":0,"max_players":24,"Bots":0,"server_type":"Dedicated","server_os":"Linux","password":true,"vac":true,"version":"7880732","steam_id":85568392924866365,"keywords":["cp","nocrits","nodmgspread","uncletopia"],"game_id":440,"stv_port":27046,"stv_name":"Uncletopia | Chicago | 8 | Community | STV","players":null},{"server_id":8,"name":"Uncletopia | Dallas | 1 | All Maps","name_short":"dal-1","host":"dal-1.us.uncletopia.com","port":27015,"enabled":true,"region":"us-central","cc":"us","latitude":32.779167,"longitude":-96.80889,"reserved":0,"last_update":"0001-01-01T00:00:00Z","name_a2s":"Uncletopia | Dallas | 1 | All Maps","protocol":17,"map":"cp_sunshine","folder":"tf","game":"Team Fortress","app_id":440,"player_count":1,"max_players":24,"Bots":0,"server_type":"Dedicated","server_os":"Linux","password":true,"vac":true,"version":"7880732","steam_id":85568392924469986,"keywords":["cp","nocrits","nodmgspread","uncletopia"],"game_id":440,"stv_port":27016,"stv_name":"Uncletopia | Dallas | 1 | All Maps | STV","players":[{"user_id":162,"name":"alpha1zer0ready","steam_id":76561199206731331,"connected_time":29000000000,"state":"active","ping":76}]},{"server_id":108,"name":"Uncletopia | Dallas | 2 | All Maps","name_short":"dal-2","host":"dal-1.us.uncletopia.com","port":27025,"enabled":true,"region":"us-central","cc":"us","latitude":32.779167,"longitude":-96.80889,"reserved":0,"last_update":"0001-01-01T00:00:00Z","name_a2s":"Uncletopia | Dallas | 2 | All Maps","protocol":17,"map":"pl_pier","folder":"tf","game":"Team Fortress","app_id":440,"player_count":5,"max_players":24,"Bots":0,"server_type":"Dedicated","server_os":"Linux","password":true,"vac":true,"version":"7880732","steam_id":85568392924469988,"keywords":["nocrits","nodmgspread","payload","uncletopia"],"game_id":440,"stv_port":27026,"stv_name":"Uncletopia | Dallas | 2 | All Maps | STV","players":[{"user_id":105,"name":"Certified Hood Classic","steam_id":76561199086159354,"connected_time":1248000000000,"state":"active","ping":42},{"user_id":108,"name":"Mellou","steam_id":76561198212048740,"connected_time":961000000000,"state":"active","ping":43},{"user_id":83,"name":"Bandicam Recording Software","steam_id":76561199122281764,"connected_time":2811000000000,"state":"active","ping":73},{"user_id":97,"name":"A Straw","steam_id":76561199367935846,"connected_time":2134000000000,"state":"active","ping":69},{"user_id":106,"name":"Vestuvian","steam_id":76561199007823355,"connected_time":1245000000000,"state":"active","ping":52}]},{"server_id":5,"name":"Uncletopia | Frankfurt | 1 | All Maps","name_short":"frk-1","host":"frk-1.de.uncletopia.com","port":27015,"enabled":true,"region":"eu","cc":"de","latitude":50.110924,"longitude":8.682127,"reserved":0,"last_update":"0001-01-01T00:00:00Z","name_a2s":"Uncletopia | Frankfurt | 1 | All Maps","protocol":17,"map":"koth_lakeside_final","folder":"tf","game":"Team Fortress","app_id":440,"player_count":0,"max_players":24,"Bots":0,"server_type":"Dedicated","server_os":"Linux","password":true,"vac":true,"version":"7880732","steam_id":85568392924469989,"keywords":["cp","nocrits","nodmgspread","uncletopia"],"game_id":440,"stv_port":27016,"stv_name":"Uncletopia | Frankfurt | 1 | All Maps | STV","players":null},{"server_id":110,"name":"Uncletopia | Frankfurt | 2 | All Maps","name_short":"frk-2","host":"frk-1.de.uncletopia.com","port":27025,"enabled":true,"region":"eu","cc":"de","latitude":50.110924,"longitude":8.682127,"reserved":0,"last_update":"0001-01-01T00:00:00Z","name_a2s":"Uncletopia | Frankfurt | 2 | All Maps","protocol":17,"map":"koth_viaduct","folder":"tf","game":"Team Fortress","app_id":440,"player_count":19,"max_players":24,"Bots":0,"server_type":"Dedicated","server_os":"Linux","password":true,"vac":true,"version":"7880732","steam_id":85568392924469990,"keywords":["cp","nocrits","nodmgspread","uncletopia"],"game_id":440,"stv_port":27026,"stv_name":"Uncletopia | Frankfurt | 2 | All Maps | STV","players":[{"user_id":118,"name":"Proto-arc","steam_id":76561198012776747,"connected_time":2020000000000,"state":"active","ping":56},{"user_id":128,"name":"Valfezant","steam_id":76561199063983797,"connected_time":8000000000,"state":"spawning","ping":59},{"user_id":119,"name":"Peat","steam_id":76561197992168067,"connected_time":1921000000000,"state":"active","ping":65},{"user_id":117,"name":"Peanut","steam_id":76561198086465931,"connected_time":2145000000000,"state":"active","ping":89},{"user_id":126,"name":"Place_Holder Gaming","steam_id":76561198050961867,"connected_time":801000000000,"state":"active","ping":162},{"user_id":125,"name":"Saunaveijari","steam_id":76561198160562822,"connected_time":1408000000000,"state":"active","ping":72},{"user_id":93,"name":"Sambuca","steam_id":76561199233979726,"connected_time":4889000000000,"state":"active","ping":82},{"user_id":127,"name":"Femboy Gaming","steam_id":76561198174108515,"connected_time":99000000000,"state":"active","ping":56},{"user_id":104,"name":"xTheDarkLight","steam_id":76561198239128298,"connected_time":3961000000000,"state":"active","ping":53},{"user_id":105,"name":"Sentry Man","steam_id":76561198088417596,"connected_time":3923000000000,"state":"active","ping":57},{"user_id":62,"name":"Johan","steam_id":76561199380849468,"connected_time":6771000000000,"state":"active","ping":62},{"user_id":100,"name":"MegaZegan","steam_id":76561198075918455,"connected_time":4394000000000,"state":"active","ping":77},{"user_id":112,"name":"faviu","steam_id":76561198128231213,"connected_time":2731000000000,"state":"active","ping":73},{"user_id":67,"name":"N0tzz","steam_id":76561198391025653,"connected_time":6676000000000,"state":"active","ping":85},{"user_id":98,"name":"Agarwaen","steam_id":76561198110221637,"connected_time":4579000000000,"state":"active","ping":77},{"user_id":115,"name":"Blitzy","steam_id":76561198059253518,"connected_time":2343000000000,"state":"active","ping":80},{"user_id":92,"name":"XL54M15Y","steam_id":76561198048250715,"connected_time":5181000000000,"state":"active","ping":49},{"user_id":69,"name":"cinny","steam_id":76561198832112629,"connected_time":6661000000000,"state":"active","ping":106},{"user_id":109,"name":"Yos","steam_id":76561199056318258,"connected_time":3035000000000,"state":"active","ping":75}]},{"server_id":308,"name":"Uncletopia | Frankfurt | 3 | All Maps","name_short":"frk-3","host":"frk-1.de.uncletopia.com","port":27035,"enabled":true,"region":"eu","cc":"de","latitude":50.110924,"longitude":8.682127,"reserved":0,"last_update":"0001-01-01T00:00:00Z","name_a2s":"Uncletopia | Frankfurt | 3 | All Maps","protocol":17,"map":"cp_mountainlab","folder":"tf","game":"Team Fortress","app_id":440,"player_count":0,"max_players":24,"Bots":0,"server_type":"Dedicated","server_os":"Linux","password":true,"vac":true,"version":"7880732","steam_id":85568392924504274,"keywords":["cp","nocrits","nodmgspread","uncletopia"],"game_id":440,"stv_port":27036,"stv_name":"Uncletopia | Frankfurt | 3 | All Maps | STV","players":null},{"server_id":309,"name":"Uncletopia | Frankfurt | 4 | All Maps","name_short":"frk-4","host":"frk-1.de.uncletopia.com","port":27045,"enabled":true,"region":"eu","cc":"de","latitude":50.110924,"longitude":8.682127,"reserved":0,"last_update":"0001-01-01T00:00:00Z","name_a2s":"Uncletopia | Frankfurt | 4 | All Maps","protocol":17,"map":"koth_cascade","folder":"tf","game":"Team Fortress","app_id":440,"player_count":3,"max_players":24,"Bots":0,"server_type":"Dedicated","server_os":"Linux","password":true,"vac":true,"version":"7880732","steam_id":85568392924504275,"keywords":["cp","nocrits","nodmgspread","uncletopia"],"game_id":440,"stv_port":27046,"stv_name":"Uncletopia | Frankfurt | 4 | All Maps | STV","players":[{"user_id":144,"name":"sciencenerd42","steam_id":76561198274563320,"connected_time":1470000000000,"state":"active","ping":120},{"user_id":135,"name":"\u003c  \u003e #savetf2","steam_id":76561199213338939,"connected_time":2953000000000,"state":"active","ping":139},{"user_id":100,"name":"dinorno","steam_id":76561198146276830,"connected_time":5251000000000,"state":"active","ping":81}]},{"server_id":310,"name":"Uncletopia | Frankfurt | 5 | All Maps","name_short":"frk-5","host":"frk-1.de.uncletopia.com","port":27055,"enabled":true,"region":"eu","cc":"de","latitude":50.110924,"longitude":8.682127,"reserved":0,"last_update":"0001-01-01T00:00:00Z","name_a2s":"Uncletopia | Frankfurt | 5 | All Maps","protocol":17,"map":"cp_sunshine","folder":"tf","game":"Team Fortress","app_id":440,"player_count":2,"max_players":24,"Bots":0,"server_type":"Dedicated","server_os":"Linux","password":true,"vac":true,"version":"7880732","steam_id":85568392924504277,"keywords":["cp","nocrits","nodmgspread","uncletopia"],"game_id":440,"stv_port":27056,"stv_name":"Uncletopia | Frankfurt | 5 | All Maps | STV","players":[{"user_id":8,"name":"C.C.G l M.O.U.D.Y","steam_id":76561198428800996,"connected_time":1490000000000,"state":"active","ping":154},{"user_id":9,"name":"3azra2el","steam_id":76561198855659869,"connected_time":1477000000000,"state":"active","ping":96}]},{"server_id":311,"name":"Uncletopia | Frankfurt | 6 | All Maps","name_short":"frk-6","host":"frk-1.de.uncletopia.com","port":27065,"enabled":true,"region":"eu","cc":"de","latitude":50.110924,"longitude":8.682127,"reserved":0,"last_update":"0001-01-01T00:00:00Z","name_a2s":"Uncletopia | Frankfurt | 6 | All Maps","protocol":17,"map":"cp_yukon_final","folder":"tf","game":"Team Fortress","app_id":440,"player_count":0,"max_players":24,"Bots":0,"server_type":"Dedicated","server_os":"Linux","password":true,"vac":true,"version":"7880732","steam_id":85568392924504278,"keywords":["cp","nocrits","nodmgspread","uncletopia"],"game_id":440,"stv_port":27066,"stv_name":"Uncletopia | Frankfurt | 6 | All Maps | STV","players":null},{"server_id":23,"name":"Uncletopia | Frankfurt | 7 | Stopwatch Beta","name_short":"frk-7","host":"frk-1.de.uncletopia.com","port":27075,"enabled":true,"region":"eu","cc":"de","latitude":50.110924,"longitude":8.682127,"reserved":0,"last_update":"0001-01-01T00:00:00Z","name_a2s":"Uncletopia | Frankfurt | 7 | Stopwatch Beta","protocol":17,"map":"koth_highpass","folder":"tf","game":"Team Fortress","app_id":440,"player_count":0,"max_players":24,"Bots":0,"server_type":"Dedicated","server_os":"Linux","password":true,"vac":true,"version":"7880732","steam_id":85568392924742827,"keywords":["cp","nocrits","nodmgspread","uncletopia"],"game_id":440,"stv_port":27076,"stv_name":"Uncletopia | Frankfurt | 7 | Stopwatch Beta | STV","players":null},{"server_id":24,"name":"Uncletopia | Frankfurt | 8 | Community","name_short":"frk-8","host":"frk-1.de.uncletopia.com","port":27085,"enabled":true,"region":"eu","cc":"de","latitude":50.110924,"longitude":8.682127,"reserved":0,"last_update":"0001-01-01T00:00:00Z","name_a2s":"Uncletopia | Frankfurt | 8 | Community","protocol":17,"map":"workshop/koth_synthetic_rc6a.ugc1549817316","folder":"tf","game":"Team Fortress","app_id":440,"player_count":0,"max_players":24,"Bots":0,"server_type":"Dedicated","server_os":"Linux","password":true,"vac":true,"version":"7880732","steam_id":85568392924742828,"keywords":["cp","nocrits","nodmgspread","uncletopia"],"game_id":440,"stv_port":27086,"stv_name":"Uncletopia | Frankfurt | 8 | Community | STV","players":null},{"server_id":202,"name":"Uncletopia | Hong Kong | 1 | All Maps","name_short":"hgk-1","host":"hgk-1.hk.uncletopia.com","port":27015,"enabled":true,"region":"asia","cc":"hk","latitude":22.302711,"longitude":114.177216,"reserved":0,"last_update":"0001-01-01T00:00:00Z","name_a2s":"Uncletopia | Hong Kong | 1 | All Maps","protocol":17,"map":"pl_pier","folder":"tf","game":"Team Fortress","app_id":440,"player_count":0,"max_players":24,"Bots":0,"server_type":"Dedicated","server_os":"Linux","password":true,"vac":true,"version":"7880732","steam_id":85568392924494504,"keywords":["nocrits","nodmgspread","payload","uncletopia"],"game_id":440,"stv_port":27016,"stv_name":"Uncletopia | Hong Kong | 1 | All Maps | STV","players":null},{"server_id":1,"name":"Uncletopia | Los Angeles | 1 | All Maps","name_short":"lax-1","host":"lax-1.us.uncletopia.com","port":27015,"enabled":true,"region":"us-west","cc":"us","latitude":33.94279,"longitude":-118.41004,"reserved":0,"last_update":"0001-01-01T00:00:00Z","name_a2s":"Uncletopia | Los Angeles | 1 | All Maps","protocol":17,"map":"pl_thundermountain","folder":"tf","game":"Team Fortress","app_id":440,"player_count":24,"max_players":24,"Bots":0,"server_type":"Dedicated","server_os":"Linux","password":true,"vac":true,"version":"7880732","steam_id":85568392924469991,"keywords":["nocrits","nodmgspread","payload","uncletopia"],"game_id":440,"stv_port":27016,"stv_name":"Uncletopia | Los Angeles | 1 | All Maps | STV","players":[{"user_id":54,"name":"cactus eater","steam_id":76561199107499844,"connected_time":3140000000000,"state":"active","ping":54},{"user_id":74,"name":"the man","steam_id":76561199103120314,"connected_time":175000000000,"state":"active","ping":52},{"user_id":57,"name":"A Shiny Meat Bicycle","steam_id":76561198358757709,"connected_time":3104000000000,"state":"active","ping":123},{"user_id":52,"name":"usedhalfcart","steam_id":76561198072621852,"connected_time":3182000000000,"state":"active","ping":84},{"user_id":15,"name":"Hero Smasher","steam_id":76561198150681669,"connected_time":4281000000000,"state":"active","ping":57},{"user_id":66,"name":"VicLoL","steam_id":76561198045580784,"connected_time":1735000000000,"state":"active","ping":52},{"user_id":69,"name":"array","steam_id":76561198280409646,"connected_time":1111000000000,"state":"active","ping":37},{"user_id":55,"name":"rimbl","steam_id":76561198150137369,"connected_time":3133000000000,"state":"active","ping":50},{"user_id":23,"name":"summerlis","steam_id":76561198165324438,"connected_time":4028000000000,"state":"active","ping":37},{"user_id":44,"name":"moah380","steam_id":76561198090644581,"connected_time":3711000000000,"state":"active","ping":74},{"user_id":70,"name":"Bing Soy","steam_id":76561199091381775,"connected_time":967000000000,"state":"active","ping":45},{"user_id":71,"name":"Pink","steam_id":76561199093650594,"connected_time":927000000000,"state":"active","ping":71},{"user_id":60,"name":"Taffy","steam_id":76561198276612538,"connected_time":2299000000000,"state":"active","ping":59},{"user_id":58,"name":"[DATS➡] Sugar Meowth","steam_id":76561197995251793,"connected_time":3096000000000,"state":"active","ping":75},{"user_id":75,"name":"Dani","steam_id":76561198348012378,"connected_time":152000000000,"state":"active","ping":107},{"user_id":28,"name":"roach","steam_id":76561198354811369,"connected_time":3985000000000,"state":"active","ping":49},{"user_id":30,"name":"REDkid4025","steam_id":76561198316965062,"connected_time":3928000000000,"state":"active","ping":93},{"user_id":73,"name":"KellyKapoor","steam_id":76561198040828123,"connected_time":372000000000,"state":"active","ping":67},{"user_id":63,"name":"sola venereum","steam_id":76561198368179166,"connected_time":1903000000000,"state":"active","ping":51},{"user_id":34,"name":"Rustyorion","steam_id":76561198439186347,"connected_time":3850000000000,"state":"active","ping":81},{"user_id":76,"name":"CopperBox","steam_id":76561198068217248,"connected_time":140000000000,"state":"active","ping":58},{"user_id":62,"name":"Sgt. Satire","steam_id":76561198104193483,"connected_time":2116000000000,"state":"active","ping":71},{"user_id":53,"name":"Void","steam_id":76561198308290211,"connected_time":3148000000000,"state":"active","ping":64},{"user_id":61,"name":"Auggy","steam_id":76561198041816037,"connected_time":2205000000000,"state":"active","ping":71}]},{"server_id":112,"name":"Uncletopia | Los Angeles | 2 | All Maps","name_short":"lax-2","host":"lax-1.us.uncletopia.com","port":27025,"enabled":true,"region":"us-west","cc":"us","latitude":33.94279,"longitude":-118.41004,"reserved":0,"last_update":"0001-01-01T00:00:00Z","name_a2s":"Uncletopia | Los Angeles | 2 | All Maps","protocol":17,"map":"koth_viaduct","folder":"tf","game":"Team Fortress","app_id":440,"player_count":0,"max_players":24,"Bots":0,"server_type":"Dedicated","server_os":"Linux","password":true,"vac":true,"version":"7880732","steam_id":85568392924469992,"keywords":["cp","nocrits","nodmgspread","uncletopia"],"game_id":440,"stv_port":27026,"stv_name":"Uncletopia | Los Angeles | 2 | All Maps | STV","players":null},{"server_id":324,"name":"Uncletopia | Los Angeles | 3 | All Maps","name_short":"lax-3","host":"lax-1.us.uncletopia.com","port":27035,"enabled":true,"region":"us-west","cc":"us","latitude":33.94279,"longitude":-118.41004,"reserved":0,"last_update":"0001-01-01T00:00:00Z","name_a2s":"Uncletopia | Los Angeles | 3 | All Maps","protocol":17,"map":"pl_swiftwater_final1","folder":"tf","game":"Team Fortress","app_id":440,"player_count":18,"max_players":24,"Bots":0,"server_type":"Dedicated","server_os":"Linux","password":true,"vac":true,"version":"7880732","steam_id":85568392924510198,"keywords":["nocrits","nodmgspread","payload","uncletopia"],"game_id":440,"stv_port":27036,"stv_name":"Uncletopia | Los Angeles | 3 | All Maps | STV","players":[{"user_id":19,"name":"ejschild745","steam_id":76561199013388867,"connected_time":2429000000000,"state":"active","ping":105},{"user_id":22,"name":"reymundo","steam_id":76561197989412830,"connected_time":2311000000000,"state":"active","ping":61},{"user_id":8,"name":"Cinnifox","steam_id":76561198068773971,"connected_time":3275000000000,"state":"active","ping":84},{"user_id":66,"name":"Platinum","steam_id":76561198052463484,"connected_time":171000000000,"state":"active","ping":49},{"user_id":44,"name":"DonoC","steam_id":76561198274473338,"connected_time":1622000000000,"state":"active","ping":87},{"user_id":11,"name":"parangatang","steam_id":76561198050311948,"connected_time":3061000000000,"state":"active","ping":63},{"user_id":61,"name":"Antwan","steam_id":76561198246200638,"connected_time":435000000000,"state":"active","ping":74},{"user_id":23,"name":"Buswolley","steam_id":76561197995205571,"connected_time":2248000000000,"state":"active","ping":55},{"user_id":16,"name":"Keyboard 'Pyre' Cowgirl","steam_id":76561198075562111,"connected_time":2579000000000,"state":"active","ping":83},{"user_id":62,"name":"Big Oil","steam_id":76561199238964574,"connected_time":362000000000,"state":"active","ping":59},{"user_id":21,"name":"Renz","steam_id":76561198118995036,"connected_time":2410000000000,"state":"active","ping":76},{"user_id":25,"name":"mass Tech™© EXTREME 2000","steam_id":76561198399115655,"connected_time":2055000000000,"state":"active","ping":122},{"user_id":55,"name":"I. C. Wiener","steam_id":76561198062777610,"connected_time":1350000000000,"state":"active","ping":41},{"user_id":41,"name":"triph","steam_id":76561198067196509,"connected_time":1803000000000,"state":"active","ping":39},{"user_id":51,"name":"Mellow Marshal","steam_id":76561198828607652,"connected_time":1514000000000,"state":"active","ping":114},{"user_id":46,"name":"Whatty","steam_id":76561198211729296,"connected_time":1605000000000,"state":"active","ping":55},{"user_id":52,"name":"SPAMTON NFT","steam_id":76561198263004448,"connected_time":1508000000000,"state":"active","ping":44},{"user_id":56,"name":"Wavelengths (they/it)","steam_id":76561197997621320,"connected_time":1278000000000,"state":"active","ping":78}]},{"server_id":25,"name":"Uncletopia | Los Angeles | 4 | Stopwatch Beta","name_short":"lax-4","host":"lax-1.us.uncletopia.com","port":27045,"enabled":true,"region":"us-west","cc":"us","latitude":33.94279,"longitude":-118.41004,"reserved":0,"last_update":"0001-01-01T00:00:00Z","name_a2s":"Uncletopia | Los Angeles | 4 | Stopwatch Beta","protocol":17,"map":"koth_highpass","folder":"tf","game":"Team Fortress","app_id":440,"player_count":0,"max_players":24,"Bots":0,"server_type":"Dedicated","server_os":"Linux","password":true,"vac":true,"version":"7880732","steam_id":85568392924510199,"keywords":["cp","nocrits","nodmgspread","uncletopia"],"game_id":440,"stv_port":27046,"stv_name":"Uncletopia | Los Angeles | 4 | Stopwatch Beta | STV","players":null},{"server_id":11,"name":"Uncletopia | London | 1 | All Maps","name_short":"lon-1","host":"lon-1.uk.uncletopia.com","port":27015,"enabled":true,"region":"eu","cc":"gb","latitude":51.509865,"longitude":-0.118092,"reserved":0,"last_update":"0001-01-01T00:00:00Z","name_a2s":"Uncletopia | London | 1 | All Maps","protocol":17,"map":"pl_swiftwater_final1","folder":"tf","game":"Team Fortress","app_id":440,"player_count":24,"max_players":24,"Bots":0,"server_type":"Dedicated","server_os":"Linux","password":true,"vac":true,"version":"7880732","steam_id":85568392924367362,"keywords":["nocrits","nodmgspread","payload","uncletopia"],"game_id":440,"stv_port":27016,"stv_name":"Uncletopia | London | 1 | All Maps | STV","players":[{"user_id":163,"name":"lettuce out of stock","steam_id":76561199401283123,"connected_time":93000000000,"state":"active","ping":49},{"user_id":149,"name":"RobTheKid","steam_id":76561198346638308,"connected_time":1583000000000,"state":"active","ping":47},{"user_id":137,"name":"Winter","steam_id":76561198134805479,"connected_time":2495000000000,"state":"active","ping":46},{"user_id":151,"name":"ุfroglids","steam_id":76561198045466919,"connected_time":1302000000000,"state":"active","ping":68},{"user_id":96,"name":"Son Goku","steam_id":76561199383437138,"connected_time":5485000000000,"state":"active","ping":119},{"user_id":160,"name":"Ferlo","steam_id":76561198095561504,"connected_time":127000000000,"state":"active","ping":45},{"user_id":139,"name":"ZackMcRizzl","steam_id":76561198062075870,"connected_time":1847000000000,"state":"active","ping":73},{"user_id":129,"name":"Bambi","steam_id":76561198166972711,"connected_time":3387000000000,"state":"active","ping":49},{"user_id":99,"name":"SuperBob103","steam_id":76561199175360012,"connected_time":5108000000000,"state":"active","ping":61},{"user_id":156,"name":"1 toke 4 mars bars","steam_id":76561198056460000,"connected_time":477000000000,"state":"active","ping":67},{"user_id":154,"name":"Bodeine Brazy","steam_id":76561198122181176,"connected_time":1285000000000,"state":"active","ping":45},{"user_id":142,"name":"true","steam_id":76561198031145243,"connected_time":1803000000000,"state":"active","ping":88},{"user_id":157,"name":"Panique","steam_id":76561197993239675,"connected_time":381000000000,"state":"active","ping":51},{"user_id":144,"name":"Cyberpsycho","steam_id":76561198013528365,"connected_time":1798000000000,"state":"active","ping":61},{"user_id":158,"name":"Lyncurion","steam_id":76561199260022725,"connected_time":341000000000,"state":"active","ping":84},{"user_id":97,"name":"Minimi","steam_id":76561198873850443,"connected_time":5178000000000,"state":"active","ping":45},{"user_id":138,"name":"Girlboy Theenie","steam_id":76561198029025500,"connected_time":2042000000000,"state":"active","ping":57},{"user_id":162,"name":"gagalak","steam_id":76561198089979108,"connected_time":102000000000,"state":"active","ping":100},{"user_id":39,"name":"shh... tiny carrots r sleeping","steam_id":76561198069649097,"connected_time":9906000000000,"state":"active","ping":48},{"user_id":132,"name":"Mr. Burp","steam_id":76561198042927314,"connected_time":3352000000000,"state":"active","ping":44},{"user_id":90,"name":"beebo","steam_id":76561199120277007,"connected_time":6474000000000,"state":"active","ping":59},{"user_id":148,"name":"Vitamin Weee","steam_id":76561199183937747,"connected_time":1648000000000,"state":"active","ping":87},{"user_id":56,"name":"ROBIN HOOD","steam_id":76561198096547662,"connected_time":9121000000000,"state":"active","ping":50}]},{"server_id":114,"name":"Uncletopia | London | 2 | All Maps","name_short":"lon-2","host":"lon-1.uk.uncletopia.com","port":27025,"enabled":true,"region":"eu","cc":"gb","latitude":51.509865,"longitude":-0.118092,"reserved":0,"last_update":"0001-01-01T00:00:00Z","name_a2s":"Uncletopia | London | 2 | All Maps","protocol":17,"map":"pl_frontier_final","folder":"tf","game":"Team Fortress","app_id":440,"player_count":5,"max_players":24,"Bots":0,"server_type":"Dedicated","server_os":"Linux","password":true,"vac":true,"version":"7880732","steam_id":85568392924470941,"keywords":["nocrits","nodmgspread","payload","uncletopia"],"game_id":440,"stv_port":27026,"stv_name":"Uncletopia | London | 2 | All Maps | STV","players":[{"user_id":168,"name":"Ankmar le Touffu","steam_id":76561198169381436,"connected_time":1143000000000,"state":"active","ping":58},{"user_id":172,"name":"dools18","steam_id":76561198880768062,"connected_time":213000000000,"state":"active","ping":53},{"user_id":167,"name":"Mr_Pulse_","steam_id":76561198095001602,"connected_time":1496000000000,"state":"active","ping":104},{"user_id":82,"name":"Stańczyk","steam_id":76561197998906563,"connected_time":7812000000000,"state":"active","ping":37},{"user_id":162,"name":"etc","steam_id":76561197998394797,"connected_time":2679000000000,"state":"active","ping":53}]},{"server_id":320,"name":"Uncletopia | London | 3 | All Maps","name_short":"lon-3","host":"lon-1.uk.uncletopia.com","port":27035,"enabled":true,"region":"eu","cc":"gb","latitude":51.509865,"longitude":-0.118092,"reserved":0,"last_update":"0001-01-01T00:00:00Z","name_a2s":"Uncletopia | London | 3 | All Maps","protocol":17,"map":"cp_yukon_final","folder":"tf","game":"Team Fortress","app_id":440,"player_count":0,"max_players":24,"Bots":0,"server_type":"Dedicated","server_os":"Linux","password":true,"vac":true,"version":"7880732","steam_id":85568392924510192,"keywords":["cp","nocrits","nodmgspread","uncletopia"],"game_id":440,"stv_port":27036,"stv_name":"Uncletopia | London | 3 | All Maps | STV","players":null},{"server_id":321,"name":"Uncletopia | London | 4 | All Maps","name_short":"lon-4","host":"lon-1.uk.uncletopia.com","port":27045,"enabled":true,"region":"eu","cc":"gb","latitude":51.509865,"longitude":-0.118092,"reserved":0,"last_update":"0001-01-01T00:00:00Z","name_a2s":"Uncletopia | London | 4 | All Maps","protocol":17,"map":"cp_yukon_final","folder":"tf","game":"Team Fortress","app_id":440,"player_count":0,"max_players":24,"Bots":0,"server_type":"Dedicated","server_os":"Linux","password":true,"vac":true,"version":"7880732","steam_id":85568392924510193,"keywords":["cp","nocrits","nodmgspread","uncletopia"],"game_id":440,"stv_port":27046,"stv_name":"Uncletopia | London | 4 | All Maps | STV","players":null},{"server_id":21,"name":"Uncletopia | London | 5 | All Maps","name_short":"lon-5","host":"lon-1.uk.uncletopia.com","port":27055,"enabled":true,"region":"eu","cc":"gb","latitude":51.509865,"longitude":-0.118092,"reserved":0,"last_update":"0001-01-01T00:00:00Z","name_a2s":"Uncletopia | London | 5 | All Maps","protocol":17,"map":"pl_swiftwater_final1","folder":"tf","game":"Team Fortress","app_id":440,"player_count":0,"max_players":24,"Bots":0,"server_type":"Dedicated","server_os":"Linux","password":true,"vac":true,"version":"7880732","steam_id":85568392924742829,"keywords":["nocrits","nodmgspread","payload","uncletopia"],"game_id":440,"stv_port":27056,"stv_name":"Uncletopia | London | 5 | All Maps | STV","players":null},{"server_id":22,"name":"Uncletopia | London | 6 | All Maps","name_short":"lon-6","host":"lon-1.uk.uncletopia.com","port":27065,"enabled":true,"region":"eu","cc":"gb","latitude":51.509865,"longitude":-0.118092,"reserved":0,"last_update":"0001-01-01T00:00:00Z","name_a2s":"Uncletopia | London | 6 | All Maps","protocol":17,"map":"koth_lakeside_final","folder":"tf","game":"Team Fortress","app_id":440,"player_count":0,"max_players":24,"Bots":0,"server_type":"Dedicated","server_os":"Linux","password":true,"vac":true,"version":"7880732","steam_id":85568392924742830,"keywords":["cp","nocrits","nodmgspread","uncletopia"],"game_id":440,"stv_port":27066,"stv_name":"Uncletopia | London | 6 | All Maps | STV","players":null},{"server_id":40,"name":"Uncletopia | London | 7 | No Payload","name_short":"lon-7","host":"lon-1.uk.uncletopia.com","port":27075,"enabled":true,"region":"eu","cc":"gb","latitude":51.509865,"longitude":-0.118092,"reserved":0,"last_update":"0001-01-01T00:00:00Z","name_a2s":"Uncletopia | London | 7 | No Payload","protocol":17,"map":"cp_yukon_final","folder":"tf","game":"Team Fortress","app_id":440,"player_count":0,"max_players":24,"Bots":0,"server_type":"Dedicated","server_os":"Linux","password":true,"vac":true,"version":"7880732","steam_id":85568392924964314,"keywords":["cp","nocrits","nodmgspread","uncletopia"],"game_id":440,"stv_port":27076,"stv_name":"Uncletopia | London | 7 | No Payload | STV","players":null},{"server_id":41,"name":"Uncletopia | London | 8 | Community","name_short":"lon-8","host":"lon-1.uk.uncletopia.com","port":27085,"enabled":true,"region":"eu","cc":"gb","latitude":51.509865,"longitude":-0.118092,"reserved":0,"last_update":"0001-01-01T00:00:00Z","name_a2s":"Uncletopia | London | 8 | Community","protocol":17,"map":"workshop/rd_asteroid_redux_b1.ugc2154902912","folder":"tf","game":"Team Fortress","app_id":440,"player_count":0,"max_players":24,"Bots":0,"server_type":"Dedicated","server_os":"Linux","password":true,"vac":true,"version":"7880732","steam_id":85568392924964315,"keywords":["beta","nocrits","nodmgspread","rd","uncletopia"],"game_id":440,"stv_port":27086,"stv_name":"Uncletopia | London | 8 | Community | STV","players":null},{"server_id":300,"name":"Uncletopia | Montréal | 1 | All Maps","name_short":"mtl-1","host":"mtl-1.ca.uncletopia.com","port":27015,"enabled":true,"region":"us-east","cc":"ca","latitude":45.50889,"longitude":-73.56167,"reserved":0,"last_update":"0001-01-01T00:00:00Z","name_a2s":"Uncletopia | Montréal | 1 | All Maps","protocol":17,"map":"pl_borneo","folder":"tf","game":"Team Fortress","app_id":440,"player_count":0,"max_players":24,"Bots":0,"server_type":"Dedicated","server_os":"Linux","password":true,"vac":true,"version":"7880732","steam_id":85568392924500087,"keywords":["nocrits","nodmgspread","payload","uncletopia"],"game_id":440,"stv_port":27016,"stv_name":"Uncletopia | Montréal | 1 | All Maps | STV","players":null},{"server_id":301,"name":"Uncletopia | Montréal | 2 | All Maps","name_short":"mtl-2","host":"mtl-1.ca.uncletopia.com","port":27025,"enabled":true,"region":"us-east","cc":"ca","latitude":45.50889,"longitude":-73.56167,"reserved":0,"last_update":"0001-01-01T00:00:00Z","name_a2s":"Uncletopia | Montréal | 2 | All Maps","protocol":17,"map":"koth_cascade","folder":"tf","game":"Team Fortress","app_id":440,"player_count":0,"max_players":24,"Bots":0,"server_type":"Dedicated","server_os":"Linux","password":true,"vac":true,"version":"7880732","steam_id":85568392924500088,"keywords":["cp","nocrits","nodmgspread","uncletopia"],"game_id":440,"stv_port":27026,"stv_name":"Uncletopia | Montréal | 2 | All Maps | STV","players":null},{"server_id":302,"name":"Uncletopia | Montréal | 3 | All Maps","name_short":"mtl-3","host":"mtl-1.ca.uncletopia.com","port":27035,"enabled":true,"region":"us-east","cc":"ca","latitude":45.50889,"longitude":-73.56167,"reserved":0,"last_update":"0001-01-01T00:00:00Z","name_a2s":"Uncletopia | Montréal | 3 | All Maps","protocol":17,"map":"pl_frontier_final","folder":"tf","game":"Team Fortress","app_id":440,"player_count":0,"max_players":24,"Bots":0,"server_type":"Dedicated","server_os":"Linux","password":true,"vac":true,"version":"7880732","steam_id":85568392924500089,"keywords":["nocrits","nodmgspread","payload","uncletopia"],"game_id":440,"stv_port":27036,"stv_name":"Uncletopia | Montréal | 3 | All Maps | STV","players":null},{"server_id":303,"name":"Uncletopia | Montréal | 4 | No Payload","name_short":"mtl-4","host":"mtl-1.ca.uncletopia.com","port":27045,"enabled":true,"region":"us-east","cc":"ca","latitude":45.50889,"longitude":-73.56167,"reserved":0,"last_update":"0001-01-01T00:00:00Z","name_a2s":"Uncletopia | Montréal | 4 | No Payload","protocol":17,"map":"cp_yukon_final","folder":"tf","game":"Team Fortress","app_id":440,"player_count":0,"max_players":24,"Bots":0,"server_type":"Dedicated","server_os":"Linux","password":true,"vac":true,"version":"7880732","steam_id":85568392924500090,"keywords":["cp","nocrits","nodmgspread","uncletopia"],"game_id":440,"stv_port":27046,"stv_name":"Uncletopia | Montréal | 4 | No Payload | STV","players":null},{"server_id":13,"name":"Uncletopia | New York City | 1 | All Maps","name_short":"nyc-1","host":"nyc-1.us.uncletopia.com","port":27015,"enabled":true,"region":"us-east","cc":"us","latitude":40.73061,"longitude":-73.93524,"reserved":0,"last_update":"0001-01-01T00:00:00Z","name_a2s":"Uncletopia | New York City | 1 | All Maps","protocol":17,"map":"cp_altitude","folder":"tf","game":"Team Fortress","app_id":440,"player_count":23,"max_players":24,"Bots":0,"server_type":"Dedicated","server_os":"Linux","password":true,"vac":true,"version":"7880732","steam_id":85568392924469993,"keywords":["cp","nocrits","nodmgspread","uncletopia"],"game_id":440,"stv_port":27016,"stv_name":"Uncletopia | New York City | 1 | All Maps | STV","players":[{"user_id":161,"name":"コカイン","steam_id":76561198254360137,"connected_time":1046000000000,"state":"active","ping":127},{"user_id":123,"name":"glue sniffer","steam_id":76561198044689778,"connected_time":3918000000000,"state":"active","ping":51},{"user_id":104,"name":"CRAZY engineer","steam_id":76561198887937902,"connected_time":5747000000000,"state":"active","ping":53},{"user_id":164,"name":"Fartly","steam_id":76561197987805095,"connected_time":499000000000,"state":"active","ping":106},{"user_id":119,"name":"meat glasses","steam_id":76561198046742645,"connected_time":4119000000000,"state":"active","ping":60},{"user_id":138,"name":"Chin","steam_id":76561198247426906,"connected_time":2955000000000,"state":"active","ping":70},{"user_id":150,"name":"Timon's high on crack cocaine!","steam_id":76561198180396430,"connected_time":1886000000000,"state":"active","ping":69},{"user_id":167,"name":"Fredrick","steam_id":76561197981419964,"connected_time":177000000000,"state":"active","ping":55},{"user_id":147,"name":"Queso2469","steam_id":76561197993024580,"connected_time":1921000000000,"state":"active","ping":46},{"user_id":132,"name":"Doctor Yum Yums","steam_id":76561198826717792,"connected_time":3342000000000,"state":"active","ping":69},{"user_id":70,"name":"elincyt","steam_id":76561198967771724,"connected_time":7750000000000,"state":"active","ping":68},{"user_id":169,"name":"goose flower","steam_id":76561198164306336,"connected_time":47000000000,"state":"active","ping":56},{"user_id":159,"name":"MondoDong","steam_id":76561197991400109,"connected_time":1405000000000,"state":"active","ping":49},{"user_id":160,"name":"monkey","steam_id":76561198966980576,"connected_time":1366000000000,"state":"active","ping":45},{"user_id":170,"name":"capeeKo","steam_id":76561197970346623,"connected_time":13000000000,"state":"active","ping":78},{"user_id":141,"name":"0ZERO","steam_id":76561199228347398,"connected_time":2587000000000,"state":"active","ping":81},{"user_id":144,"name":"cyschafer","steam_id":76561199273576997,"connected_time":2538000000000,"state":"active","ping":90},{"user_id":165,"name":"Ghost Mountain","steam_id":76561198273383183,"connected_time":466000000000,"state":"active","ping":80},{"user_id":166,"name":"Zhenaj","steam_id":76561199209016136,"connected_time":353000000000,"state":"active","ping":62},{"user_id":89,"name":"GanZ","steam_id":76561199378883538,"connected_time":6304000000000,"state":"active","ping":66},{"user_id":154,"name":"Carson","steam_id":76561198076771071,"connected_time":1749000000000,"state":"active","ping":66},{"user_id":142,"name":"DoctorBodacious","steam_id":76561198258784171,"connected_time":2585000000000,"state":"active","ping":87},{"user_id":168,"name":"Kuai","steam_id":76561198321216513,"connected_time":154000000000,"state":"active","ping":56}]},{"server_id":14,"name":"Uncletopia | New York City | 2 | All Maps","name_short":"nyc-2","host":"nyc-1.us.uncletopia.com","port":27025,"enabled":true,"region":"us-east","cc":"us","latitude":40.73061,"longitude":-73.93524,"reserved":0,"last_update":"0001-01-01T00:00:00Z","name_a2s":"Uncletopia | New York City | 2 | All Maps","protocol":17,"map":"pl_upward","folder":"tf","game":"Team Fortress","app_id":440,"player_count":12,"max_players":24,"Bots":0,"server_type":"Dedicated","server_os":"Linux","password":true,"vac":true,"version":"7880732","steam_id":85568392924469994,"keywords":["nocrits","nodmgspread","payload","uncletopia"],"game_id":440,"stv_port":27026,"stv_name":"Uncletopia | New York City | 2 | All Maps | STV","players":[{"user_id":142,"name":"Astrocircuit","steam_id":76561198014437544,"connected_time":57000000000,"state":"active","ping":46},{"user_id":143,"name":"yeyoi","steam_id":76561198069821885,"connected_time":11000000000,"state":"active","ping":261},{"user_id":134,"name":"unlucky killer","steam_id":76561199039152146,"connected_time":1330000000000,"state":"active","ping":69},{"user_id":41,"name":"SnareString","steam_id":76561199082119457,"connected_time":8258000000000,"state":"active","ping":118},{"user_id":126,"name":"Distraction","steam_id":76561199026845006,"connected_time":1545000000000,"state":"active","ping":80},{"user_id":79,"name":"bojack from the show bojack hor","steam_id":76561198053006712,"connected_time":6251000000000,"state":"active","ping":32},{"user_id":141,"name":"Xpiredd","steam_id":76561198449525437,"connected_time":330000000000,"state":"active","ping":51},{"user_id":92,"name":"gummygeek","steam_id":76561198244543486,"connected_time":5849000000000,"state":"active","ping":116},{"user_id":85,"name":"Ironfyn","steam_id":76561198256850182,"connected_time":6173000000000,"state":"active","ping":58},{"user_id":95,"name":"Victor Skull","steam_id":76561198352212864,"connected_time":5554000000000,"state":"active","ping":34},{"user_id":122,"name":"Glad","steam_id":76561199388372220,"connected_time":1624000000000,"state":"active","ping":54},{"user_id":114,"name":"LemonZest","steam_id":76561199196369249,"connected_time":3209000000000,"state":"active","ping":60}]},{"server_id":15,"name":"Uncletopia | New York City | 3 | Stopwatch Beta","name_short":"nyc-3","host":"nyc-1.us.uncletopia.com","port":27035,"enabled":true,"region":"us-east","cc":"us","latitude":40.73061,"longitude":-73.93524,"reserved":0,"last_update":"0001-01-01T00:00:00Z","name_a2s":"Uncletopia | New York City | 3 | Stopwatch Beta","protocol":17,"map":"cp_sunshine","folder":"tf","game":"Team Fortress","app_id":440,"player_count":3,"max_players":24,"Bots":0,"server_type":"Dedicated","server_os":"Linux","password":true,"vac":true,"version":"7880732","steam_id":85568392924742820,"keywords":["cp","nocrits","nodmgspread","uncletopia"],"game_id":440,"stv_port":27036,"stv_name":"Uncletopia | New York City | 3 | Stopwatch Beta | STV","players":[{"user_id":76,"name":"Cryogarden","steam_id":76561198348436700,"connected_time":742000000000,"state":"active","ping":118},{"user_id":40,"name":"Jeff","steam_id":76561198050929005,"connected_time":3417000000000,"state":"active","ping":84},{"user_id":41,"name":"GeneralMike","steam_id":76561198065799430,"connected_time":3410000000000,"state":"active","ping":71}]},{"server_id":16,"name":"Uncletopia | New York City | 4 | Community","name_short":"nyc-4","host":"nyc-1.us.uncletopia.com","port":27045,"enabled":true,"region":"us-east","cc":"us","latitude":40.73061,"longitude":-73.93524,"reserved":0,"last_update":"0001-01-01T00:00:00Z","name_a2s":"Uncletopia | New York City | 4 | Community","protocol":17,"map":"workshop/rd_asteroid_redux_b1.ugc2154902912","folder":"tf","game":"Team Fortress","app_id":440,"player_count":1,"max_players":24,"Bots":0,"server_type":"Dedicated","server_os":"Linux","password":true,"vac":true,"version":"7880732","steam_id":85568392924742821,"keywords":["beta","nocrits","nodmgspread","rd","uncletopia"],"game_id":440,"stv_port":27046,"stv_name":"Uncletopia | New York City | 4 | Community | STV","players":[{"user_id":5,"name":"Runny","steam_id":76561199183006130,"connected_time":104000000000,"state":"active","ping":65}]},{"server_id":142,"name":"Uncletopia | São Paulo | 1 | All Maps","name_short":"sao-1","host":"sao-1.br.uncletopia.com","port":27015,"enabled":true,"region":"sa","cc":"br","latitude":-23.533773,"longitude":-46.62529,"reserved":0,"last_update":"0001-01-01T00:00:00Z","name_a2s":"Uncletopia | São Paulo | 1 | All Maps","protocol":17,"map":"koth_cascade","folder":"tf","game":"Team Fortress","app_id":440,"player_count":0,"max_players":24,"Bots":0,"server_type":"Dedicated","server_os":"Linux","password":true,"vac":true,"version":"7880732","steam_id":85568392924469996,"keywords":["cp","nocrits","nodmgspread","uncletopia"],"game_id":440,"stv_port":27016,"stv_name":"Uncletopia | São Paulo | 1 | All Maps | STV","players":null},{"server_id":143,"name":"Uncletopia | São Paulo | 2 | All Maps","name_short":"sao-2","host":"sao-2.br.uncletopia.com","port":27015,"enabled":true,"region":"sa","cc":"br","latitude":-23.533773,"longitude":-46.62529,"reserved":0,"last_update":"0001-01-01T00:00:00Z","name_a2s":"Uncletopia | São Paulo | 2 | All Maps","protocol":17,"map":"cp_sunshine","folder":"tf","game":"Team Fortress","app_id":440,"player_count":0,"max_players":24,"Bots":0,"server_type":"Dedicated","server_os":"Linux","password":true,"vac":true,"version":"7880732","steam_id":85568392924485349,"keywords":["cp","nocrits","nodmgspread","uncletopia"],"game_id":440,"stv_port":27016,"stv_name":"Uncletopia | São Paulo | 2 | All Maps | STV","players":null},{"server_id":7,"name":"Uncletopia | Seattle | 1 | All Maps","name_short":"sea-1","host":"sea-1.us.uncletopia.com","port":27015,"enabled":true,"region":"us-west","cc":"us","latitude":47.608013,"longitude":-122.33517,"reserved":0,"last_update":"0001-01-01T00:00:00Z","name_a2s":"Uncletopia | Seattle | 1 | All Maps","protocol":17,"map":"koth_harvest_final","folder":"tf","game":"Team Fortress","app_id":440,"player_count":5,"max_players":24,"Bots":0,"server_type":"Dedicated","server_os":"Linux","password":true,"vac":true,"version":"7880732","steam_id":85568392924469997,"keywords":["cp","nocrits","nodmgspread","uncletopia"],"game_id":440,"stv_port":27016,"stv_name":"Uncletopia | Seattle | 1 | All Maps | STV","players":[{"user_id":139,"name":"[TrC] Nosy","steam_id":76561197978859310,"connected_time":2047000000000,"state":"active","ping":54},{"user_id":101,"name":"Chancethefapper69","steam_id":76561198173086317,"connected_time":5442000000000,"state":"active","ping":119},{"user_id":143,"name":"Saint Pablo","steam_id":76561198083300159,"connected_time":1829000000000,"state":"active","ping":60},{"user_id":126,"name":"boogers and brain rot","steam_id":76561198855586261,"connected_time":3544000000000,"state":"active","ping":60},{"user_id":140,"name":"[TrC] Dackstrus","steam_id":76561197973518509,"connected_time":2047000000000,"state":"active","ping":48}]},{"server_id":119,"name":"Uncletopia | Seattle | 2 | All Maps","name_short":"sea-2","host":"sea-1.us.uncletopia.com","port":27025,"enabled":true,"region":"us-west","cc":"us","latitude":47.608013,"longitude":-122.33517,"reserved":0,"last_update":"0001-01-01T00:00:00Z","name_a2s":"Uncletopia | Seattle | 2 | All Maps","protocol":17,"map":"ctf_doublecross","folder":"tf","game":"Team Fortress","app_id":440,"player_count":10,"max_players":24,"Bots":0,"server_type":"Dedicated","server_os":"Linux","password":true,"vac":true,"version":"7880732","steam_id":85568392924469998,"keywords":["ctf","nocrits","nodmgspread","uncletopia"],"game_id":440,"stv_port":27026,"stv_name":"Uncletopia | Seattle | 2 | All Maps | STV","players":[{"user_id":111,"name":"koncept","steam_id":76561198027812652,"connected_time":3044000000000,"state":"active","ping":69},{"user_id":146,"name":"WaffleWithNoToppings","steam_id":76561199088280111,"connected_time":21000000000,"state":"active","ping":45},{"user_id":144,"name":"Sploonbabagoosecooties","steam_id":76561198139972201,"connected_time":410000000000,"state":"active","ping":72},{"user_id":34,"name":"Lolxdloldx","steam_id":76561198136887125,"connected_time":9097000000000,"state":"active","ping":116},{"user_id":118,"name":"Captain Boopers","steam_id":76561197980385816,"connected_time":2854000000000,"state":"active","ping":59},{"user_id":114,"name":"HiFivr","steam_id":76561198285190162,"connected_time":2993000000000,"state":"active","ping":58},{"user_id":115,"name":"nfseskimo","steam_id":76561198078745666,"connected_time":2992000000000,"state":"active","ping":44},{"user_id":61,"name":"Zeebop","steam_id":76561198148332988,"connected_time":6840000000000,"state":"active","ping":97},{"user_id":70,"name":"Schizophrenia Gaming","steam_id":76561198242118240,"connected_time":6583000000000,"state":"active","ping":102},{"user_id":99,"name":"Y2K","steam_id":76561199191855486,"connected_time":3719000000000,"state":"active","ping":45}]},{"server_id":406,"name":"Uncletopia | Seattle | 3 | Stopwatch Beta","name_short":"sea-3","host":"sea-1.us.uncletopia.com","port":27035,"enabled":true,"region":"us-west","cc":"us","latitude":47.608013,"longitude":-122.33517,"reserved":0,"last_update":"0001-01-01T00:00:00Z","name_a2s":"Uncletopia | Seattle | 3 | Stopwatch Beta","protocol":17,"map":"pl_badwater","folder":"tf","game":"Team Fortress","app_id":440,"player_count":0,"max_players":24,"Bots":0,"server_type":"Dedicated","server_os":"Linux","password":true,"vac":true,"version":"7880732","steam_id":85568392924515217,"keywords":["nocrits","nodmgspread","payload","uncletopia"],"game_id":440,"stv_port":27036,"stv_name":"Uncletopia | Seattle | 3 | Stopwatch Beta | STV","players":null},{"server_id":17,"name":"Uncletopia | San Francisco | 1 | All Maps","name_short":"sfo-1","host":"sfo-1.us.uncletopia.com","port":27015,"enabled":true,"region":"us-west","cc":"us","latitude":37.77397,"longitude":-122.4313,"reserved":0,"last_update":"0001-01-01T00:00:00Z","name_a2s":"Uncletopia | San Francisco | 1 | All Maps","protocol":17,"map":"cp_altitude","folder":"tf","game":"Team Fortress","app_id":440,"player_count":0,"max_players":24,"Bots":0,"server_type":"Dedicated","server_os":"Linux","password":true,"vac":true,"version":"7757534","steam_id":85568392924469999,"keywords":["cp","nocrits","nodmgspread","uncletopia"],"game_id":440,"stv_port":27016,"stv_name":"Uncletopia | San Francisco | 1 | All Maps | STV","players":null},{"server_id":18,"name":"Uncletopia | San Francisco | 2 | All Maps","name_short":"sfo-2","host":"sfo-1.us.uncletopia.com","port":27025,"enabled":true,"region":"us-west","cc":"us","latitude":37.77397,"longitude":-122.4313,"reserved":0,"last_update":"0001-01-01T00:00:00Z","name_a2s":"Uncletopia | San Francisco | 2 | All Maps","protocol":17,"map":"koth_highpass","folder":"tf","game":"Team Fortress","app_id":440,"player_count":0,"max_players":24,"Bots":0,"server_type":"Dedicated","server_os":"Linux","password":true,"vac":true,"version":"7757534","steam_id":85568392924470000,"keywords":["cp","nocrits","nodmgspread","uncletopia"],"game_id":440,"stv_port":27026,"stv_name":"Uncletopia | San Francisco | 2 | All Maps | STV","players":null},{"server_id":19,"name":"Uncletopia | San Francisco | 3 | Stopwatch Beta","name_short":"sfo-3","host":"sfo-1.us.uncletopia.com","port":27035,"enabled":true,"region":"us-west","cc":"us","latitude":37.77397,"longitude":-122.4313,"reserved":0,"last_update":"0001-01-01T00:00:00Z","name_a2s":"Uncletopia | San Francisco | 3 | Stopwatch Beta","protocol":17,"map":"koth_lakeside_final","folder":"tf","game":"Team Fortress","app_id":440,"player_count":0,"max_players":24,"Bots":0,"server_type":"Dedicated","server_os":"Linux","password":true,"vac":true,"version":"7757534","steam_id":85568392924742824,"keywords":["cp","nocrits","nodmgspread","uncletopia"],"game_id":440,"stv_port":27036,"stv_name":"Uncletopia | San Francisco | 3 | Stopwatch Beta | STV","players":null},{"server_id":20,"name":"Uncletopia | San Francisco | 4 | Community","name_short":"sfo-4","host":"sfo-1.us.uncletopia.com","port":27045,"enabled":true,"region":"us-west","cc":"us","latitude":37.77397,"longitude":-122.4313,"reserved":0,"last_update":"0001-01-01T00:00:00Z","name_a2s":"Uncletopia | San Francisco | 4 | Community","protocol":17,"map":"cp_altitude","folder":"tf","game":"Team Fortress","app_id":440,"player_count":0,"max_players":24,"Bots":0,"server_type":"Dedicated","server_os":"Linux","password":true,"vac":true,"version":"7757534","steam_id":85568392924742826,"keywords":["cp","nocrits","nodmgspread","uncletopia"],"game_id":440,"stv_port":27046,"stv_name":"Uncletopia | San Francisco | 4 | Community | STV","players":null},{"server_id":141,"name":"Uncletopia | Sydney | 1 | All Maps","name_short":"syd-1","host":"syd-1.au.uncletopia.com","port":27015,"enabled":true,"region":"au","cc":"au","latitude":-33.865143,"longitude":151.2099,"reserved":0,"last_update":"0001-01-01T00:00:00Z","name_a2s":"Uncletopia | Sydney | 1 | All Maps","protocol":17,"map":"pl_pier","folder":"tf","game":"Team Fortress","app_id":440,"player_count":0,"max_players":24,"Bots":0,"server_type":"Dedicated","server_os":"Linux","password":true,"vac":true,"version":"7880732","steam_id":85568392924470001,"keywords":["nocrits","nodmgspread","payload","uncletopia"],"game_id":440,"stv_port":27016,"stv_name":"Uncletopia | Sydney | 1 | All Maps | STV","players":null},{"server_id":123,"name":"Uncletopia | Sydney | 2 | All Maps","name_short":"syd-2","host":"syd-1.au.uncletopia.com","port":27025,"enabled":true,"region":"au","cc":"au","latitude":-33.865143,"longitude":151.2099,"reserved":0,"last_update":"0001-01-01T00:00:00Z","name_a2s":"Uncletopia | Sydney | 2 | All Maps","protocol":17,"map":"pl_swiftwater_final1","folder":"tf","game":"Team Fortress","app_id":440,"player_count":0,"max_players":24,"Bots":0,"server_type":"Dedicated","server_os":"Linux","password":true,"vac":true,"version":"7880732","steam_id":85568392924470002,"keywords":["nocrits","nodmgspread","payload","uncletopia"],"game_id":440,"stv_port":27026,"stv_name":"Uncletopia | Sydney | 2 | All Maps | STV","players":null},{"server_id":395,"name":"Uncletopia | Sydney | 3 | All Maps","name_short":"syd-3","host":"syd-1.au.uncletopia.com","port":27035,"enabled":true,"region":"au","cc":"au","latitude":-33.865143,"longitude":151.2099,"reserved":0,"last_update":"0001-01-01T00:00:00Z","name_a2s":"Uncletopia | Sydney | 3 | All Maps","protocol":17,"map":"koth_viaduct","folder":"tf","game":"Team Fortress","app_id":440,"player_count":0,"max_players":24,"Bots":0,"server_type":"Dedicated","server_os":"Linux","password":true,"vac":true,"version":"7880732","steam_id":85568392925194467,"keywords":["cp","nocrits","nodmgspread","uncletopia"],"game_id":440,"stv_port":27036,"stv_name":"Uncletopia | Sydney | 3 | All Maps | STV","players":null},{"server_id":396,"name":"Uncletopia | Sydney | 4 | All Maps","name_short":"syd-4","host":"syd-1.au.uncletopia.com","port":27045,"enabled":true,"region":"au","cc":"au","latitude":-33.865143,"longitude":151.2099,"reserved":0,"last_update":"0001-01-01T00:00:00Z","name_a2s":"Uncletopia | Sydney | 4 | All Maps","protocol":17,"map":"pl_upward","folder":"tf","game":"Team Fortress","app_id":440,"player_count":0,"max_players":24,"Bots":0,"server_type":"Dedicated","server_os":"Linux","password":true,"vac":true,"version":"7880732","steam_id":85568392925397958,"keywords":["nocrits","nodmgspread","payload","uncletopia"],"game_id":440,"stv_port":27046,"stv_name":"Uncletopia | Sydney | 4 | All Maps | STV","players":null},{"server_id":58,"name":"Uncletopia | Sydney | 5 | Stopwatch Beta","name_short":"syd-5","host":"syd-1.au.uncletopia.com","port":27055,"enabled":true,"region":"au","cc":"au","latitude":-33.865143,"longitude":151.2099,"reserved":0,"last_update":"0001-01-01T00:00:00Z","name_a2s":"Uncletopia | Sydney | 5 | Stopwatch Beta","protocol":17,"map":"cp_altitude","folder":"tf","game":"Team Fortress","app_id":440,"player_count":0,"max_players":24,"Bots":0,"server_type":"Dedicated","server_os":"Linux","password":true,"vac":true,"version":"7880732","steam_id":85568392925397959,"keywords":["cp","nocrits","nodmgspread","uncletopia"],"game_id":440,"stv_port":27056,"stv_name":"Uncletopia | Sydney | 5 | Stopwatch Beta | STV","players":null},{"server_id":59,"name":"Uncletopia | Sydney | 6 | Community","name_short":"syd-6","host":"syd-1.au.uncletopia.com","port":27065,"enabled":true,"region":"au","cc":"au","latitude":-33.865143,"longitude":151.2099,"reserved":0,"last_update":"0001-01-01T00:00:00Z","name_a2s":"Uncletopia | Sydney | 6 | Community","protocol":17,"map":"pl_borneo","folder":"tf","game":"Team Fortress","app_id":440,"player_count":0,"max_players":24,"Bots":0,"server_type":"Dedicated","server_os":"Linux","password":true,"vac":true,"version":"7880732","steam_id":85568392925397960,"keywords":["nocrits","nodmgspread","payload","uncletopia"],"game_id":440,"stv_port":27066,"stv_name":"Uncletopia | Sydney | 6 | Community | STV","players":null},{"server_id":49,"name":"Uncletopia | Warsaw | 1 | All Maps","name_short":"waw-1","host":"waw-1.pl.uncletopia.com","port":27015,"enabled":true,"region":"eu","cc":"pl","latitude":52.2297,"longitude":21.017532,"reserved":0,"last_update":"0001-01-01T00:00:00Z","name_a2s":"","protocol":0,"map":"","folder":"","game":"","app_id":0,"player_count":0,"max_players":0,"Bots":0,"server_type":"","server_os":"","password":false,"vac":false,"version":"","steam_id":0,"keywords":null,"game_id":0,"stv_port":0,"stv_name":"","players":null},{"server_id":50,"name":"Uncletopia | Warsaw | 2 | All Maps","name_short":"waw-2","host":"waw-1.pl.uncletopia.com","port":27025,"enabled":true,"region":"eu","cc":"pl","latitude":52.2297,"longitude":21.017532,"reserved":0,"last_update":"0001-01-01T00:00:00Z","name_a2s":"Uncletopia | Warsaw | 2 | All Maps","protocol":17,"map":"cp_yukon_final","folder":"tf","game":"Team Fortress","app_id":440,"player_count":0,"max_players":24,"Bots":0,"server_type":"Dedicated","server_os":"Linux","password":true,"vac":true,"version":"7880732","steam_id":85568392925397851,"keywords":["cp","nocrits","nodmgspread","uncletopia"],"game_id":440,"stv_port":27026,"stv_name":"Uncletopia | Warsaw | 2 | All Maps | STV","players":null},{"server_id":51,"name":"Uncletopia | Warsaw | 3 | All Maps","name_short":"waw-3","host":"waw-1.pl.uncletopia.com","port":27035,"enabled":true,"region":"eu","cc":"pl","latitude":52.2297,"longitude":21.017532,"reserved":0,"last_update":"0001-01-01T00:00:00Z","name_a2s":"Uncletopia | Warsaw | 3 | All Maps","protocol":17,"map":"cp_yukon_final","folder":"tf","game":"Team Fortress","app_id":440,"player_count":0,"max_players":24,"Bots":0,"server_type":"Dedicated","server_os":"Linux","password":true,"vac":true,"version":"7880732","steam_id":85568392925397852,"keywords":["cp","nocrits","nodmgspread","uncletopia"],"game_id":440,"stv_port":27036,"stv_name":"Uncletopia | Warsaw | 3 | All Maps | STV","players":null},{"server_id":52,"name":"Uncletopia | Warsaw | 4 | All Maps","name_short":"waw-4","host":"waw-1.pl.uncletopia.com","port":27045,"enabled":true,"region":"eu","cc":"pl","latitude":52.2297,"longitude":21.017532,"reserved":0,"last_update":"0001-01-01T00:00:00Z","name_a2s":"Uncletopia | Warsaw | 4 | All Maps","protocol":17,"map":"cp_yukon_final","folder":"tf","game":"Team Fortress","app_id":440,"player_count":0,"max_players":24,"Bots":0,"server_type":"Dedicated","server_os":"Linux","password":true,"vac":true,"version":"7880732","steam_id":85568392925397853,"keywords":["cp","nocrits","nodmgspread","uncletopia"],"game_id":440,"stv_port":27046,"stv_name":"Uncletopia | Warsaw | 4 | All Maps | STV","players":null},{"server_id":53,"name":"Uncletopia | Warsaw | 5 | Stopwatch Beta","name_short":"waw-5","host":"waw-1.pl.uncletopia.com","port":27055,"enabled":true,"region":"eu","cc":"pl","latitude":52.2297,"longitude":21.017532,"reserved":0,"last_update":"0001-01-01T00:00:00Z","name_a2s":"Uncletopia | Warsaw | 5 | Stopwatch Beta","protocol":17,"map":"workshop/koth_ramjam_rc1.ugc459778887","folder":"tf","game":"Team Fortress","app_id":440,"player_count":0,"max_players":24,"Bots":0,"server_type":"Dedicated","server_os":"Linux","password":true,"vac":true,"version":"7880732","steam_id":85568392925397854,"keywords":["cp","nocrits","nodmgspread","uncletopia"],"game_id":440,"stv_port":27056,"stv_name":"Uncletopia | Warsaw | 5 | Stopwatch Beta | STV","players":null},{"server_id":54,"name":"Uncletopia | Warsaw | 6 | Community","name_short":"waw-6","host":"waw-1.pl.uncletopia.com","port":27065,"enabled":true,"region":"eu","cc":"pl","latitude":52.2297,"longitude":21.017532,"reserved":0,"last_update":"0001-01-01T00:00:00Z","name_a2s":"Uncletopia | Warsaw | 6 | Community","protocol":17,"map":"workshop/rd_asteroid_redux_b1.ugc2154902912","folder":"tf","game":"Team Fortress","app_id":440,"player_count":0,"max_players":24,"Bots":0,"server_type":"Dedicated","server_os":"Linux","password":true,"vac":true,"version":"7880732","steam_id":85568392925397856,"keywords":["beta","nocrits","nodmgspread","rd","uncletopia"],"game_id":440,"stv_port":27066,"stv_name":"Uncletopia | Warsaw | 6 | Community | STV","players":null}]}