{"status":true,"message":"","result":[{"server_id":9,"name":"Uncletopia | Atlanta | 1 | All Maps","name_short":"atl-1","host":"atl-1.us.uncletopia.com","port":27015,"enabled":true,"region":"us-east","cc":"us","latitude":33.753746,"longitude":-84.38633,"reserved":0,"last_update":"0001-01-01T00:00:00Z","name_a2s":"Uncletopia | Atlanta | 1 | All Maps","protocol":17,"map":"pl_badwater","folder":"tf","game":"Team Fortress","app_id":440,"player_count":24,"max_players":24,"Bots":0,"server_type":"Dedicated","server_os":"Linux","password":true,"vac":true,"version":"7708610","steam_id":85568392924469982,"keywords":["nocrits","nodmgspread","payload","uncletopia"],"game_id":440,"stv_port":27016,"stv_name":"Uncletopia | Atlanta | 1 | All Maps | STV","players":[{"user_id":233,"name":"FatCuddlyBear","steam_id":76561198133613253,"connected_time":1060000000000,"state":"active","ping":84},{"user_id":215,"name":"Oak","steam_id":76561198092135570,"connected_time":2805000000000,"state":"active","ping":60},{"user_id":208,"name":"ATL1 | Crystron","steam_id":76561198880437428,"connected_time":2997000000000,"state":"active","ping":81},{"user_id":204,"name":"jacobobxbackup01","steam_id":76561199441787165,"connected_time":3143000000000,"state":"active","ping":92},{"user_id":195,"name":"ATL1 | Phestive Phango","steam_id":76561198069811545,"connected_time":4161000000000,"state":"active","ping":45},{"user_id":236,"name":"Jin","steam_id":76561198119873148,"connected_time":1039000000000,"state":"active","ping":65},{"user_id":237,"name":"Singularity","steam_id":76561198000284742,"connected_time":973000000000,"state":"active","ping":49},{"user_id":242,"name":"ceorr","steam_id":76561198079841014,"connected_time":144000000000,"state":"active","ping":82},{"user_id":216,"name":"Quiggles","steam_id":76561199177247655,"connected_time":2802000000000,"state":"active","ping":74},{"user_id":185,"name":"ATL1 | Sunny004","steam_id":76561198105397410,"connected_time":4543000000000,"state":"active","ping":60},{"user_id":243,"name":"V!CT!M","steam_id":76561198962721502,"connected_time":143000000000,"state":"active","ping":82},{"user_id":228,"name":"ATL1 | a very merry ma0re","steam_id":76561199231971506,"connected_time":1131000000000,"state":"active","ping":61},{"user_id":101,"name":"I'm Only 4 Inches","steam_id":76561198055542546,"connected_time":14664000000000,"state":"active","ping":60},{"user_id":176,"name":"Stampdawg","steam_id":76561198050500060,"connected_time":5235000000000,"state":"active","ping":86},{"user_id":230,"name":"cola","steam_id":76561198374390458,"connected_time":1114000000000,"state":"active","ping":57},{"user_id":234,"name":"ATL1 | Kramer","steam_id":76561198083595936,"connected_time":1058000000000,"state":"active","ping":87},{"user_id":232,"name":"Zamich","steam_id":76561198087033116,"connected_time":1070000000000,"state":"active","ping":64},{"user_id":136,"name":"Medic","steam_id":76561198067869016,"connected_time":10839000000000,"state":"active","ping":68},{"user_id":210,"name":"Festive Fire Starting Rock","steam_id":76561198066547582,"connected_time":2960000000000,"state":"active","ping":109},{"user_id":214,"name":"Sm0ky","steam_id":76561198418262145,"connected_time":2894000000000,"state":"active","ping":108},{"user_id":211,"name":"--_Cook_--","steam_id":76561198080855748,"connected_time":2959000000000,"state":"active","ping":49},{"user_id":239,"name":"yesno","steam_id":76561198067156972,"connected_time":838000000000,"state":"active","ping":79},{"user_id":153,"name":"ATL0 Dedi Le4n!!!","steam_id":76561198045522596,"connected_time":7995000000000,"state":"active","ping":72},{"user_id":220,"name":"PsyLucky","steam_id":76561198170458501,"connected_time":2463000000000,"state":"active","ping":66}]},{"server_id":400,"name":"Uncletopia | Atlanta | 3 | All Maps","name_short":"atl-3","host":"atl-1.us.uncletopia.com","port":27035,"enabled":true,"region":"us-east","cc":"us","latitude":33.753746,"longitude":-84.38633,"reserved":0,"last_update":"0001-01-01T00:00:00Z","name_a2s":"Uncletopia | Atlanta | 3 | All Maps","protocol":17,"map":"pl_goldrush","folder":"tf","game":"Team Fortress","app_id":440,"player_count":23,"max_players":24,"Bots":0,"server_type":"Dedicated","server_os":"Linux","password":true,"vac":true,"version":"7708610","steam_id":85568392924515187,"keywords":["nocrits","nodmgspread","payload","uncletopia"],"game_id":440,"stv_port":27036,"stv_name":"Uncletopia | Atlanta | 3 | All Maps | STV","players":[{"user_id":249,"name":"Jordicr100","steam_id":76561198030999491,"connected_time":1326000000000,"state":"active","ping":104},{"user_id":240,"name":"Epicus Lusor","steam_id":76561198271981088,"connected_time":1563000000000,"state":"active","ping":81},{"user_id":260,"name":"Carl","steam_id":76561198103072673,"connected_time":563000000000,"state":"active","ping":82},{"user_id":261,"name":"Radical Centrist","steam_id":76561198071883643,"connected_time":561000000000,"state":"active","ping":76},{"user_id":264,"name":"punkly","steam_id":76561198129831492,"connected_time":259000000000,"state":"active","ping":64},{"user_id":242,"name":"SomeRandomPerson (F2p)","steam_id":76561198977045933,"connected_time":1529000000000,"state":"active","ping":87},{"user_id":245,"name":"Bad eyez","steam_id":76561198050344029,"connected_time":1423000000000,"state":"active","ping":78},{"user_id":208,"name":"Cyclops_672","steam_id":76561198080169497,"connected_time":3149000000000,"state":"active","ping":51},{"user_id":263,"name":"Chimpish","steam_id":76561199263493270,"connected_time":533000000000,"state":"active","ping":80},{"user_id":233,"name":"Worml1ps","steam_id":76561198108185717,"connected_time":1858000000000,"state":"active","ping":93},{"user_id":213,"name":"A_Malebolgia","steam_id":76561198097722818,"connected_time":2972000000000,"state":"active","ping":88},{"user_id":226,"name":"TheParanoidAndroid","steam_id":76561198024940715,"connected_time":2050000000000,"state":"active","ping":79},{"user_id":246,"name":"Kai","steam_id":76561198070046399,"connected_time":1410000000000,"state":"active","ping":73},{"user_id":247,"name":"Styx","steam_id":76561198104657428,"connected_time":1368000000000,"state":"active","ping":50},{"user_id":250,"name":"Shokkcult","steam_id":76561198200141882,"connected_time":1325000000000,"state":"active","ping":63},{"user_id":251,"name":"febfowl","steam_id":76561198023888890,"connected_time":1321000000000,"state":"active","ping":67},{"user_id":230,"name":"UNIT 220","steam_id":76561198042243497,"connected_time":1987000000000,"state":"active","ping":76},{"user_id":200,"name":"ACrispSlimJim","steam_id":76561198145913920,"connected_time":3357000000000,"state":"active","ping":61},{"user_id":178,"name":"Red","steam_id":76561197998285162,"connected_time":5145000000000,"state":"active","ping":86},{"user_id":212,"name":"Importality","steam_id":76561198049943127,"connected_time":3007000000000,"state":"active","ping":88},{"user_id":253,"name":"Gibby","steam_id":76561199336569123,"connected_time":1308000000000,"state":"active","ping":175},{"user_id":255,"name":"M@dH@tter0","steam_id":76561199148773626,"connected_time":1228000000000,"state":"active","ping":118},{"user_id":257,"name":"Snazzi","steam_id":76561198085208276,"connected_time":939000000000,"state":"active","ping":70}]},{"server_id":401,"name":"Uncletopia | Atlanta | 4 | No Payload","name_short":"atl-4","host":"atl-1.us.uncletopia.com","port":27045,"enabled":true,"region":"us-east","cc":"us","latitude":33.753746,"longitude":-84.38633,"reserved":0,"last_update":"0001-01-01T00:00:00Z","name_a2s":"Uncletopia | Atlanta | 4 | No Payload","protocol":17,"map":"koth_nucleus","folder":"tf","game":"Team Fortress","app_id":440,"player_count":2,"max_players":24,"Bots":0,"server_type":"Dedicated","server_os":"Linux","password":true,"vac":true,"version":"7708610","steam_id":85568392924515188,"keywords":["cp","nocrits","nodmgspread","uncletopia"],"game_id":440,"stv_port":27046,"stv_name":"Uncletopia | Atlanta | 4 | No Payload | STV","players":[{"user_id":119,"name":"dispener?","steam_id":76561197979090955,"connected_time":1741000000000,"state":"active","ping":54},{"user_id":106,"name":"KrashBoomBang","steam_id":76561199002978777,"connected_time":3625000000000,"state":"active","ping":62}]},{"server_id":2,"name":"Uncletopia | Chicago | 1 | All Maps","name_short":"chi-1","host":"chi-1.us.uncletopia.com","port":27015,"enabled":true,"region":"us-central","cc":"us","latitude":41.881832,"longitude":-87.62318,"reserved":0,"last_update":"0001-01-01T00:00:00Z","name_a2s":"Uncletopia | Chicago | 1 | All Maps","protocol":17,"map":"pl_frontier_final","folder":"tf","game":"Team Fortress","app_id":440,"player_count":24,"max_players":24,"Bots":0,"server_type":"Dedicated","server_os":"Linux","password":true,"vac":true,"version":"7708610","steam_id":85568392924469984,"keywords":["nocrits","nodmgspread","payload","uncletopia"],"game_id":440,"stv_port":27016,"stv_name":"Uncletopia | Chicago | 1 | All Maps | STV","players":[{"user_id":451,"name":"bardy","steam_id":76561198043639662,"connected_time":3179000000000,"state":"active","ping":71},{"user_id":483,"name":"im trying my best","steam_id":76561198919095185,"connected_time":398000000000,"state":"active","ping":61},{"user_id":476,"name":"Skelitor ‚ú™","steam_id":76561198043885634,"connected_time":1569000000000,"state":"active","ping":79},{"user_id":461,"name":"Rein","steam_id":76561198300340427,"connected_time":2253000000000,"state":"active","ping":64},{"user_id":481,"name":"Ras","steam_id":76561198123546775,"connected_time":441000000000,"state":"active","ping":58},{"user_id":469,"name":"Bird","steam_id":76561198247484514,"connected_time":1856000000000,"state":"active","ping":68},{"user_id":470,"name":"[]{}#^*+=","steam_id":76561198127039453,"connected_time":1849000000000,"state":"active","ping":85},{"user_id":433,"name":"what","steam_id":76561198082336619,"connected_time":5024000000000,"state":"active","ping":74},{"user_id":466,"name":"Quansen","steam_id":76561198151594550,"connected_time":1935000000000,"state":"active","ping":59},{"user_id":479,"name":"DuckKey","steam_id":76561198904477889,"connected_time":916000000000,"state":"active","ping":54},{"user_id":409,"name":"{[F.H]} Hydroida","steam_id":76561197999797274,"connected_time":6437000000000,"state":"active","ping":55},{"user_id":484,"name":"‚Ä∫ snow","steam_id":76561198109783729,"connected_time":398000000000,"state":"active","ping":49},{"user_id":472,"name":"agentish","steam_id":76561198055088122,"connected_time":1835000000000,"state":"active","ping":53},{"user_id":414,"name":"Potato","steam_id":76561198989551964,"connected_time":6074000000000,"state":"active","ping":62},{"user_id":237,"name":"Potato-Protein-Pancake","steam_id":76561198027198306,"connected_time":19516000000000,"state":"active","ping":59},{"user_id":485,"name":"Candy Sparkles","steam_id":76561198126871264,"connected_time":246000000000,"state":"active","ping":81},{"user_id":473,"name":"LevelZ3R0","steam_id":76561199239710681,"connected_time":1808000000000,"state":"active","ping":123},{"user_id":463,"name":"Level 1 Crook","steam_id":76561198441098132,"connected_time":2047000000000,"state":"active","ping":59},{"user_id":478,"name":"Caught a Thundah","steam_id":76561198054495572,"connected_time":932000000000,"state":"active","ping":82},{"user_id":436,"name":"stealthy","steam_id":76561198071386492,"connected_time":4474000000000,"state":"active","ping":62},{"user_id":486,"name":"Goldbug","steam_id":76561198025221202,"connected_time":242000000000,"state":"active","ping":101},{"user_id":477,"name":"Curly-Haired Rogue","steam_id":76561198101915594,"connected_time":1372000000000,"state":"active","ping":87},{"user_id":453,"name":"InherentlyGu","steam_id":76561198208785211,"connected_time":2927000000000,"state":"active","ping":59},{"user_id":424,"name":"BillButtLicker69","steam_id":76561198070119268,"connected_time":5401000000000,"state":"active","ping":96}]},{"server_id":106,"name":"Uncletopia | Chicago | 2 | All Maps","name_short":"chi-2","host":"chi-1.us.uncletopia.com","port":27025,"enabled":true,"region":"us-central","cc":"us","latitude":41.881832,"longitude":-87.62318,"reserved":0,"last_update":"0001-01-01T00:00:00Z","name_a2s":"Uncletopia | Chicago | 2 | All Maps","protocol":17,"map":"pl_barnblitz","folder":"tf","game":"Team Fortress","app_id":440,"player_count":24,"max_players":24,"Bots":0,"server_type":"Dedicated","server_os":"Linux","password":true,"vac":true,"version":"7708610","steam_id":85568392924469985,"keywords":["nocrits","nodmgspread","payload","uncletopia"],"game_id":440,"stv_port":27026,"stv_name":"Uncletopia | Chicago | 2 | All Maps | STV","players":[{"user_id":301,"name":"fat tits haver","steam_id":76561198081681647,"connected_time":3085000000000,"state":"active","ping":62},{"user_id":307,"name":"Supr","steam_id":76561198093790672,"connected_time":2884000000000,"state":"active","ping":55},{"user_id":353,"name":"breakneck","steam_id":76561198205386960,"connected_time":104000000000,"state":"active","ping":74},{"user_id":251,"name":"Brown_Dream","steam_id":76561198975766145,"connected_time":6854000000000,"state":"active","ping":68},{"user_id":275,"name":"Liquid Metal Slime from DQ9","steam_id":76561198061621275,"connected_time":5217000000000,"state":"active","ping":69},{"user_id":335,"name":"Enderneer","steam_id":76561198012136653,"connected_time":1051000000000,"state":"active","ping":53},{"user_id":337,"name":"P-4rio","steam_id":76561198003593070,"connected_time":1015000000000,"state":"active","ping":60},{"user_id":350,"name":"SkillfulDeezBanana","steam_id":76561199038468789,"connected_time":333000000000,"state":"active","ping":67},{"user_id":314,"name":"Nobuunga","steam_id":76561198100614981,"connected_time":2779000000000,"state":"active","ping":76},{"user_id":352,"name":"Capt.Swag","steam_id":76561198088340994,"connected_time":162000000000,"state":"active","ping":72},{"user_id":302,"name":"clavin_","steam_id":76561198046398447,"connected_time":3084000000000,"state":"active","ping":45},{"user_id":328,"name":"cringeass nae-nae girl","steam_id":76561198108753857,"connected_time":2189000000000,"state":"active","ping":75},{"user_id":338,"name":"boydicicco","steam_id":76561197980329684,"connected_time":1005000000000,"state":"active","ping":66},{"user_id":322,"name":"MrrPamplemousse","steam_id":76561198072241333,"connected_time":2497000000000,"state":"active","ping":69},{"user_id":315,"name":"Discourse","steam_id":76561198984286678,"connected_time":2777000000000,"state":"active","ping":50},{"user_id":305,"name":"„É¨„Ç™„É≥„Éª„Ç±„Éç„Éá„Ç£„ÅÆÂ¶ª","steam_id":76561198055186751,"connected_time":3056000000000,"state":"active","ping":70},{"user_id":339,"name":"gorf?","steam_id":76561198142286417,"connected_time":1004000000000,"state":"active","ping":59},{"user_id":317,"name":"baseball22","steam_id":76561198165299077,"connected_time":2765000000000,"state":"active","ping":66},{"user_id":326,"name":"pizzaguy4","steam_id":76561198058821622,"connected_time":2441000000000,"state":"active","ping":88},{"user_id":341,"name":"BIGGEST MAC","steam_id":76561198847517098,"connected_time":988000000000,"state":"active","ping":82},{"user_id":342,"name":"skaj","steam_id":76561198082278586,"connected_time":970000000000,"state":"active","ping":73},{"user_id":253,"name":"Brandino!","steam_id":76561198000446932,"connected_time":6349000000000,"state":"active","ping":71},{"user_id":347,"name":"ight gaming","steam_id":76561199196558677,"connected_time":800000000000,"state":"active","ping":90},{"user_id":351,"name":"El Wiwi","steam_id":76561199107383718,"connected_time":332000000000,"state":"active","ping":61}]},{"server_id":402,"name":"Uncletopia | Chicago | 3 | All Maps","name_short":"chi-3","host":"chi-1.us.uncletopia.com","port":27035,"enabled":true,"region":"us-central","cc":"us","latitude":41.881832,"longitude":-87.62318,"reserved":0,"last_update":"0001-01-01T00:00:00Z","name_a2s":"Uncletopia | Chicago | 3 | All Maps","protocol":17,"map":"pl_pier","folder":"tf","game":"Team Fortress","app_id":440,"player_count":24,"max_players":24,"Bots":0,"server_type":"Dedicated","server_os":"Linux","password":true,"vac":true,"version":"7708610","steam_id":85568392924515191,"keywords":["nocrits","nodmgspread","payload","uncletopia"],"game_id":440,"stv_port":27036,"stv_name":"Uncletopia | Chicago | 3 | All Maps | STV","players":[{"user_id":138,"name":"Kaluka","steam_id":76561198036861445,"connected_time":2212000000000,"state":"active","ping":80},{"user_id":164,"name":"Taro","steam_id":76561198146782074,"connected_time":531000000000,"state":"active","ping":56},{"user_id":96,"name":"tofu yum yum","steam_id":76561198026589960,"connected_time":5075000000000,"state":"active","ping":59},{"user_id":156,"name":"Money Collector","steam_id":76561198046249467,"connected_time":727000000000,"state":"active","ping":47},{"user_id":25,"name":"bane","steam_id":76561198196769297,"connected_time":7177000000000,"state":"active","ping":52},{"user_id":158,"name":"Pan Wizard","steam_id":76561198031939694,"connected_time":687000000000,"state":"active","ping":65},{"user_id":127,"name":"atserc","steam_id":76561197997570349,"connected_time":2622000000000,"state":"active","ping":110},{"user_id":28,"name":"merry math #playoffsmode","steam_id":76561198053967778,"connected_time":7057000000000,"state":"active","ping":60},{"user_id":153,"name":"jedi","steam_id":76561198284388342,"connected_time":1080000000000,"state":"active","ping":46},{"user_id":63,"name":"really hot pocket","steam_id":76561198239297686,"connected_time":5767000000000,"state":"active","ping":62},{"user_id":165,"name":"Johnny Lawrence #JohnnyMaxxing","steam_id":76561199367141671,"connected_time":508000000000,"state":"active","ping":60},{"user_id":151,"name":"anna KUSH","steam_id":76561199100831175,"connected_time":1132000000000,"state":"active","ping":60},{"user_id":119,"name":"Venk","steam_id":76561198251131422,"connected_time":3173000000000,"state":"active","ping":64},{"user_id":154,"name":"vandeer","steam_id":76561198120124007,"connected_time":940000000000,"state":"active","ping":90},{"user_id":128,"name":"Dark Horse","steam_id":76561198121786844,"connected_time":2587000000000,"state":"active","ping":86},{"user_id":100,"name":"erik1983_v2","steam_id":76561198235875882,"connected_time":4433000000000,"state":"active","ping":66},{"user_id":102,"name":"Wild_Rumpus","steam_id":76561198066393719,"connected_time":4267000000000,"state":"active","ping":72},{"user_id":157,"name":"jeff","steam_id":76561198059450566,"connected_time":693000000000,"state":"active","ping":56},{"user_id":144,"name":"Frongus","steam_id":76561197979056451,"connected_time":2120000000000,"state":"active","ping":93},{"user_id":162,"name":"gravid baby","steam_id":76561198318646867,"connected_time":581000000000,"state":"active","ping":61},{"user_id":143,"name":"10-KO!","steam_id":76561199134895220,"connected_time":2124000000000,"state":"active","ping":73},{"user_id":155,"name":"Amauri","steam_id":76561198130809137,"connected_time":828000000000,"state":"active","ping":82},{"user_id":163,"name":"thanksgiving turkey","steam_id":76561198976876859,"connected_time":581000000000,"state":"active","ping":85},{"user_id":111,"name":"Big Tobacco","steam_id":76561198130165656,"connected_time":3775000000000,"state":"active","ping":52}]},{"server_id":403,"name":"Uncletopia | Chicago | 4 | All Maps","name_short":"chi-4","host":"chi-1.us.uncletopia.com","port":27045,"enabled":true,"region":"us-central","cc":"us","latitude":41.881832,"longitude":-87.62318,"reserved":0,"last_update":"0001-01-01T00:00:00Z","name_a2s":"Uncletopia | Chicago | 4 | All Maps","protocol":17,"map":"pl_badwater","folder":"tf","game":"Team Fortress","app_id":440,"player_count":24,"max_players":24,"Bots":0,"server_type":"Dedicated","server_os":"Linux","password":true,"vac":true,"version":"7708610","steam_id":85568392924515193,"keywords":["nocrits","nodmgspread","payload","uncletopia"],"game_id":440,"stv_port":27046,"stv_name":"Uncletopia | Chicago | 4 | All Maps | STV","players":[{"user_id":314,"name":"Now I'm a Little Motivated","steam_id":76561198069580305,"connected_time":1184000000000,"state":"active","ping":56},{"user_id":300,"name":"Greaseball","steam_id":76561198240220178,"connected_time":1570000000000,"state":"active","ping":47},{"user_id":276,"name":"CFGU || RAWRWAFL","steam_id":76561198032118386,"connected_time":2779000000000,"state":"active","ping":88},{"user_id":287,"name":"triangleman","steam_id":76561198972733542,"connected_time":2352000000000,"state":"active","ping":62},{"user_id":315,"name":"Miller‚Ñ¢","steam_id":76561198085090516,"connected_time":1176000000000,"state":"active","ping":85},{"user_id":307,"name":"Jeffenthropus","steam_id":76561198134204248,"connected_time":1253000000000,"state":"active","ping":66},{"user_id":316,"name":"KingTinkerer","steam_id":76561198226856548,"connected_time":1174000000000,"state":"active","ping":82},{"user_id":317,"name":"Black Face Ben","steam_id":76561198114237654,"connected_time":1160000000000,"state":"active","ping":75},{"user_id":219,"name":"McNamJam","steam_id":76561198028128686,"connected_time":6140000000000,"state":"active","ping":96},{"user_id":312,"name":"Bluebird","steam_id":76561199143106401,"connected_time":1190000000000,"state":"active","ping":71},{"user_id":261,"name":"Zaibar","steam_id":76561199038467562,"connected_time":4116000000000,"state":"active","ping":80},{"user_id":304,"name":"hoboways","steam_id":76561198168035195,"connected_time":1328000000000,"state":"active","ping":82},{"user_id":273,"name":"valtiel","steam_id":76561198165212575,"connected_time":3330000000000,"state":"active","ping":72},{"user_id":280,"name":"Patrick Bateman","steam_id":76561198368354307,"connected_time":2613000000000,"state":"active","ping":60},{"user_id":289,"name":"keffers | Chrimbus Time","steam_id":76561198202338796,"connected_time":2238000000000,"state":"active","ping":74},{"user_id":321,"name":"mah dood","steam_id":76561198970102360,"connected_time":730000000000,"state":"active","ping":109},{"user_id":310,"name":"Booger Brother","steam_id":76561198352111586,"connected_time":1199000000000,"state":"active","ping":53},{"user_id":286,"name":"IPlayGamez","steam_id":76561198041387508,"connected_time":2379000000000,"state":"active","ping":62},{"user_id":318,"name":"Calamant","steam_id":76561198054650483,"connected_time":1117000000000,"state":"active","ping":72},{"user_id":309,"name":"frid","steam_id":76561198005806915,"connected_time":1236000000000,"state":"active","ping":60},{"user_id":291,"name":"Diplodocus","steam_id":76561198023323121,"connected_time":2217000000000,"state":"active","ping":103},{"user_id":297,"name":"bite of 87 (real NOT CLICKBAIT)","steam_id":76561198045832398,"connected_time":1716000000000,"state":"active","ping":85},{"user_id":320,"name":"GoldenX","steam_id":76561199040724918,"connected_time":1100000000000,"state":"active","ping":59},{"user_id":313,"name":"Chris","steam_id":76561197970315094,"connected_time":1190000000000,"state":"active","ping":56}]},{"server_id":36,"name":"Uncletopia | Chicago | 5 | All Maps","name_short":"chi-5","host":"chi-2.us.uncletopia.com","port":27015,"enabled":true,"region":"us-central","cc":"us","latitude":41.881832,"longitude":-87.62318,"reserved":0,"last_update":"0001-01-01T00:00:00Z","name_a2s":"Uncletopia | Chicago | 5 | All Maps","protocol":17,"map":"koth_lakeside_final","folder":"tf","game":"Team Fortress","app_id":440,"player_count":0,"max_players":24,"Bots":0,"server_type":"Dedicated","server_os":"Linux","password":true,"vac":true,"version":"7708610","steam_id":85568392924866362,"keywords":["cp","nocrits","nodmgspread","uncletopia"],"game_id":440,"stv_port":27016,"stv_name":"Uncletopia | Chicago | 5 | All Maps | STV","players":null},{"server_id":37,"name":"Uncletopia | Chicago | 6 | All Maps","name_short":"chi-6","host":"chi-2.us.uncletopia.com","port":27025,"enabled":true,"region":"us-central","cc":"us","latitude":41.881832,"longitude":-87.62318,"reserved":0,"last_update":"0001-01-01T00:00:00Z","name_a2s":"Uncletopia | Chicago | 6 | All Maps","protocol":17,"map":"koth_highpass","folder":"tf","game":"Team Fortress","app_id":440,"player_count":0,"max_players":24,"Bots":0,"server_type":"Dedicated","server_os":"Linux","password":true,"vac":true,"version":"7708610","steam_id":85568392924866363,"keywords":["cp","nocrits","nodmgspread","uncletopia"],"game_id":440,"stv_port":27026,"stv_name":"Uncletopia | Chicago | 6 | All Maps | STV","players":null},{"server_id":38,"name":"Uncletopia | Chicago | 7 | No Payload","name_short":"chi-7","host":"chi-2.us.uncletopia.com","port":27035,"enabled":true,"region":"us-central","cc":"us","latitude":41.881832,"longitude":-87.62318,"reserved":0,"last_update":"0001-01-01T00:00:00Z","name_a2s":"Uncletopia | Chicago | 7 | No Payload","protocol":17,"map":"cp_junction_final","folder":"tf","game":"Team Fortress","app_id":440,"player_count":0,"max_players":24,"Bots":0,"server_type":"Dedicated","server_os":"Linux","password":true,"vac":true,"version":"7708610","steam_id":85568392924866364,"keywords":["cp","nocrits","nodmgspread","uncletopia"],"game_id":440,"stv_port":27036,"stv_name":"Uncletopia | Chicago | 7 | No Payload | STV","players":null},{"server_id":39,"name":"Uncletopia | Chicago | 8 | Community","name_short":"chi-8","host":"chi-2.us.uncletopia.com","port":27045,"enabled":true,"region":"us-central","cc":"us","latitude":41.881832,"longitude":-87.62318,"reserved":0,"last_update":"0001-01-01T00:00:00Z","name_a2s":"Uncletopia | Chicago | 8 | Community","protocol":17,"map":"workshop/cp_caldera_rc2.ugc2834196889","folder":"tf","game":"Team Fortress","app_id":440,"player_count":1,"max_players":24,"Bots":0,"server_type":"Dedicated","server_os":"Linux","password":true,"vac":true,"version":"7708610","steam_id":85568392924866365,"keywords":["cp","nocrits","nodmgspread","uncletopia"],"game_id":440,"stv_port":27046,"stv_name":"Uncletopia | Chicago | 8 | Community | STV","players":[{"user_id":5,"name":"ankle pain (real)","steam_id":76561199416910731,"connected_time":67000000000,"state":"active","ping":49}]},{"server_id":8,"name":"Uncletopia | Dallas | 1 | All Maps","name_short":"dal-1","host":"dal-1.us.uncletopia.com","port":27015,"enabled":true,"region":"us-central","cc":"us","latitude":32.779167,"longitude":-96.80889,"reserved":0,"last_update":"0001-01-01T00:00:00Z","name_a2s":"Uncletopia | Dallas | 1 | All Maps","protocol":17,"map":"pl_upward","folder":"tf","game":"Team Fortress","app_id":440,"player_count":24,"max_players":24,"Bots":0,"server_type":"Dedicated","server_os":"Linux","password":true,"vac":true,"version":"7708610","steam_id":85568392924469986,"keywords":["nocrits","nodmgspread","payload","uncletopia"],"game_id":440,"stv_port":27016,"stv_name":"Uncletopia | Dallas | 1 | All Maps | STV","players":[{"user_id":22,"name":"Fishstall","steam_id":76561198038126034,"connected_time":3262000000000,"state":"active","ping":65},{"user_id":23,"name":"KindaBadToast","steam_id":76561199092185754,"connected_time":3181000000000,"state":"active","ping":47},{"user_id":28,"name":"GarretGood","steam_id":76561198071881495,"connected_time":2680000000000,"state":"active","ping":83},{"user_id":25,"name":"Huge eevee fan","steam_id":76561198128057732,"connected_time":2964000000000,"state":"active","ping":102},{"user_id":63,"name":"sex defender","steam_id":76561199122152458,"connected_time":630000000000,"state":"active","ping":56},{"user_id":70,"name":"yolginmo","steam_id":76561198157985901,"connected_time":471000000000,"state":"active","ping":106},{"user_id":57,"name":"Young-OG","steam_id":76561198058800479,"connected_time":896000000000,"state":"active","ping":80},{"user_id":56,"name":"craf","steam_id":76561198163535075,"connected_time":1065000000000,"state":"active","ping":104},{"user_id":33,"name":"Ballsack Shaver","steam_id":76561199011739378,"connected_time":2051000000000,"state":"active","ping":87},{"user_id":41,"name":"Jesus Loves You57","steam_id":76561199058833769,"connected_time":1453000000000,"state":"active","ping":83},{"user_id":61,"name":"Phosu","steam_id":76561198180162801,"connected_time":685000000000,"state":"active","ping":73},{"user_id":46,"name":"Spearit5464","steam_id":76561199241807676,"connected_time":1299000000000,"state":"active","ping":108},{"user_id":43,"name":"Tritium","steam_id":76561198043305626,"connected_time":1445000000000,"state":"active","ping":98},{"user_id":72,"name":"lag","steam_id":76561197963872739,"connected_time":65000000000,"state":"active","ping":72},{"user_id":59,"name":"++GetBand$","steam_id":76561199387433048,"connected_time":696000000000,"state":"active","ping":57},{"user_id":47,"name":"InkKnight","steam_id":76561198927983566,"connected_time":1295000000000,"state":"active","ping":162},{"user_id":48,"name":"austin lego island xtreme stunt","steam_id":76561198045655893,"connected_time":1275000000000,"state":"active","ping":90},{"user_id":49,"name":"base","steam_id":76561199031775779,"connected_time":1255000000000,"state":"active","ping":98},{"user_id":64,"name":"superx","steam_id":76561198044976613,"connected_time":625000000000,"state":"active","ping":86},{"user_id":73,"name":"pim","steam_id":76561198095163441,"connected_time":29000000000,"state":"spawning","ping":60},{"user_id":71,"name":"Stillkill","steam_id":76561198065069057,"connected_time":284000000000,"state":"active","ping":38},{"user_id":68,"name":"Birdbern","steam_id":76561198122383177,"connected_time":588000000000,"state":"active","ping":81},{"user_id":54,"name":"PizzaFratello","steam_id":76561199059951970,"connected_time":1164000000000,"state":"active","ping":81},{"user_id":60,"name":"chexo4","steam_id":76561198150532531,"connected_time":696000000000,"state":"active","ping":75}]},{"server_id":108,"name":"Uncletopia | Dallas | 2 | All Maps","name_short":"dal-2","host":"dal-1.us.uncletopia.com","port":27025,"enabled":true,"region":"us-central","cc":"us","latitude":32.779167,"longitude":-96.80889,"reserved":0,"last_update":"0001-01-01T00:00:00Z","name_a2s":"Uncletopia | Dallas | 2 | All Maps","protocol":17,"map":"pl_swiftwater_final1","folder":"tf","game":"Team Fortress","app_id":440,"player_count":14,"max_players":24,"Bots":0,"server_type":"Dedicated","server_os":"Linux","password":true,"vac":true,"version":"7708610","steam_id":85568392924469988,"keywords":["nocrits","nodmgspread","payload","uncletopia"],"game_id":440,"stv_port":27026,"stv_name":"Uncletopia | Dallas | 2 | All Maps | STV","players":[{"user_id":13,"name":"derdds","steam_id":76561198034339940,"connected_time":664000000000,"state":"active","ping":75},{"user_id":14,"name":"CandyMan","steam_id":76561198075668940,"connected_time":605000000000,"state":"active","ping":71},{"user_id":15,"name":"grafield lober","steam_id":76561198150507510,"connected_time":597000000000,"state":"active","ping":63},{"user_id":16,"name":"Kuyumiester","steam_id":76561198126835302,"connected_time":526000000000,"state":"active","ping":60},{"user_id":17,"name":"Blue Collar","steam_id":76561198354781722,"connected_time":328000000000,"state":"active","ping":81},{"user_id":18,"name":"Charlotte","steam_id":76561199084344266,"connected_time":285000000000,"state":"active","ping":77},{"user_id":20,"name":"fudo myoo","steam_id":76561198456258164,"connected_time":174000000000,"state":"active","ping":70},{"user_id":21,"name":"Professor Piper","steam_id":76561198156041205,"connected_time":145000000000,"state":"active","ping":64},{"user_id":22,"name":"Capitan Marijua","steam_id":76561199064758232,"connected_time":141000000000,"state":"active","ping":56},{"user_id":26,"name":"footoftheday","steam_id":76561198052712449,"connected_time":17000000000,"state":"active","ping":77},{"user_id":24,"name":"Fry Sauce","steam_id":76561198056328408,"connected_time":74000000000,"state":"active","ping":48},{"user_id":25,"name":"yhwach","steam_id":76561198152773225,"connected_time":26000000000,"state":"active","ping":90},{"user_id":27,"name":"The Woman Disrespecter","steam_id":76561198964373968,"connected_time":6000000000,"state":"spawning","ping":69},{"user_id":28,"name":"Mailman","steam_id":76561198090675970,"connected_time":3000000000,"state":"spawning","ping":100}]},{"server_id":5,"name":"Uncletopia | Frankfurt | 1 | All Maps","name_short":"frk-1","host":"frk-1.de.uncletopia.com","port":27015,"enabled":true,"region":"eu","cc":"de","latitude":50.110924,"longitude":8.682127,"reserved":0,"last_update":"0001-01-01T00:00:00Z","name_a2s":"Uncletopia | Frankfurt | 1 | All Maps","protocol":17,"map":"cp_snakewater_final1","folder":"tf","game":"Team Fortress","app_id":440,"player_count":0,"max_players":24,"Bots":0,"server_type":"Dedicated","server_os":"Linux","password":true,"vac":true,"version":"7708610","steam_id":85568392924469989,"keywords":["cp","nocrits","nodmgspread","uncletopia"],"game_id":440,"stv_port":27016,"stv_name":"Uncletopia | Frankfurt | 1 | All Maps | STV","players":null},{"server_id":110,"name":"Uncletopia | Frankfurt | 2 | All Maps","name_short":"frk-2","host":"frk-1.de.uncletopia.com","port":27025,"enabled":true,"region":"eu","cc":"de","latitude":50.110924,"longitude":8.682127,"reserved":0,"last_update":"0001-01-01T00:00:00Z","name_a2s":"Uncletopia | Frankfurt | 2 | All Maps","protocol":17,"map":"cp_sunshine","folder":"tf","game":"Team Fortress","app_id":440,"player_count":0,"max_players":24,"Bots":0,"server_type":"Dedicated","server_os":"Linux","password":true,"vac":true,"version":"7708610","steam_id":85568392924469990,"keywords":["cp","nocrits","nodmgspread","uncletopia"],"game_id":440,"stv_port":27026,"stv_name":"Uncletopia | Frankfurt | 2 | All Maps | STV","players":null},{"server_id":308,"name":"Uncletopia | Frankfurt | 3 | All Maps","name_short":"frk-3","host":"frk-1.de.uncletopia.com","port":27035,"enabled":true,"region":"eu","cc":"de","latitude":50.110924,"longitude":8.682127,"reserved":0,"last_update":"0001-01-01T00:00:00Z","name_a2s":"Uncletopia | Frankfurt | 3 | All Maps","protocol":17,"map":"cp_snakewater_final1","folder":"tf","game":"Team Fortress","app_id":440,"player_count":0,"max_players":24,"Bots":0,"server_type":"Dedicated","server_os":"Linux","password":true,"vac":true,"version":"7708610","steam_id":85568392924504274,"keywords":["cp","nocrits","nodmgspread","uncletopia"],"game_id":440,"stv_port":27036,"stv_name":"Uncletopia | Frankfurt | 3 | All Maps | STV","players":null},{"server_id":309,"name":"Uncletopia | Frankfurt | 4 | All Maps","name_short":"frk-4","host":"frk-1.de.uncletopia.com","port":27045,"enabled":true,"region":"eu","cc":"de","latitude":50.110924,"longitude":8.682127,"reserved":0,"last_update":"0001-01-01T00:00:00Z","name_a2s":"Uncletopia | Frankfurt | 4 | All Maps","protocol":17,"map":"cp_well","folder":"tf","game":"Team Fortress","app_id":440,"player_count":24,"max_players":24,"Bots":0,"server_type":"Dedicated","server_os":"Linux","password":true,"vac":true,"version":"7708610","steam_id":85568392924504275,"keywords":["cp","nocrits","nodmgspread","uncletopia"],"game_id":440,"stv_port":27046,"stv_name":"Uncletopia | Frankfurt | 4 | All Maps | STV","players":[{"user_id":454,"name":"Mari_Kross","steam_id":76561198130863086,"connected_time":2374000000000,"state":"active","ping":80},{"user_id":488,"name":"ZeritoPower","steam_id":76561198215274576,"connected_time":1250000000000,"state":"active","ping":146},{"user_id":444,"name":"Spaenny","steam_id":76561198035850165,"connected_time":3217000000000,"state":"active","ping":50},{"user_id":491,"name":"Krismas","steam_id":76561198021772843,"connected_time":1126000000000,"state":"active","ping":51},{"user_id":447,"name":"mrrobsa","steam_id":76561197971287215,"connected_time":2739000000000,"state":"active","ping":72},{"user_id":486,"name":"Mr Xiong from Chinatown","steam_id":76561197988802856,"connected_time":1277000000000,"state":"active","ping":55},{"user_id":489,"name":"tiia (cold hends)","steam_id":76561198046196005,"connected_time":1240000000000,"state":"active","ping":51},{"user_id":456,"name":"Holo","steam_id":76561198066985194,"connected_time":2346000000000,"state":"active","ping":87},{"user_id":452,"name":"gatherer","steam_id":76561198378235611,"connected_time":2405000000000,"state":"active","ping":75},{"user_id":497,"name":"rmz.ssj","steam_id":76561198329613930,"connected_time":904000000000,"state":"active","ping":61},{"user_id":458,"name":"Veri-merry-tasket","steam_id":76561198090074093,"connected_time":2340000000000,"state":"active","ping":64},{"user_id":513,"name":"heavy sings (real)","steam_id":76561199023804405,"connected_time":182000000000,"state":"active","ping":75},{"user_id":485,"name":"Cabbch","steam_id":76561198045955679,"connected_time":1281000000000,"state":"active","ping":55},{"user_id":498,"name":"dYnamo","steam_id":76561198448443559,"connected_time":901000000000,"state":"active","ping":68},{"user_id":493,"name":"jtnrif8dVITifirD8","steam_id":76561198057833760,"connected_time":940000000000,"state":"active","ping":79},{"user_id":496,"name":"penis haver","steam_id":76561198230735156,"connected_time":921000000000,"state":"active","ping":58},{"user_id":499,"name":"Zerfesh","steam_id":76561198117534358,"connected_time":884000000000,"state":"active","ping":96},{"user_id":500,"name":"seneca","steam_id":76561198189243221,"connected_time":850000000000,"state":"active","ping":114},{"user_id":509,"name":"The Captain","steam_id":76561198132212067,"connected_time":656000000000,"state":"active","ping":74},{"user_id":510,"name":"Heavy Box","steam_id":76561198053624882,"connected_time":610000000000,"state":"active","ping":96},{"user_id":506,"name":"Aoshi","steam_id":76561198043868358,"connected_time":766000000000,"state":"active","ping":62},{"user_id":437,"name":"Prox","steam_id":76561198351490981,"connected_time":3761000000000,"state":"active","ping":60},{"user_id":507,"name":"kbbq","steam_id":76561198346638308,"connected_time":762000000000,"state":"active","ping":60},{"user_id":511,"name":"Bv","steam_id":76561198048943710,"connected_time":531000000000,"state":"active","ping":44}]},{"server_id":310,"name":"Uncletopia | Frankfurt | 5 | All Maps","name_short":"frk-5","host":"frk-1.de.uncletopia.com","port":27055,"enabled":true,"region":"eu","cc":"de","latitude":50.110924,"longitude":8.682127,"reserved":0,"last_update":"0001-01-01T00:00:00Z","name_a2s":"Uncletopia | Frankfurt | 5 | All Maps","protocol":17,"map":"cp_altitude","folder":"tf","game":"Team Fortress","app_id":440,"player_count":0,"max_players":24,"Bots":0,"server_type":"Dedicated","server_os":"Linux","password":true,"vac":true,"version":"7708610","steam_id":85568392924504277,"keywords":["cp","nocrits","nodmgspread","uncletopia"],"game_id":440,"stv_port":27056,"stv_name":"Uncletopia | Frankfurt | 5 | All Maps | STV","players":null},{"server_id":311,"name":"Uncletopia | Frankfurt | 6 | All Maps","name_short":"frk-6","host":"frk-1.de.uncletopia.com","port":27065,"enabled":true,"region":"eu","cc":"de","latitude":50.110924,"longitude":8.682127,"reserved":0,"last_update":"0001-01-01T00:00:00Z","name_a2s":"Uncletopia | Frankfurt | 6 | All Maps","protocol":17,"map":"pl_badwater","folder":"tf","game":"Team Fortress","app_id":440,"player_count":0,"max_players":24,"Bots":0,"server_type":"Dedicated","server_os":"Linux","password":true,"vac":true,"version":"7708610","steam_id":85568392924504278,"keywords":["nocrits","nodmgspread","payload","uncletopia"],"game_id":440,"stv_port":27066,"stv_name":"Uncletopia | Frankfurt | 6 | All Maps | STV","players":null},{"server_id":23,"name":"Uncletopia | Frankfurt | 7 | No Payload","name_short":"frk-7","host":"frk-1.de.uncletopia.com","port":27075,"enabled":true,"region":"eu","cc":"de","latitude":50.110924,"longitude":8.682127,"reserved":0,"last_update":"0001-01-01T00:00:00Z","name_a2s":"Uncletopia | Frankfurt | 7 | No Payload","protocol":17,"map":"plr_hightower","folder":"tf","game":"Team Fortress","app_id":440,"player_count":0,"max_players":24,"Bots":0,"server_type":"Dedicated","server_os":"Linux","password":true,"vac":true,"version":"7708610","steam_id":85568392924742827,"keywords":["nocrits","nodmgspread","payload","uncletopia"],"game_id":440,"stv_port":27076,"stv_name":"Uncletopia | Frankfurt | 7 | No Payload | STV","players":null},{"server_id":24,"name":"Uncletopia | Frankfurt | 8 | Community","name_short":"frk-8","host":"frk-1.de.uncletopia.com","port":27085,"enabled":true,"region":"eu","cc":"de","latitude":50.110924,"longitude":8.682127,"reserved":0,"last_update":"0001-01-01T00:00:00Z","name_a2s":"Uncletopia | Frankfurt | 8 | Community","protocol":17,"map":"workshop/koth_slaughter_rc1.ugc1712845210","folder":"tf","game":"Team Fortress","app_id":440,"player_count":0,"max_players":24,"Bots":0,"server_type":"Dedicated","server_os":"Linux","password":true,"vac":true,"version":"7708610","steam_id":85568392924742828,"keywords":["cp","nocrits","nodmgspread","uncletopia"],"game_id":440,"stv_port":27086,"stv_name":"Uncletopia | Frankfurt | 8 | Community | STV","players":null},{"server_id":202,"name":"Uncletopia | Hong Kong | 1 | All Maps","name_short":"hgk-1","host":"hgk-1.hk.uncletopia.com","port":27015,"enabled":true,"region":"asia","cc":"hk","latitude":22.302711,"longitude":114.177216,"reserved":0,"last_update":"0001-01-01T00:00:00Z","name_a2s":"Uncletopia | Hong Kong | 1 | All Maps","protocol":17,"map":"koth_highpass","folder":"tf","game":"Team Fortress","app_id":440,"player_count":0,"max_players":24,"Bots":0,"server_type":"Dedicated","server_os":"Linux","password":true,"vac":true,"version":"7708610","steam_id":85568392924494504,"keywords":["cp","nocrits","nodmgspread","uncletopia"],"game_id":440,"stv_port":27016,"stv_name":"Uncletopia | Hong Kong | 1 | All Maps | STV","players":null},{"server_id":1,"name":"Uncletopia | Los Angeles | 1 | All Maps","name_short":"lax-1","host":"lax-1.us.uncletopia.com","port":27015,"enabled":true,"region":"us-west","cc":"us","latitude":33.94279,"longitude":-118.41004,"reserved":0,"last_update":"0001-01-01T00:00:00Z","name_a2s":"Uncletopia | Los Angeles | 1 | All Maps","protocol":17,"map":"pl_pier","folder":"tf","game":"Team Fortress","app_id":440,"player_count":0,"max_players":24,"Bots":0,"server_type":"Dedicated","server_os":"Linux","password":true,"vac":true,"version":"7708610","steam_id":85568392924469991,"keywords":["nocrits","nodmgspread","payload","uncletopia"],"game_id":440,"stv_port":27016,"stv_name":"Uncletopia | Los Angeles | 1 | All Maps | STV","players":null},{"server_id":112,"name":"Uncletopia | Los Angeles | 2 | All Maps","name_short":"lax-2","host":"lax-1.us.uncletopia.com","port":27025,"enabled":true,"region":"us-west","cc":"us","latitude":33.94279,"longitude":-118.41004,"reserved":0,"last_update":"0001-01-01T00:00:00Z","name_a2s":"Uncletopia | Los Angeles | 2 | All Maps","protocol":17,"map":"pl_badwater","folder":"tf","game":"Team Fortress","app_id":440,"player_count":24,"max_players":24,"Bots":0,"server_type":"Dedicated","server_os":"Linux","password":true,"vac":true,"version":"7708610","steam_id":85568392924469992,"keywords":["nocrits","nodmgspread","payload","uncletopia"],"game_id":440,"stv_port":27026,"stv_name":"Uncletopia | Los Angeles | 2 | All Maps | STV","players":[{"user_id":69,"name":"1stLemonAid","steam_id":76561198281567539,"connected_time":211000000000,"state":"active","ping":91},{"user_id":46,"name":"Gun Wizard","steam_id":76561198804859318,"connected_time":1647000000000,"state":"active","ping":129},{"user_id":40,"name":"amagicowl","steam_id":76561199060487814,"connected_time":1787000000000,"state":"active","ping":86},{"user_id":60,"name":"oil","steam_id":76561198099980149,"connected_time":682000000000,"state":"active","ping":47},{"user_id":41,"name":"Privatechan","steam_id":76561198880925798,"connected_time":1780000000000,"state":"active","ping":56},{"user_id":61,"name":"moint pan","steam_id":76561198968773067,"connected_time":603000000000,"state":"active","ping":78},{"user_id":16,"name":"Chad the Sex Haver","steam_id":76561198058236528,"connected_time":3608000000000,"state":"active","ping":52},{"user_id":42,"name":"SlitherDoodle","steam_id":76561198000275473,"connected_time":1780000000000,"state":"active","ping":55},{"user_id":68,"name":"Better","steam_id":76561198320786565,"connected_time":294000000000,"state":"active","ping":59},{"user_id":58,"name":"Chicken Xanwich","steam_id":76561199386363103,"connected_time":997000000000,"state":"active","ping":84},{"user_id":62,"name":"warpig","steam_id":76561199226313309,"connected_time":594000000000,"state":"active","ping":123},{"user_id":44,"name":"hotcheeto2006 (give me commends","steam_id":76561199069325366,"connected_time":1691000000000,"state":"active","ping":121},{"user_id":63,"name":"dandy","steam_id":76561197967362217,"connected_time":572000000000,"state":"active","ping":45},{"user_id":64,"name":"BigJugHugger","steam_id":76561198142108739,"connected_time":571000000000,"state":"active","ping":88},{"user_id":55,"name":"TemmieMelon","steam_id":76561199171591676,"connected_time":1120000000000,"state":"active","ping":61},{"user_id":56,"name":"‚ö† HazardBastard ‚ö†","steam_id":76561198056581580,"connected_time":1106000000000,"state":"active","ping":49},{"user_id":59,"name":"Donkski","steam_id":76561198406895347,"connected_time":925000000000,"state":"active","ping":78},{"user_id":65,"name":"scouty","steam_id":76561198288491241,"connected_time":567000000000,"state":"active","ping":114},{"user_id":66,"name":"shagged ur mum","steam_id":76561199443395112,"connected_time":554000000000,"state":"active","ping":97},{"user_id":45,"name":"Milk","steam_id":76561198004362373,"connected_time":1687000000000,"state":"active","ping":78},{"user_id":48,"name":"Themasterman75","steam_id":76561199385573293,"connected_time":1579000000000,"state":"active","ping":96},{"user_id":49,"name":"BlockBurst","steam_id":76561199220851075,"connected_time":1563000000000,"state":"active","ping":34},{"user_id":71,"name":"ImNotPete","steam_id":76561199354935347,"connected_time":75000000000,"state":"active","ping":119},{"user_id":70,"name":"AlvWhispery","steam_id":76561198850017423,"connected_time":209000000000,"state":"active","ping":107}]},{"server_id":324,"name":"Uncletopia | Los Angeles | 3 | All Maps","name_short":"lax-3","host":"lax-1.us.uncletopia.com","port":27035,"enabled":true,"region":"us-west","cc":"us","latitude":33.94279,"longitude":-118.41004,"reserved":0,"last_update":"0001-01-01T00:00:00Z","name_a2s":"Uncletopia | Los Angeles | 3 | All Maps","protocol":17,"map":"pl_goldrush","folder":"tf","game":"Team Fortress","app_id":440,"player_count":24,"max_players":24,"Bots":0,"server_type":"Dedicated","server_os":"Linux","password":true,"vac":true,"version":"7708610","steam_id":85568392924510198,"keywords":["nocrits","nodmgspread","payload","uncletopia"],"game_id":440,"stv_port":27036,"stv_name":"Uncletopia | Los Angeles | 3 | All Maps | STV","players":[{"user_id":511,"name":"Professor Shaggy","steam_id":76561198276926724,"connected_time":451000000000,"state":"active","ping":90},{"user_id":483,"name":"The Squid Gamer‚Ñ¢","steam_id":76561198340621517,"connected_time":3518000000000,"state":"active","ping":77},{"user_id":484,"name":"lili.winters","steam_id":76561199391478575,"connected_time":3436000000000,"state":"active","ping":88},{"user_id":499,"name":"Giant","steam_id":76561198851536991,"connected_time":2444000000000,"state":"active","ping":52},{"user_id":507,"name":"fapasaurusrex","steam_id":76561197994951255,"connected_time":1162000000000,"state":"active","ping":98},{"user_id":512,"name":"Emka","steam_id":76561198203357580,"connected_time":447000000000,"state":"active","ping":75},{"user_id":480,"name":"Drakon","steam_id":76561198078210822,"connected_time":3755000000000,"state":"active","ping":65},{"user_id":444,"name":"Fermenting Kiwi","steam_id":76561198253303497,"connected_time":6652000000000,"state":"active","ping":86},{"user_id":496,"name":"Engideer","steam_id":76561198145733164,"connected_time":2810000000000,"state":"active","ping":109},{"user_id":508,"name":"Johnny Esports","steam_id":76561198115812405,"connected_time":1159000000000,"state":"active","ping":137},{"user_id":485,"name":"The Great Eagle Scourge of 1822","steam_id":76561198325086209,"connected_time":3369000000000,"state":"active","ping":57},{"user_id":504,"name":"Goofy Goober","steam_id":76561198128299594,"connected_time":1628000000000,"state":"active","ping":67},{"user_id":469,"name":"üê∫-Iwky-ü¶ä","steam_id":76561198185616311,"connected_time":5007000000000,"state":"active","ping":72},{"user_id":487,"name":"ED","steam_id":76561198441715445,"connected_time":3305000000000,"state":"active","ping":108},{"user_id":516,"name":"pakispot","steam_id":76561198860676239,"connected_time":59000000000,"state":"active","ping":46},{"user_id":509,"name":"Loggybears#4651","steam_id":76561198366828434,"connected_time":1036000000000,"state":"active","ping":91},{"user_id":377,"name":"Soap Man","steam_id":76561198000490235,"connected_time":12131000000000,"state":"active","ping":95},{"user_id":505,"name":"OxOoxen841","steam_id":76561198297981993,"connected_time":1528000000000,"state":"active","ping":108},{"user_id":510,"name":"bob1444","steam_id":76561198110258432,"connected_time":800000000000,"state":"active","ping":103},{"user_id":514,"name":"09robcraft2","steam_id":76561199073189184,"connected_time":435000000000,"state":"active","ping":131},{"user_id":440,"name":"spot","steam_id":76561198151135298,"connected_time":6985000000000,"state":"active","ping":41},{"user_id":501,"name":"cuppo","steam_id":76561198022008901,"connected_time":2352000000000,"state":"active","ping":74},{"user_id":478,"name":"◊ï◊ô◊î◊ô ◊ê◊ï◊®","steam_id":76561198212421513,"connected_time":4010000000000,"state":"active","ping":45},{"user_id":493,"name":"Drilly22","steam_id":76561198068838338,"connected_time":3045000000000,"state":"active","ping":106}]},{"server_id":25,"name":"Uncletopia | Los Angeles | 4 | No Payload","name_short":"lax-4","host":"lax-1.us.uncletopia.com","port":27045,"enabled":true,"region":"us-west","cc":"us","latitude":33.94279,"longitude":-118.41004,"reserved":0,"last_update":"0001-01-01T00:00:00Z","name_a2s":"Uncletopia | Los Angeles | 4 | No Payload","protocol":17,"map":"cp_well","folder":"tf","game":"Team Fortress","app_id":440,"player_count":0,"max_players":24,"Bots":0,"server_type":"Dedicated","server_os":"Linux","password":true,"vac":true,"version":"7708610","steam_id":85568392924510199,"keywords":["cp","nocrits","nodmgspread","uncletopia"],"game_id":440,"stv_port":27046,"stv_name":"Uncletopia | Los Angeles | 4 | No Payload | STV","players":null},{"server_id":11,"name":"Uncletopia | London | 1 | All Maps","name_short":"lon-1","host":"lon-1.uk.uncletopia.com","port":27015,"enabled":true,"region":"eu","cc":"gb","latitude":51.509865,"longitude":-0.118092,"reserved":0,"last_update":"0001-01-01T00:00:00Z","name_a2s":"Uncletopia | London | 1 | All Maps","protocol":17,"map":"cp_steel","folder":"tf","game":"Team Fortress","app_id":440,"player_count":19,"max_players":24,"Bots":0,"server_type":"Dedicated","server_os":"Linux","password":true,"vac":true,"version":"7708610","steam_id":85568392924367362,"keywords":["cp","nocrits","nodmgspread","uncletopia"],"game_id":440,"stv_port":27016,"stv_name":"Uncletopia | London | 1 | All Maps | STV","players":[{"user_id":569,"name":"Graham Crackers","steam_id":76561198089314125,"connected_time":165000000000,"state":"active","ping":134},{"user_id":571,"name":"Penultimate Boss","steam_id":76561198000807138,"connected_time":128000000000,"state":"active","ping":141},{"user_id":565,"name":"Burpman","steam_id":76561198022897937,"connected_time":756000000000,"state":"active","ping":46},{"user_id":568,"name":"Proto-arc","steam_id":76561198012776747,"connected_time":236000000000,"state":"active","ping":56},{"user_id":562,"name":"loveless","steam_id":76561198142256651,"connected_time":1014000000000,"state":"active","ping":93},{"user_id":570,"name":"3xample","steam_id":76561198805049375,"connected_time":152000000000,"state":"active","ping":55},{"user_id":572,"name":"Sigmar's Weakest Soldier","steam_id":76561198320506848,"connected_time":109000000000,"state":"active","ping":49},{"user_id":573,"name":"sHIFTINGvORTEX","steam_id":76561198231648332,"connected_time":43000000000,"state":"active","ping":53},{"user_id":566,"name":"pakin157","steam_id":76561198035125667,"connected_time":565000000000,"state":"active","ping":76},{"user_id":574,"name":"player 1","steam_id":76561198348565921,"connected_time":32000000000,"state":"spawning","ping":77},{"user_id":567,"name":"shit is gruesome!","steam_id":76561198080034976,"connected_time":543000000000,"state":"active","ping":70},{"user_id":548,"name":"chrissymas","steam_id":76561198096547662,"connected_time":3502000000000,"state":"active","ping":45},{"user_id":575,"name":"Gui","steam_id":76561198072054467,"connected_time":28000000000,"state":"spawning","ping":131},{"user_id":576,"name":"festive jones","steam_id":76561198073975078,"connected_time":13000000000,"state":"spawning","ping":54},{"user_id":577,"name":"Posho","steam_id":76561198062396436,"connected_time":5000000000,"state":"spawning","ping":57},{"user_id":522,"name":"omnibombulator","steam_id":76561198025858897,"connected_time":4313000000000,"state":"active","ping":45},{"user_id":543,"name":"Gnarville","steam_id":76561198006373329,"connected_time":3843000000000,"state":"active","ping":50},{"user_id":527,"name":"brokenphilip","steam_id":76561198080960604,"connected_time":4293000000000,"state":"active","ping":85},{"user_id":545,"name":"M2rtRa","steam_id":76561198111036466,"connected_time":3768000000000,"state":"active","ping":91}]},{"server_id":114,"name":"Uncletopia | London | 2 | All Maps","name_short":"lon-2","host":"lon-1.uk.uncletopia.com","port":27025,"enabled":true,"region":"eu","cc":"gb","latitude":51.509865,"longitude":-0.118092,"reserved":0,"last_update":"0001-01-01T00:00:00Z","name_a2s":"Uncletopia | London | 2 | All Maps","protocol":17,"map":"cp_altitude","folder":"tf","game":"Team Fortress","app_id":440,"player_count":0,"max_players":24,"Bots":0,"server_type":"Dedicated","server_os":"Linux","password":true,"vac":true,"version":"7708610","steam_id":85568392924470941,"keywords":["cp","nocrits","nodmgspread","uncletopia"],"game_id":440,"stv_port":27026,"stv_name":"Uncletopia | London | 2 | All Maps | STV","players":null},{"server_id":320,"name":"Uncletopia | London | 3 | All Maps","name_short":"lon-3","host":"lon-1.uk.uncletopia.com","port":27035,"enabled":true,"region":"eu","cc":"gb","latitude":51.509865,"longitude":-0.118092,"reserved":0,"last_update":"0001-01-01T00:00:00Z","name_a2s":"Uncletopia | London | 3 | All Maps","protocol":17,"map":"cp_dustbowl","folder":"tf","game":"Team Fortress","app_id":440,"player_count":24,"max_players":24,"Bots":0,"server_type":"Dedicated","server_os":"Linux","password":true,"vac":true,"version":"7708610","steam_id":85568392924510192,"keywords":["cp","nocrits","nodmgspread","uncletopia"],"game_id":440,"stv_port":27036,"stv_name":"Uncletopia | London | 3 | All Maps | STV","players":[{"user_id":436,"name":"bruh","steam_id":76561199439030016,"connected_time":1480000000000,"state":"active","ping":114},{"user_id":450,"name":"manKe","steam_id":76561198008564860,"connected_time":998000000000,"state":"active","ping":49},{"user_id":461,"name":"Blissful","steam_id":76561198141134909,"connected_time":80000000000,"state":"active","ping":58},{"user_id":429,"name":"Arex","steam_id":76561198289408505,"connected_time":1598000000000,"state":"active","ping":97},{"user_id":455,"name":"aychar","steam_id":76561198033695429,"connected_time":547000000000,"state":"active","ping":42},{"user_id":359,"name":"UltimateSlayer","steam_id":76561198384109309,"connected_time":6358000000000,"state":"active","ping":60},{"user_id":454,"name":"Kones","steam_id":76561197993584026,"connected_time":636000000000,"state":"active","ping":165},{"user_id":397,"name":"Sir William Gaming","steam_id":76561198037676472,"connected_time":3227000000000,"state":"active","ping":64},{"user_id":398,"name":"tone","steam_id":76561197975301462,"connected_time":3213000000000,"state":"active","ping":55},{"user_id":432,"name":"Excerves","steam_id":76561198177819022,"connected_time":1572000000000,"state":"active","ping":47},{"user_id":457,"name":"ivanmixo","steam_id":76561198160213989,"connected_time":451000000000,"state":"active","ping":75},{"user_id":425,"name":"Ask Nicely For Heals","steam_id":76561198138478907,"connected_time":1820000000000,"state":"active","ping":129},{"user_id":427,"name":"Gaius","steam_id":76561198188174963,"connected_time":1739000000000,"state":"active","ping":48},{"user_id":452,"name":"Steen","steam_id":76561198122992510,"connected_time":974000000000,"state":"active","ping":45},{"user_id":442,"name":"svenska krigsmakten","steam_id":76561198023117553,"connected_time":1281000000000,"state":"active","ping":63},{"user_id":444,"name":"irbizzelus","steam_id":76561198037361860,"connected_time":1216000000000,"state":"active","ping":81},{"user_id":434,"name":"Husky","steam_id":76561198176360750,"connected_time":1539000000000,"state":"active","ping":90},{"user_id":458,"name":"Weeb","steam_id":76561198297928869,"connected_time":263000000000,"state":"active","ping":62},{"user_id":445,"name":"teejaey","steam_id":76561197998709490,"connected_time":1190000000000,"state":"active","ping":61},{"user_id":453,"name":"Haruspex DyRaxion","steam_id":76561198271901927,"connected_time":730000000000,"state":"active","ping":60},{"user_id":382,"name":"Bluns","steam_id":76561198155231597,"connected_time":4995000000000,"state":"active","ping":84},{"user_id":447,"name":"ghostie","steam_id":76561199097303487,"connected_time":1136000000000,"state":"active","ping":58},{"user_id":448,"name":"ashley","steam_id":76561198448551449,"connected_time":1129000000000,"state":"active","ping":39},{"user_id":456,"name":"AvocadoConstant","steam_id":76561198343031982,"connected_time":503000000000,"state":"active","ping":75}]},{"server_id":321,"name":"Uncletopia | London | 4 | All Maps","name_short":"lon-4","host":"lon-1.uk.uncletopia.com","port":27045,"enabled":true,"region":"eu","cc":"gb","latitude":51.509865,"longitude":-0.118092,"reserved":0,"last_update":"0001-01-01T00:00:00Z","name_a2s":"Uncletopia | London | 4 | All Maps","protocol":17,"map":"koth_harvest_final","folder":"tf","game":"Team Fortress","app_id":440,"player_count":0,"max_players":24,"Bots":0,"server_type":"Dedicated","server_os":"Linux","password":true,"vac":true,"version":"7708610","steam_id":85568392924510193,"keywords":["cp","nocrits","nodmgspread","uncletopia"],"game_id":440,"stv_port":27046,"stv_name":"Uncletopia | London | 4 | All Maps | STV","players":null},{"server_id":21,"name":"Uncletopia | London | 5 | All Maps","name_short":"lon-5","host":"lon-1.uk.uncletopia.com","port":27055,"enabled":true,"region":"eu","cc":"gb","latitude":51.509865,"longitude":-0.118092,"reserved":0,"last_update":"0001-01-01T00:00:00Z","name_a2s":"Uncletopia | London | 5 | All Maps","protocol":17,"map":"pl_badwater","folder":"tf","game":"Team Fortress","app_id":440,"player_count":24,"max_players":24,"Bots":0,"server_type":"Dedicated","server_os":"Linux","password":true,"vac":true,"version":"7708610","steam_id":85568392924742829,"keywords":["nocrits","nodmgspread","payload","uncletopia"],"game_id":440,"stv_port":27056,"stv_name":"Uncletopia | London | 5 | All Maps | STV","players":[{"user_id":272,"name":"BaguetteLicker","steam_id":76561198294641325,"connected_time":1587000000000,"state":"active","ping":75},{"user_id":257,"name":"[P-roc] Cmm Bert","steam_id":76561198016658674,"connected_time":3566000000000,"state":"active","ping":51},{"user_id":281,"name":"Sweetcheesus","steam_id":76561198022299033,"connected_time":1113000000000,"state":"active","ping":59},{"user_id":280,"name":"kipod616 | trade.tf","steam_id":76561198431183777,"connected_time":1126000000000,"state":"active","ping":90},{"user_id":276,"name":"1 rayteon fan","steam_id":76561198393698349,"connected_time":1369000000000,"state":"active","ping":30},{"user_id":238,"name":"Phalcon","steam_id":76561197987051394,"connected_time":5579000000000,"state":"active","ping":76},{"user_id":278,"name":"jones","steam_id":76561198044434971,"connected_time":1257000000000,"state":"active","ping":74},{"user_id":277,"name":"GOLDENBOY","steam_id":76561197992187620,"connected_time":1344000000000,"state":"active","ping":95},{"user_id":239,"name":"DarthMurloc","steam_id":76561198075577711,"connected_time":5570000000000,"state":"active","ping":85},{"user_id":283,"name":"Cazulas","steam_id":76561198027460283,"connected_time":1081000000000,"state":"active","ping":64},{"user_id":273,"name":"rummy","steam_id":76561197997573379,"connected_time":1426000000000,"state":"active","ping":44},{"user_id":284,"name":"asko","steam_id":76561198081966620,"connected_time":1081000000000,"state":"active","ping":102},{"user_id":259,"name":"ufomaster1111111","steam_id":76561198837347666,"connected_time":3465000000000,"state":"active","ping":42},{"user_id":287,"name":"Stitch","steam_id":76561198104613474,"connected_time":645000000000,"state":"active","ping":66},{"user_id":271,"name":"PlebCord","steam_id":76561198120685803,"connected_time":1898000000000,"state":"active","ping":78},{"user_id":274,"name":"TheShroomGuy","steam_id":76561198079391929,"connected_time":1421000000000,"state":"active","ping":70},{"user_id":249,"name":"Frank","steam_id":76561198086672774,"connected_time":4070000000000,"state":"active","ping":47},{"user_id":279,"name":"name","steam_id":76561198152620745,"connected_time":1139000000000,"state":"active","ping":50},{"user_id":217,"name":"torn","steam_id":76561198223003236,"connected_time":7277000000000,"state":"active","ping":32},{"user_id":185,"name":"waffle toaster","steam_id":76561198799089628,"connected_time":8878000000000,"state":"active","ping":46},{"user_id":258,"name":"AoA Charger","steam_id":76561198838291029,"connected_time":3552000000000,"state":"active","ping":51},{"user_id":285,"name":"Kolar","steam_id":76561198108583895,"connected_time":1075000000000,"state":"active","ping":64},{"user_id":267,"name":"L√∏bbeh","steam_id":76561198071861251,"connected_time":2585000000000,"state":"active","ping":84},{"user_id":289,"name":"lowcostfish.co.uk","steam_id":76561198126022039,"connected_time":50000000000,"state":"active","ping":57}]},{"server_id":22,"name":"Uncletopia | London | 6 | All Maps","name_short":"lon-6","host":"lon-1.uk.uncletopia.com","port":27065,"enabled":true,"region":"eu","cc":"gb","latitude":51.509865,"longitude":-0.118092,"reserved":0,"last_update":"0001-01-01T00:00:00Z","name_a2s":"Uncletopia | London | 6 | All Maps","protocol":17,"map":"koth_highpass","folder":"tf","game":"Team Fortress","app_id":440,"player_count":0,"max_players":24,"Bots":0,"server_type":"Dedicated","server_os":"Linux","password":true,"vac":true,"version":"7708610","steam_id":85568392924742830,"keywords":["cp","nocrits","nodmgspread","uncletopia"],"game_id":440,"stv_port":27066,"stv_name":"Uncletopia | London | 6 | All Maps | STV","players":null},{"server_id":40,"name":"Uncletopia | London | 7 | No Payload","name_short":"lon-7","host":"lon-1.uk.uncletopia.com","port":27075,"enabled":true,"region":"eu","cc":"gb","latitude":51.509865,"longitude":-0.118092,"reserved":0,"last_update":"0001-01-01T00:00:00Z","name_a2s":"Uncletopia | London | 7 | No Payload","protocol":17,"map":"koth_highpass","folder":"tf","game":"Team Fortress","app_id":440,"player_count":0,"max_players":24,"Bots":0,"server_type":"Dedicated","server_os":"Linux","password":true,"vac":true,"version":"7708610","steam_id":85568392924964314,"keywords":["cp","nocrits","nodmgspread","uncletopia"],"game_id":440,"stv_port":27076,"stv_name":"Uncletopia | London | 7 | No Payload | STV","players":null},{"server_id":41,"name":"Uncletopia | London | 8 | Community","name_short":"lon-8","host":"lon-1.uk.uncletopia.com","port":27085,"enabled":true,"region":"eu","cc":"gb","latitude":51.509865,"longitude":-0.118092,"reserved":0,"last_update":"0001-01-01T00:00:00Z","name_a2s":"Uncletopia | London | 8 | Community","protocol":17,"map":"workshop/koth_synthetic_rc6a.ugc1549817316","folder":"tf","game":"Team Fortress","app_id":440,"player_count":0,"max_players":24,"Bots":0,"server_type":"Dedicated","server_os":"Linux","password":true,"vac":true,"version":"7708610","steam_id":85568392924964315,"keywords":["cp","nocrits","nodmgspread","uncletopia"],"game_id":440,"stv_port":27086,"stv_name":"Uncletopia | London | 8 | Community | STV","players":null},{"server_id":300,"name":"Uncletopia | Montr√©al | 1 | All Maps","name_short":"mtl-1","host":"mtl-1.ca.uncletopia.com","port":27015,"enabled":true,"region":"us-east","cc":"ca","latitude":45.50889,"longitude":-73.56167,"reserved":0,"last_update":"0001-01-01T00:00:00Z","name_a2s":"Uncletopia | Montr√©al | 1 | All Maps","protocol":17,"map":"pl_borneo","folder":"tf","game":"Team Fortress","app_id":440,"player_count":0,"max_players":24,"Bots":0,"server_type":"Dedicated","server_os":"Linux","password":true,"vac":true,"version":"7708610","steam_id":85568392924500087,"keywords":["nocrits","nodmgspread","payload","uncletopia"],"game_id":440,"stv_port":27016,"stv_name":"Uncletopia | Montr√©al | 1 | All Maps | STV","players":null},{"server_id":301,"name":"Uncletopia | Montr√©al | 2 | All Maps","name_short":"mtl-2","host":"mtl-1.ca.uncletopia.com","port":27025,"enabled":true,"region":"us-east","cc":"ca","latitude":45.50889,"longitude":-73.56167,"reserved":0,"last_update":"0001-01-01T00:00:00Z","name_a2s":"Uncletopia | Montr√©al | 2 | All Maps","protocol":17,"map":"pl_swiftwater_final1","folder":"tf","game":"Team Fortress","app_id":440,"player_count":0,"max_players":24,"Bots":0,"server_type":"Dedicated","server_os":"Linux","password":true,"vac":true,"version":"7708610","steam_id":85568392924500088,"keywords":["nocrits","nodmgspread","payload","uncletopia"],"game_id":440,"stv_port":27026,"stv_name":"Uncletopia | Montr√©al | 2 | All Maps | STV","players":null},{"server_id":302,"name":"Uncletopia | Montr√©al | 3 | All Maps","name_short":"mtl-3","host":"mtl-1.ca.uncletopia.com","port":27035,"enabled":true,"region":"us-east","cc":"ca","latitude":45.50889,"longitude":-73.56167,"reserved":0,"last_update":"0001-01-01T00:00:00Z","name_a2s":"Uncletopia | Montr√©al | 3 | All Maps","protocol":17,"map":"cp_mountainlab","folder":"tf","game":"Team Fortress","app_id":440,"player_count":0,"max_players":24,"Bots":0,"server_type":"Dedicated","server_os":"Linux","password":true,"vac":true,"version":"7708610","steam_id":85568392924500089,"keywords":["cp","nocrits","nodmgspread","uncletopia"],"game_id":440,"stv_port":27036,"stv_name":"Uncletopia | Montr√©al | 3 | All Maps | STV","players":null},{"server_id":303,"name":"Uncletopia | Montr√©al | 4 | No Payload","name_short":"mtl-4","host":"mtl-1.ca.uncletopia.com","port":27045,"enabled":true,"region":"us-east","cc":"ca","latitude":45.50889,"longitude":-73.56167,"reserved":0,"last_update":"0001-01-01T00:00:00Z","name_a2s":"Uncletopia | Montr√©al | 4 | No Payload","protocol":17,"map":"ctf_sawmill","folder":"tf","game":"Team Fortress","app_id":440,"player_count":9,"max_players":24,"Bots":0,"server_type":"Dedicated","server_os":"Linux","password":true,"vac":true,"version":"7708610","steam_id":85568392924500090,"keywords":["ctf","nocrits","nodmgspread","uncletopia"],"game_id":440,"stv_port":27046,"stv_name":"Uncletopia | Montr√©al | 4 | No Payload | STV","players":[{"user_id":20,"name":"nhbiker","steam_id":76561198081277675,"connected_time":61000000000,"state":"active","ping":68},{"user_id":21,"name":"Jaller","steam_id":76561198121353226,"connected_time":40000000000,"state":"spawning","ping":63},{"user_id":10,"name":"Challenger Charles","steam_id":76561198005576553,"connected_time":810000000000,"state":"active","ping":50},{"user_id":19,"name":"jojobinks613","steam_id":76561198841293111,"connected_time":125000000000,"state":"active","ping":82},{"user_id":12,"name":"clumpofblankets","steam_id":76561199223085255,"connected_time":688000000000,"state":"active","ping":88},{"user_id":22,"name":"Asanez3","steam_id":76561198037381436,"connected_time":12000000000,"state":"active","ping":65},{"user_id":14,"name":"ZenkoZSprite","steam_id":76561198190132250,"connected_time":534000000000,"state":"active","ping":40},{"user_id":15,"name":"Your Local Festive Furry","steam_id":76561199030190462,"connected_time":526000000000,"state":"active","ping":52},{"user_id":16,"name":"kayk","steam_id":76561198170471502,"connected_time":343000000000,"state":"active","ping":44}]},{"server_id":13,"name":"Uncletopia | New York City | 1 | All Maps","name_short":"nyc-1","host":"nyc-1.us.uncletopia.com","port":27015,"enabled":true,"region":"us-east","cc":"us","latitude":40.73061,"longitude":-73.93524,"reserved":0,"last_update":"0001-01-01T00:00:00Z","name_a2s":"Uncletopia | New York City | 1 | All Maps","protocol":17,"map":"koth_lakeside_final","folder":"tf","game":"Team Fortress","app_id":440,"player_count":0,"max_players":24,"Bots":0,"server_type":"Dedicated","server_os":"Linux","password":true,"vac":true,"version":"7708610","steam_id":85568392924469993,"keywords":["cp","nocrits","nodmgspread","uncletopia"],"game_id":440,"stv_port":27016,"stv_name":"Uncletopia | New York City | 1 | All Maps | STV","players":null},{"server_id":14,"name":"Uncletopia | New York City | 2 | All Maps","name_short":"nyc-2","host":"nyc-1.us.uncletopia.com","port":27025,"enabled":true,"region":"us-east","cc":"us","latitude":40.73061,"longitude":-73.93524,"reserved":0,"last_update":"0001-01-01T00:00:00Z","name_a2s":"Uncletopia | New York City | 2 | All Maps","protocol":17,"map":"pl_borneo","folder":"tf","game":"Team Fortress","app_id":440,"player_count":24,"max_players":24,"Bots":0,"server_type":"Dedicated","server_os":"Linux","password":true,"vac":true,"version":"7708610","steam_id":85568392924469994,"keywords":["nocrits","nodmgspread","payload","uncletopia"],"game_id":440,"stv_port":27026,"stv_name":"Uncletopia | New York City | 2 | All Maps | STV","players":[{"user_id":157,"name":"dorcelessness","steam_id":76561198097427947,"connected_time":1452000000000,"state":"active","ping":162},{"user_id":136,"name":"Kritzburgh","steam_id":76561198149466938,"connected_time":3023000000000,"state":"active","ping":48},{"user_id":149,"name":"11 INCH TGIRL SCHLONG","steam_id":76561198122059018,"connected_time":2013000000000,"state":"active","ping":68},{"user_id":165,"name":"lemon","steam_id":76561198085571748,"connected_time":262000000000,"state":"active","ping":44},{"user_id":164,"name":"imcringe","steam_id":76561199434878956,"connected_time":283000000000,"state":"active","ping":71},{"user_id":158,"name":"S+3 SPLATOON PLAYER (WATCH OUT!","steam_id":76561198253721169,"connected_time":1386000000000,"state":"active","ping":78},{"user_id":166,"name":"Phocae (she/her)","steam_id":76561199317584594,"connected_time":262000000000,"state":"active","ping":61},{"user_id":140,"name":"Blazerguy","steam_id":76561198075712523,"connected_time":2997000000000,"state":"active","ping":72},{"user_id":151,"name":"InstantSnowcone","steam_id":76561198067556825,"connected_time":1946000000000,"state":"active","ping":80},{"user_id":133,"name":"impactzack","steam_id":76561198065931053,"connected_time":3181000000000,"state":"active","ping":79},{"user_id":150,"name":"give me your baby faces blaster","steam_id":76561199013442982,"connected_time":1963000000000,"state":"active","ping":82},{"user_id":160,"name":"LORD JIMJACK YE-YE","steam_id":76561199151780779,"connected_time":720000000000,"state":"active","ping":55},{"user_id":134,"name":"newboi (F2P)","steam_id":76561199273882768,"connected_time":3179000000000,"state":"active","ping":48},{"user_id":153,"name":"Boss Baby 3 but spooky","steam_id":76561198814414480,"connected_time":1849000000000,"state":"active","ping":72},{"user_id":159,"name":"Wisdom Teeth-less Gamer","steam_id":76561198169500112,"connected_time":1280000000000,"state":"active","ping":70},{"user_id":77,"name":"ShinyOrion (She/Her)","steam_id":76561198408378321,"connected_time":6764000000000,"state":"active","ping":71},{"user_id":99,"name":"CANDICE","steam_id":76561198208496036,"connected_time":4734000000000,"state":"active","ping":60},{"user_id":152,"name":"Shemply","steam_id":76561198193658910,"connected_time":1881000000000,"state":"active","ping":87},{"user_id":154,"name":"novu","steam_id":76561198886997024,"connected_time":1826000000000,"state":"active","ping":66},{"user_id":131,"name":"Fat Man","steam_id":76561198118957055,"connected_time":3402000000000,"state":"active","ping":36},{"user_id":128,"name":"OmniXVII","steam_id":76561198027183394,"connected_time":3736000000000,"state":"active","ping":95},{"user_id":137,"name":"Megadesk","steam_id":76561198078219641,"connected_time":3021000000000,"state":"active","ping":72},{"user_id":156,"name":"beans","steam_id":76561199082781884,"connected_time":1540000000000,"state":"active","ping":59},{"user_id":147,"name":"Chaotic Rushu","steam_id":76561198170054407,"connected_time":2258000000000,"state":"active","ping":67}]},{"server_id":15,"name":"Uncletopia | New York City | 3 | All Maps","name_short":"nyc-3","host":"nyc-1.us.uncletopia.com","port":27035,"enabled":true,"region":"us-east","cc":"us","latitude":40.73061,"longitude":-73.93524,"reserved":0,"last_update":"0001-01-01T00:00:00Z","name_a2s":"Uncletopia | New York City | 3 | All Maps","protocol":17,"map":"ctf_turbine","folder":"tf","game":"Team Fortress","app_id":440,"player_count":24,"max_players":24,"Bots":0,"server_type":"Dedicated","server_os":"Linux","password":true,"vac":true,"version":"7708610","steam_id":85568392924742820,"keywords":["ctf","nocrits","nodmgspread","uncletopia"],"game_id":440,"stv_port":27036,"stv_name":"Uncletopia | New York City | 3 | All Maps | STV","players":[{"user_id":187,"name":"LordOfTheNoobs","steam_id":76561197962697523,"connected_time":1890000000000,"state":"active","ping":76},{"user_id":199,"name":"Fish Fisherman","steam_id":76561198018656022,"connected_time":1060000000000,"state":"active","ping":46},{"user_id":165,"name":"Space Cops","steam_id":76561198032414253,"connected_time":2797000000000,"state":"active","ping":45},{"user_id":195,"name":"Llynch21","steam_id":76561197968784663,"connected_time":1270000000000,"state":"active","ping":83},{"user_id":156,"name":"Goreguy122","steam_id":76561198063359352,"connected_time":3403000000000,"state":"active","ping":61},{"user_id":201,"name":"cereal and milk","steam_id":76561198337692867,"connected_time":975000000000,"state":"active","ping":79},{"user_id":202,"name":"chad","steam_id":76561198216109017,"connected_time":959000000000,"state":"active","ping":45},{"user_id":160,"name":"GRONT","steam_id":76561198040464533,"connected_time":2997000000000,"state":"active","ping":100},{"user_id":174,"name":"Bhx625","steam_id":76561198041943090,"connected_time":2483000000000,"state":"active","ping":99},{"user_id":214,"name":"GiraffeMan","steam_id":76561198042104084,"connected_time":131000000000,"state":"active","ping":56},{"user_id":169,"name":"Xavibite","steam_id":76561198209380493,"connected_time":2702000000000,"state":"active","ping":44},{"user_id":176,"name":"Slondermin","steam_id":76561198320301349,"connected_time":2438000000000,"state":"active","ping":68},{"user_id":197,"name":"G","steam_id":76561198960346683,"connected_time":1143000000000,"state":"active","ping":54},{"user_id":120,"name":"Shagbark","steam_id":76561198173447342,"connected_time":7324000000000,"state":"active","ping":66},{"user_id":184,"name":"Moxxie","steam_id":76561198392673666,"connected_time":2260000000000,"state":"active","ping":41},{"user_id":161,"name":"PinkLemonade","steam_id":76561198799286228,"connected_time":2989000000000,"state":"active","ping":58},{"user_id":190,"name":"courtham","steam_id":76561198092023855,"connected_time":1702000000000,"state":"active","ping":68},{"user_id":177,"name":"stewfat","steam_id":76561198084066964,"connected_time":2436000000000,"state":"active","ping":95},{"user_id":193,"name":"Stock Scout","steam_id":76561198966161712,"connected_time":1360000000000,"state":"active","ping":84},{"user_id":36,"name":"ItzFluffyex","steam_id":76561198289521685,"connected_time":13204000000000,"state":"active","ping":60},{"user_id":212,"name":"Sorbet Shark Cookie","steam_id":76561198133082665,"connected_time":587000000000,"state":"active","ping":49},{"user_id":204,"name":"klevin","steam_id":76561198799106535,"connected_time":925000000000,"state":"active","ping":113},{"user_id":194,"name":"nmg5789","steam_id":76561198257278888,"connected_time":1324000000000,"state":"active","ping":53},{"user_id":209,"name":"deep sea creature","steam_id":76561198154416065,"connected_time":676000000000,"state":"active","ping":110}]},{"server_id":16,"name":"Uncletopia | New York City | 4 | Community","name_short":"nyc-4","host":"nyc-1.us.uncletopia.com","port":27045,"enabled":true,"region":"us-east","cc":"us","latitude":40.73061,"longitude":-73.93524,"reserved":0,"last_update":"0001-01-01T00:00:00Z","name_a2s":"Uncletopia | New York City | 4 | Community","protocol":17,"map":"workshop/koth_product_final.ugc454272353","folder":"tf","game":"Team Fortress","app_id":440,"player_count":2,"max_players":24,"Bots":0,"server_type":"Dedicated","server_os":"Linux","password":true,"vac":true,"version":"7708610","steam_id":85568392924742821,"keywords":["cp","nocrits","nodmgspread","uncletopia"],"game_id":440,"stv_port":27046,"stv_name":"Uncletopia | New York City | 4 | Community | STV","players":[{"user_id":14,"name":"Aerguera","steam_id":76561198117613222,"connected_time":230000000000,"state":"active","ping":45},{"user_id":15,"name":"BongWater","steam_id":76561198082351263,"connected_time":178000000000,"state":"active","ping":65}]},{"server_id":142,"name":"Uncletopia | S√£o Paulo | 1 | All Maps","name_short":"sao-1","host":"sao-1.br.uncletopia.com","port":27015,"enabled":true,"region":"sa","cc":"br","latitude":-23.533773,"longitude":-46.62529,"reserved":0,"last_update":"0001-01-01T00:00:00Z","name_a2s":"Uncletopia | S√£o Paulo | 1 | All Maps","protocol":17,"map":"pl_borneo","folder":"tf","game":"Team Fortress","app_id":440,"player_count":24,"max_players":24,"Bots":0,"server_type":"Dedicated","server_os":"Linux","password":true,"vac":true,"version":"7708610","steam_id":85568392924469996,"keywords":["nocrits","nodmgspread","payload","uncletopia"],"game_id":440,"stv_port":27016,"stv_name":"Uncletopia | S√£o Paulo | 1 | All Maps | STV","players":[{"user_id":108,"name":"trimegisto","steam_id":76561198095813297,"connected_time":3879000000000,"state":"active","ping":78},{"user_id":136,"name":":D","steam_id":76561198076402274,"connected_time":836000000000,"state":"active","ping":60},{"user_id":62,"name":"Gabriel„ÇÑ„Çã„Åç","steam_id":76561198332577325,"connected_time":6476000000000,"state":"active","ping":48},{"user_id":114,"name":"Pathetic","steam_id":76561198051056987,"connected_time":2518000000000,"state":"active","ping":60},{"user_id":135,"name":"jao","steam_id":76561198408082822,"connected_time":1068000000000,"state":"active","ping":57},{"user_id":147,"name":"polaco","steam_id":76561198002562184,"connected_time":191000000000,"state":"active","ping":58},{"user_id":143,"name":"Jasper","steam_id":76561198056759252,"connected_time":375000000000,"state":"active","ping":52},{"user_id":59,"name":"whereismybread","steam_id":76561197995625136,"connected_time":6978000000000,"state":"active","ping":42},{"user_id":83,"name":"Gustavocoste","steam_id":76561198233692404,"connected_time":5368000000000,"state":"active","ping":40},{"user_id":123,"name":"ragequit","steam_id":76561198165483031,"connected_time":2273000000000,"state":"active","ping":44},{"user_id":124,"name":"Mujet","steam_id":76561198063542912,"connected_time":2250000000000,"state":"active","ping":38},{"user_id":138,"name":"Paulo Kogos","steam_id":76561198044051868,"connected_time":686000000000,"state":"active","ping":45},{"user_id":117,"name":"Brawmario","steam_id":76561198025313430,"connected_time":2416000000000,"state":"active","ping":40},{"user_id":107,"name":"NenF | Yatosemtato","steam_id":76561199066360306,"connected_time":3904000000000,"state":"active","ping":73},{"user_id":125,"name":"Dale Cooper","steam_id":76561198019523441,"connected_time":2239000000000,"state":"active","ping":76},{"user_id":99,"name":"Emperor Reinhard","steam_id":76561198181006839,"connected_time":4448000000000,"state":"active","ping":65},{"user_id":126,"name":"BiscoitoCalipso","steam_id":76561199063852245,"connected_time":2136000000000,"state":"active","ping":48},{"user_id":146,"name":"Bombo Fica","steam_id":76561198971591168,"connected_time":212000000000,"state":"active","ping":94},{"user_id":91,"name":"zero.^","steam_id":76561198171128038,"connected_time":5049000000000,"state":"active","ping":48},{"user_id":141,"name":"Zodd","steam_id":76561198940541282,"connected_time":631000000000,"state":"active","ping":63},{"user_id":130,"name":"Derretimento Geral 2017","steam_id":76561198194300069,"connected_time":1340000000000,"state":"active","ping":47},{"user_id":102,"name":"Emisu","steam_id":76561198278086794,"connected_time":4200000000000,"state":"active","ping":67},{"user_id":119,"name":"Neferious Acts Enjoyer","steam_id":76561198354898457,"connected_time":2402000000000,"state":"active","ping":41},{"user_id":120,"name":"Jetronic","steam_id":76561198031892355,"connected_time":2402000000000,"state":"active","ping":128}]},{"server_id":143,"name":"Uncletopia | S√£o Paulo | 2 | All Maps","name_short":"sao-2","host":"sao-2.br.uncletopia.com","port":27015,"enabled":true,"region":"sa","cc":"br","latitude":-23.533773,"longitude":-46.62529,"reserved":0,"last_update":"0001-01-01T00:00:00Z","name_a2s":"Uncletopia | S√£o Paulo | 2 | All Maps","protocol":17,"map":"koth_cascade","folder":"tf","game":"Team Fortress","app_id":440,"player_count":3,"max_players":24,"Bots":0,"server_type":"Dedicated","server_os":"Linux","password":true,"vac":true,"version":"7708610","steam_id":85568392924485349,"keywords":["cp","nocrits","nodmgspread","uncletopia"],"game_id":440,"stv_port":27016,"stv_name":"Uncletopia | S√£o Paulo | 2 | All Maps | STV","players":[{"user_id":27,"name":"CJAIME01345","steam_id":76561199091599141,"connected_time":1460000000000,"state":"active","ping":88},{"user_id":33,"name":"Granny","steam_id":76561198056756150,"connected_time":446000000000,"state":"active","ping":69},{"user_id":35,"name":"olavudante","steam_id":76561199385333299,"connected_time":403000000000,"state":"active","ping":77}]},{"server_id":7,"name":"Uncletopia | Seattle | 1 | All Maps","name_short":"sea-1","host":"sea-1.us.uncletopia.com","port":27015,"enabled":true,"region":"us-west","cc":"us","latitude":47.608013,"longitude":-122.33517,"reserved":0,"last_update":"0001-01-01T00:00:00Z","name_a2s":"Uncletopia | Seattle | 1 | All Maps","protocol":17,"map":"koth_viaduct","folder":"tf","game":"Team Fortress","app_id":440,"player_count":24,"max_players":24,"Bots":0,"server_type":"Dedicated","server_os":"Linux","password":true,"vac":true,"version":"7708610","steam_id":85568392924469997,"keywords":["cp","nocrits","nodmgspread","uncletopia"],"game_id":440,"stv_port":27016,"stv_name":"Uncletopia | Seattle | 1 | All Maps | STV","players":[{"user_id":135,"name":"Defeat","steam_id":76561198065203818,"connected_time":659000000000,"state":"active","ping":37},{"user_id":138,"name":"GP-Stealth","steam_id":76561198142906368,"connected_time":524000000000,"state":"active","ping":65},{"user_id":128,"name":"oo","steam_id":76561198119626492,"connected_time":1064000000000,"state":"active","ping":85},{"user_id":139,"name":"choco","steam_id":76561199013498035,"connected_time":385000000000,"state":"active","ping":49},{"user_id":132,"name":"Kras","steam_id":76561198339398992,"connected_time":860000000000,"state":"active","ping":72},{"user_id":87,"name":"Skeleton Bones Ghoulie","steam_id":76561199138772722,"connected_time":3516000000000,"state":"active","ping":73},{"user_id":25,"name":"[TrC] Dackstrus","steam_id":76561197973518509,"connected_time":6967000000000,"state":"active","ping":56},{"user_id":141,"name":"el muchacho","steam_id":76561198282632562,"connected_time":260000000000,"state":"active","ping":107},{"user_id":137,"name":"do you fart?","steam_id":76561199012771039,"connected_time":629000000000,"state":"active","ping":107},{"user_id":144,"name":"oh god i'm gonna CHUM","steam_id":76561198019210187,"connected_time":233000000000,"state":"active","ping":99},{"user_id":142,"name":"mhmyeah_yeahmhm","steam_id":76561198341190679,"connected_time":260000000000,"state":"active","ping":55},{"user_id":140,"name":"Dr. Banana boy","steam_id":76561199012105803,"connected_time":286000000000,"state":"active","ping":48},{"user_id":121,"name":"Lo-Pan","steam_id":76561198085670133,"connected_time":1514000000000,"state":"active","ping":106},{"user_id":99,"name":"[TrC] Nosy","steam_id":76561197978859310,"connected_time":2438000000000,"state":"active","ping":60},{"user_id":106,"name":"Joe SMS From Progressive","steam_id":76561198336597038,"connected_time":2116000000000,"state":"active","ping":83},{"user_id":107,"name":"Monkey","steam_id":76561198278900953,"connected_time":2108000000000,"state":"active","ping":148},{"user_id":143,"name":"exephur","steam_id":76561198135763234,"connected_time":260000000000,"state":"active","ping":58},{"user_id":126,"name":"ranch revolution","steam_id":76561198330831935,"connected_time":1241000000000,"state":"active","ping":86},{"user_id":119,"name":"The Dumper","steam_id":76561198147302569,"connected_time":1658000000000,"state":"active","ping":113},{"user_id":112,"name":"Batso","steam_id":76561198106589452,"connected_time":1909000000000,"state":"active","ping":76},{"user_id":145,"name":"vieodmsgea","steam_id":76561198025295263,"connected_time":224000000000,"state":"active","ping":112},{"user_id":114,"name":"Notorious_Pat","steam_id":76561198092348214,"connected_time":1865000000000,"state":"active","ping":107},{"user_id":127,"name":"lavender","steam_id":76561199069518286,"connected_time":1177000000000,"state":"active","ping":68},{"user_id":116,"name":"EatSomeBEES","steam_id":76561198047334307,"connected_time":1841000000000,"state":"active","ping":85}]},{"server_id":119,"name":"Uncletopia | Seattle | 2 | All Maps","name_short":"sea-2","host":"sea-1.us.uncletopia.com","port":27025,"enabled":true,"region":"us-west","cc":"us","latitude":47.608013,"longitude":-122.33517,"reserved":0,"last_update":"0001-01-01T00:00:00Z","name_a2s":"Uncletopia | Seattle | 2 | All Maps","protocol":17,"map":"koth_cascade","folder":"tf","game":"Team Fortress","app_id":440,"player_count":1,"max_players":24,"Bots":0,"server_type":"Dedicated","server_os":"Linux","password":true,"vac":true,"version":"7708610","steam_id":85568392924469998,"keywords":["cp","nocrits","nodmgspread","uncletopia"],"game_id":440,"stv_port":27026,"stv_name":"Uncletopia | Seattle | 2 | All Maps | STV","players":[{"user_id":9,"name":"dvd normal","steam_id":76561198025758036,"connected_time":68000000000,"state":"active","ping":44}]},{"server_id":17,"name":"Uncletopia | San Francisco | 1 | All Maps","name_short":"sfo-1","host":"sfo-1.us.uncletopia.com","port":27015,"enabled":true,"region":"us-west","cc":"us","latitude":37.77397,"longitude":-122.4313,"reserved":0,"last_update":"0001-01-01T00:00:00Z","name_a2s":"Uncletopia | San Francisco | 1 | All Maps","protocol":17,"map":"pl_frontier_final","folder":"tf","game":"Team Fortress","app_id":440,"player_count":9,"max_players":24,"Bots":0,"server_type":"Dedicated","server_os":"Linux","password":true,"vac":true,"version":"7708610","steam_id":85568392924469999,"keywords":["nocrits","nodmgspread","payload","uncletopia"],"game_id":440,"stv_port":27016,"stv_name":"Uncletopia | San Francisco | 1 | All Maps | STV","players":[{"user_id":5,"name":"dakedres","steam_id":76561198846505842,"connected_time":2940000000000,"state":"active","ping":53},{"user_id":6,"name":"Zauromoun","steam_id":76561198120542991,"connected_time":2729000000000,"state":"active","ping":89},{"user_id":7,"name":"Plant","steam_id":76561199058462259,"connected_time":1434000000000,"state":"active","ping":57},{"user_id":8,"name":"Sebasga12","steam_id":76561198327624071,"connected_time":1316000000000,"state":"active","ping":202},{"user_id":9,"name":"gorse","steam_id":76561199046574121,"connected_time":1191000000000,"state":"active","ping":60},{"user_id":11,"name":"Bee_Pirate","steam_id":76561199000599111,"connected_time":1034000000000,"state":"active","ping":121},{"user_id":16,"name":"Fluff Gaming","steam_id":76561198135969443,"connected_time":218000000000,"state":"active","ping":83},{"user_id":13,"name":"KnockOutClock","steam_id":76561199436877307,"connected_time":787000000000,"state":"active","ping":65},{"user_id":17,"name":"Pyrolimited","steam_id":76561198195455657,"connected_time":162000000000,"state":"active","ping":63}]},{"server_id":18,"name":"Uncletopia | San Francisco | 2 | All Maps","name_short":"sfo-2","host":"sfo-1.us.uncletopia.com","port":27025,"enabled":true,"region":"us-west","cc":"us","latitude":37.77397,"longitude":-122.4313,"reserved":0,"last_update":"0001-01-01T00:00:00Z","name_a2s":"Uncletopia | San Francisco | 2 | All Maps","protocol":17,"map":"pl_badwater","folder":"tf","game":"Team Fortress","app_id":440,"player_count":1,"max_players":24,"Bots":0,"server_type":"Dedicated","server_os":"Linux","password":true,"vac":true,"version":"7708610","steam_id":85568392924470000,"keywords":["nocrits","nodmgspread","payload","uncletopia"],"game_id":440,"stv_port":27026,"stv_name":"Uncletopia | San Francisco | 2 | All Maps | STV","players":[{"user_id":6,"name":"wrost tf2 player ever","steam_id":76561199439477857,"connected_time":74000000000,"state":"active","ping":194}]},{"server_id":19,"name":"Uncletopia | San Francisco | 3 | No Payload","name_short":"sfo-3","host":"sfo-1.us.uncletopia.com","port":27035,"enabled":true,"region":"us-west","cc":"us","latitude":37.77397,"longitude":-122.4313,"reserved":0,"last_update":"0001-01-01T00:00:00Z","name_a2s":"Uncletopia | San Francisco | 3 | No Payload","protocol":17,"map":"plr_hightower","folder":"tf","game":"Team Fortress","app_id":440,"player_count":2,"max_players":24,"Bots":0,"server_type":"Dedicated","server_os":"Linux","password":true,"vac":true,"version":"7708610","steam_id":85568392924742824,"keywords":["nocrits","nodmgspread","payload","uncletopia"],"game_id":440,"stv_port":27036,"stv_name":"Uncletopia | San Francisco | 3 | No Payload | STV","players":[{"user_id":5,"name":"Themarinaraman","steam_id":76561198819873321,"connected_time":570000000000,"state":"active","ping":82},{"user_id":6,"name":"3masterotha","steam_id":76561199382332116,"connected_time":520000000000,"state":"active","ping":82}]},{"server_id":20,"name":"Uncletopia | San Francisco | 4 | Community","name_short":"sfo-4","host":"sfo-1.us.uncletopia.com","port":27045,"enabled":true,"region":"us-west","cc":"us","latitude":37.77397,"longitude":-122.4313,"reserved":0,"last_update":"0001-01-01T00:00:00Z","name_a2s":"Uncletopia | San Francisco | 4 | Community","protocol":17,"map":"pl_frontier_final","folder":"tf","game":"Team Fortress","app_id":440,"player_count":0,"max_players":24,"Bots":0,"server_type":"Dedicated","server_os":"Linux","password":true,"vac":true,"version":"7708610","steam_id":85568392924742826,"keywords":["nocrits","nodmgspread","payload","uncletopia"],"game_id":440,"stv_port":27046,"stv_name":"Uncletopia | San Francisco | 4 | Community | STV","players":null},{"server_id":141,"name":"Uncletopia | Sydney | 1 | All Maps","name_short":"syd-1","host":"syd-1.au.uncletopia.com","port":27015,"enabled":true,"region":"au","cc":"au","latitude":-33.865143,"longitude":151.2099,"reserved":0,"last_update":"0001-01-01T00:00:00Z","name_a2s":"Uncletopia | Sydney | 1 | All Maps","protocol":17,"map":"cp_snakewater_final1","folder":"tf","game":"Team Fortress","app_id":440,"player_count":0,"max_players":24,"Bots":0,"server_type":"Dedicated","server_os":"Linux","password":true,"vac":true,"version":"7708610","steam_id":85568392924470001,"keywords":["cp","nocrits","nodmgspread","uncletopia"],"game_id":440,"stv_port":27016,"stv_name":"Uncletopia | Sydney | 1 | All Maps | STV","players":null},{"server_id":123,"name":"Uncletopia | Sydney | 2 | All Maps","name_short":"syd-2","host":"syd-1.au.uncletopia.com","port":27025,"enabled":true,"region":"au","cc":"au","latitude":-33.865143,"longitude":151.2099,"reserved":0,"last_update":"0001-01-01T00:00:00Z","name_a2s":"Uncletopia | Sydney | 2 | All Maps","protocol":17,"map":"koth_sawmill","folder":"tf","game":"Team Fortress","app_id":440,"player_count":2,"max_players":24,"Bots":0,"server_type":"Dedicated","server_os":"Linux","password":true,"vac":true,"version":"7708610","steam_id":85568392924470002,"keywords":["cp","nocrits","nodmgspread","uncletopia"],"game_id":440,"stv_port":27026,"stv_name":"Uncletopia | Sydney | 2 | All Maps | STV","players":[{"user_id":7,"name":"ca7x3","steam_id":76561198181194862,"connected_time":210000000000,"state":"active","ping":59},{"user_id":10,"name":"Not A F2P","steam_id":76561198376756608,"connected_time":78000000000,"state":"active","ping":79}]},{"server_id":395,"name":"Uncletopia | Sydney | 3 | All Maps","name_short":"syd-3","host":"syd-1.au.uncletopia.com","port":27035,"enabled":true,"region":"au","cc":"au","latitude":-33.865143,"longitude":151.2099,"reserved":0,"last_update":"0001-01-01T00:00:00Z","name_a2s":"Uncletopia | Sydney | 3 | All Maps","protocol":17,"map":"koth_viaduct","folder":"tf","game":"Team Fortress","app_id":440,"player_count":0,"max_players":24,"Bots":0,"server_type":"Dedicated","server_os":"Linux","password":true,"vac":true,"version":"7708610","steam_id":85568392925194467,"keywords":["cp","nocrits","nodmgspread","uncletopia"],"game_id":440,"stv_port":27036,"stv_name":"Uncletopia | Sydney | 3 | All Maps | STV","players":null},{"server_id":396,"name":"Uncletopia | Sydney | 4 | All Maps","name_short":"syd-4","host":"syd-1.au.uncletopia.com","port":27045,"enabled":true,"region":"au","cc":"au","latitude":-33.865143,"longitude":151.2099,"reserved":0,"last_update":"0001-01-01T00:00:00Z","name_a2s":"Uncletopia | Sydney | 4 | All Maps","protocol":17,"map":"pl_frontier_final","folder":"tf","game":"Team Fortress","app_id":440,"player_count":0,"max_players":24,"Bots":0,"server_type":"Dedicated","server_os":"Linux","password":true,"vac":true,"version":"7708610","steam_id":85568392925397958,"keywords":["nocrits","nodmgspread","payload","uncletopia"],"game_id":440,"stv_port":27046,"stv_name":"Uncletopia | Sydney | 4 | All Maps | STV","players":null},{"server_id":58,"name":"Uncletopia | Sydney | 5 | No Payload","name_short":"syd-5","host":"syd-1.au.uncletopia.com","port":27055,"enabled":true,"region":"au","cc":"au","latitude":-33.865143,"longitude":151.2099,"reserved":0,"last_update":"0001-01-01T00:00:00Z","name_a2s":"Uncletopia | Sydney | 5 | No Payload","protocol":17,"map":"pl_pier","folder":"tf","game":"Team Fortress","app_id":440,"player_count":0,"max_players":24,"Bots":0,"server_type":"Dedicated","server_os":"Linux","password":true,"vac":true,"version":"7708610","steam_id":85568392925397959,"keywords":["nocrits","nodmgspread","payload","uncletopia"],"game_id":440,"stv_port":27056,"stv_name":"Uncletopia | Sydney | 5 | No Payload | STV","players":null},{"server_id":59,"name":"Uncletopia | Sydney | 6 | Community","name_short":"syd-6","host":"syd-1.au.uncletopia.com","port":27065,"enabled":true,"region":"au","cc":"au","latitude":-33.865143,"longitude":151.2099,"reserved":0,"last_update":"0001-01-01T00:00:00Z","name_a2s":"Uncletopia | Sydney | 6 | Community","protocol":17,"map":"workshop/pl_eruption_b8c.ugc2865677281","folder":"tf","game":"Team Fortress","app_id":440,"player_count":0,"max_players":24,"Bots":0,"server_type":"Dedicated","server_os":"Linux","password":true,"vac":true,"version":"7708610","steam_id":85568392925397960,"keywords":["nocrits","nodmgspread","payload","uncletopia"],"game_id":440,"stv_port":27066,"stv_name":"Uncletopia | Sydney | 6 | Community | STV","players":null},{"server_id":49,"name":"Uncletopia | Warsaw | 1 | All Maps","name_short":"waw-1","host":"waw-1.pl.uncletopia.com","port":27015,"enabled":true,"region":"eu","cc":"pl","latitude":52.2297,"longitude":21.017532,"reserved":0,"last_update":"0001-01-01T00:00:00Z","name_a2s":"Uncletopia | Warsaw | 1 | All Maps","protocol":17,"map":"koth_cascade","folder":"tf","game":"Team Fortress","app_id":440,"player_count":0,"max_players":24,"Bots":0,"server_type":"Dedicated","server_os":"Linux","password":true,"vac":true,"version":"7708610","steam_id":85568392925397850,"keywords":["cp","nocrits","nodmgspread","uncletopia"],"game_id":440,"stv_port":27016,"stv_name":"Uncletopia | Warsaw | 1 | All Maps | STV","players":null},{"server_id":50,"name":"Uncletopia | Warsaw | 2 | All Maps","name_short":"waw-2","host":"waw-1.pl.uncletopia.com","port":27025,"enabled":true,"region":"eu","cc":"pl","latitude":52.2297,"longitude":21.017532,"reserved":0,"last_update":"0001-01-01T00:00:00Z","name_a2s":"Uncletopia | Warsaw | 2 | All Maps","protocol":17,"map":"koth_lakeside_final","folder":"tf","game":"Team Fortress","app_id":440,"player_count":0,"max_players":24,"Bots":0,"server_type":"Dedicated","server_os":"Linux","password":true,"vac":true,"version":"7708610","steam_id":85568392925397851,"keywords":["cp","nocrits","nodmgspread","uncletopia"],"game_id":440,"stv_port":27026,"stv_name":"Uncletopia | Warsaw | 2 | All Maps | STV","players":null},{"server_id":51,"name":"Uncletopia | Warsaw | 3 | All Maps","name_short":"waw-3","host":"waw-1.pl.uncletopia.com","port":27035,"enabled":true,"region":"eu","cc":"pl","latitude":52.2297,"longitude":21.017532,"reserved":0,"last_update":"0001-01-01T00:00:00Z","name_a2s":"Uncletopia | Warsaw | 3 | All Maps","protocol":17,"map":"pl_borneo","folder":"tf","game":"Team Fortress","app_id":440,"player_count":0,"max_players":24,"Bots":0,"server_type":"Dedicated","server_os":"Linux","password":true,"vac":true,"version":"7708610","steam_id":85568392925397852,"keywords":["nocrits","nodmgspread","payload","uncletopia"],"game_id":440,"stv_port":27036,"stv_name":"Uncletopia | Warsaw | 3 | All Maps | STV","players":null},{"server_id":52,"name":"Uncletopia | Warsaw | 4 | All Maps","name_short":"waw-4","host":"waw-1.pl.uncletopia.com","port":27045,"enabled":true,"region":"eu","cc":"pl","latitude":52.2297,"longitude":21.017532,"reserved":0,"last_update":"0001-01-01T00:00:00Z","name_a2s":"Uncletopia | Warsaw | 4 | All Maps","protocol":17,"map":"pl_pier","folder":"tf","game":"Team Fortress","app_id":440,"player_count":0,"max_players":24,"Bots":0,"server_type":"Dedicated","server_os":"Linux","password":true,"vac":true,"version":"7708610","steam_id":85568392925397853,"keywords":["nocrits","nodmgspread","payload","uncletopia"],"game_id":440,"stv_port":27046,"stv_name":"Uncletopia | Warsaw | 4 | All Maps | STV","players":null},{"server_id":53,"name":"Uncletopia | Warsaw | 5 | No Payload","name_short":"waw-5","host":"waw-1.pl.uncletopia.com","port":27055,"enabled":true,"region":"eu","cc":"pl","latitude":52.2297,"longitude":21.017532,"reserved":0,"last_update":"0001-01-01T00:00:00Z","name_a2s":"Uncletopia | Warsaw | 5 | No Payload","protocol":17,"map":"cp_yukon_final","folder":"tf","game":"Team Fortress","app_id":440,"player_count":0,"max_players":24,"Bots":0,"server_type":"Dedicated","server_os":"Linux","password":true,"vac":true,"version":"7708610","steam_id":85568392925397854,"keywords":["cp","nocrits","nodmgspread","uncletopia"],"game_id":440,"stv_port":27056,"stv_name":"Uncletopia | Warsaw | 5 | No Payload | STV","players":null},{"server_id":54,"name":"Uncletopia | Warsaw | 6 | Community","name_short":"waw-6","host":"waw-1.pl.uncletopia.com","port":27065,"enabled":true,"region":"eu","cc":"pl","latitude":52.2297,"longitude":21.017532,"reserved":0,"last_update":"0001-01-01T00:00:00Z","name_a2s":"Uncletopia | Warsaw | 6 | Community","protocol":17,"map":"workshop/pl_eruption_b8c.ugc2865677281","folder":"tf","game":"Team Fortress","app_id":440,"player_count":0,"max_players":24,"Bots":0,"server_type":"Dedicated","server_os":"Linux","password":true,"vac":true,"version":"7708610","steam_id":85568392925397856,"keywords":["nocrits","nodmgspread","payload","uncletopia"],"game_id":440,"stv_port":27066,"stv_name":"Uncletopia | Warsaw | 6 | Community | STV","players":null}]}