{"status":true,"message":"","result":[{"server_id":9,"name":"Uncletopia | Atlanta | 1 | All Maps","name_short":"atl-1","host":"atl-1.us.uncletopia.com","port":27015,"enabled":true,"region":"us-east","cc":"us","latitude":33.753746,"longitude":-84.38633,"reserved":0,"last_update":"0001-01-01T00:00:00Z","name_a2s":"Uncletopia | Atlanta | 1 | All Maps","protocol":17,"map":"pl_barnblitz","folder":"tf","game":"Team Fortress","app_id":440,"player_count":0,"max_players":24,"Bots":0,"server_type":"Dedicated","server_os":"Linux","password":true,"vac":true,"version":"7961495","steam_id":85568392924469982,"keywords":["nocrits","nodmgspread","payload","uncletopia"],"game_id":440,"stv_port":27016,"stv_name":"Uncletopia | Atlanta | 1 | All Maps | STV","players":null},{"server_id":104,"name":"Uncletopia | Atlanta | 2 | All Maps","name_short":"atl-2","host":"atl-1.us.uncletopia.com","port":27025,"enabled":true,"region":"us-east","cc":"us","latitude":33.753746,"longitude":-84.38633,"reserved":0,"last_update":"0001-01-01T00:00:00Z","name_a2s":"Uncletopia | Atlanta | 2 | All Maps","protocol":17,"map":"cp_process_final","folder":"tf","game":"Team Fortress","app_id":440,"player_count":0,"max_players":24,"Bots":0,"server_type":"Dedicated","server_os":"Linux","password":true,"vac":true,"version":"7961495","steam_id":85568392924469983,"keywords":["cp","nocrits","nodmgspread","uncletopia"],"game_id":440,"stv_port":27026,"stv_name":"Uncletopia | Atlanta | 2 | All Maps | STV","players":null},{"server_id":400,"name":"Uncletopia | Atlanta | 3 | Stopwatch","name_short":"atl-3","host":"atl-1.us.uncletopia.com","port":27035,"enabled":true,"region":"us-east","cc":"us","latitude":33.753746,"longitude":-84.38633,"reserved":0,"last_update":"0001-01-01T00:00:00Z","name_a2s":"Uncletopia | Atlanta | 3 | Stopwatch","protocol":17,"map":"koth_lakeside_final","folder":"tf","game":"Team Fortress","app_id":440,"player_count":0,"max_players":24,"Bots":0,"server_type":"Dedicated","server_os":"Linux","password":true,"vac":true,"version":"7961495","steam_id":85568392924515187,"keywords":["cp","nocrits","nodmgspread","uncletopia"],"game_id":440,"stv_port":27036,"stv_name":"Uncletopia | Atlanta | 3 | Stopwatch | STV","players":null},{"server_id":401,"name":"Uncletopia | Atlanta | 4 | Community","name_short":"atl-4","host":"atl-1.us.uncletopia.com","port":27045,"enabled":true,"region":"us-east","cc":"us","latitude":33.753746,"longitude":-84.38633,"reserved":0,"last_update":"0001-01-01T00:00:00Z","name_a2s":"Uncletopia | Atlanta | 4 | Community","protocol":17,"map":"workshop/koth_slaughter_rc1.ugc1712845210","folder":"tf","game":"Team Fortress","app_id":440,"player_count":0,"max_players":24,"Bots":0,"server_type":"Dedicated","server_os":"Linux","password":true,"vac":true,"version":"7961495","steam_id":85568392924515188,"keywords":["cp","nocrits","nodmgspread","uncletopia"],"game_id":440,"stv_port":27046,"stv_name":"Uncletopia | Atlanta | 4 | Community | STV","players":null},{"server_id":2,"name":"Uncletopia | Chicago | 1 | All Maps","name_short":"chi-1","host":"chi-1.us.uncletopia.com","port":27015,"enabled":true,"region":"us-central","cc":"us","latitude":41.881832,"longitude":-87.62318,"reserved":0,"last_update":"0001-01-01T00:00:00Z","name_a2s":"Uncletopia | Chicago | 1 | All Maps","protocol":17,"map":"cp_mountainlab","folder":"tf","game":"Team Fortress","app_id":440,"player_count":0,"max_players":24,"Bots":0,"server_type":"Dedicated","server_os":"Linux","password":true,"vac":true,"version":"7961495","steam_id":85568392924469984,"keywords":["cp","nocrits","nodmgspread","uncletopia"],"game_id":440,"stv_port":27016,"stv_name":"Uncletopia | Chicago | 1 | All Maps | STV","players":null},{"server_id":106,"name":"Uncletopia | Chicago | 2 | All Maps","name_short":"chi-2","host":"chi-1.us.uncletopia.com","port":27025,"enabled":true,"region":"us-central","cc":"us","latitude":41.881832,"longitude":-87.62318,"reserved":0,"last_update":"0001-01-01T00:00:00Z","name_a2s":"Uncletopia | Chicago | 2 | All Maps","protocol":17,"map":"koth_cascade","folder":"tf","game":"Team Fortress","app_id":440,"player_count":0,"max_players":24,"Bots":0,"server_type":"Dedicated","server_os":"Linux","password":true,"vac":true,"version":"7961495","steam_id":85568392924469985,"keywords":["cp","nocrits","nodmgspread","uncletopia"],"game_id":440,"stv_port":27026,"stv_name":"Uncletopia | Chicago | 2 | All Maps | STV","players":null},{"server_id":402,"name":"Uncletopia | Chicago | 3 | All Maps","name_short":"chi-3","host":"chi-1.us.uncletopia.com","port":27035,"enabled":true,"region":"us-central","cc":"us","latitude":41.881832,"longitude":-87.62318,"reserved":0,"last_update":"0001-01-01T00:00:00Z","name_a2s":"Uncletopia | Chicago | 3 | All Maps","protocol":17,"map":"pl_swiftwater_final1","folder":"tf","game":"Team Fortress","app_id":440,"player_count":16,"max_players":24,"Bots":0,"server_type":"Dedicated","server_os":"Linux","password":true,"vac":true,"version":"7961495","steam_id":85568392924515191,"keywords":["nocrits","nodmgspread","payload","uncletopia"],"game_id":440,"stv_port":27036,"stv_name":"Uncletopia | Chicago | 3 | All Maps | STV","players":[{"user_id":812,"name":"Comfy!","steam_id":76561198008818346,"connected_time":2611000000000,"state":"active","ping":58},{"user_id":807,"name":"KYLE KYLESON","steam_id":76561198021920887,"connected_time":3079000000000,"state":"active","ping":44},{"user_id":729,"name":"zpalmtree","steam_id":76561198134307620,"connected_time":8542000000000,"state":"active","ping":51},{"user_id":825,"name":"Octovaitor","steam_id":76561198004658451,"connected_time":218000000000,"state":"active","ping":58},{"user_id":814,"name":"Mufalito","steam_id":76561198951889482,"connected_time":2552000000000,"state":"active","ping":132},{"user_id":816,"name":"loser","steam_id":76561198259380127,"connected_time":2292000000000,"state":"active","ping":45},{"user_id":808,"name":"üçíbutaüçí","steam_id":76561198135538212,"connected_time":3069000000000,"state":"active","ping":57},{"user_id":804,"name":"njokuani","steam_id":76561199061380038,"connected_time":3134000000000,"state":"active","ping":60},{"user_id":818,"name":"harusrl :3","steam_id":76561199013638132,"connected_time":1909000000000,"state":"active","ping":61},{"user_id":790,"name":"Zesty Zucchini Ziti","steam_id":76561198092494136,"connected_time":4524000000000,"state":"active","ping":60},{"user_id":823,"name":"Brad Bones","steam_id":76561198068129320,"connected_time":981000000000,"state":"active","ping":70},{"user_id":824,"name":"4 life","steam_id":76561198175961598,"connected_time":788000000000,"state":"active","ping":115},{"user_id":821,"name":"jumbi","steam_id":76561198353456379,"connected_time":1657000000000,"state":"active","ping":64},{"user_id":798,"name":"Fu Qian Qian","steam_id":76561199081837220,"connected_time":4202000000000,"state":"active","ping":64},{"user_id":817,"name":"Kamin","steam_id":76561198255299559,"connected_time":2231000000000,"state":"active","ping":84},{"user_id":811,"name":"ZachTheBuddy","steam_id":76561198099997292,"connected_time":2883000000000,"state":"active","ping":80}]},{"server_id":403,"name":"Uncletopia | Chicago | 4 | All Maps","name_short":"chi-4","host":"chi-1.us.uncletopia.com","port":27045,"enabled":true,"region":"us-central","cc":"us","latitude":41.881832,"longitude":-87.62318,"reserved":0,"last_update":"0001-01-01T00:00:00Z","name_a2s":"Uncletopia | Chicago | 4 | All Maps","protocol":17,"map":"pl_upward","folder":"tf","game":"Team Fortress","app_id":440,"player_count":24,"max_players":24,"Bots":0,"server_type":"Dedicated","server_os":"Linux","password":true,"vac":true,"version":"7961495","steam_id":85568392924515193,"keywords":["nocrits","nodmgspread","payload","uncletopia"],"game_id":440,"stv_port":27046,"stv_name":"Uncletopia | Chicago | 4 | All Maps | STV","players":[{"user_id":644,"name":"drujnk falloyuj","steam_id":76561198066068001,"connected_time":1581000000000,"state":"active","ping":83},{"user_id":682,"name":"Tyth","steam_id":76561198062543298,"connected_time":110000000000,"state":"active","ping":87},{"user_id":673,"name":"tgirl swag","steam_id":76561198128164970,"connected_time":385000000000,"state":"active","ping":107},{"user_id":642,"name":"Nessie is my Waifu","steam_id":76561198076021620,"connected_time":1602000000000,"state":"active","ping":68},{"user_id":674,"name":"Day By Day","steam_id":76561198410957728,"connected_time":368000000000,"state":"active","ping":48},{"user_id":665,"name":"CoziestGlobe","steam_id":76561198199237735,"connected_time":886000000000,"state":"active","ping":75},{"user_id":390,"name":"ItsThatBear","steam_id":76561198169617659,"connected_time":23853000000000,"state":"active","ping":87},{"user_id":643,"name":"RocketRabbit","steam_id":76561198803062131,"connected_time":1601000000000,"state":"active","ping":73},{"user_id":639,"name":"Lost","steam_id":76561198025933206,"connected_time":2387000000000,"state":"active","ping":60},{"user_id":677,"name":"Dogman15","steam_id":76561198071246716,"connected_time":297000000000,"state":"active","ping":108},{"user_id":648,"name":"Oden Derg","steam_id":76561198881543434,"connected_time":1494000000000,"state":"active","ping":107},{"user_id":666,"name":"SimpKing","steam_id":76561198061431512,"connected_time":879000000000,"state":"active","ping":71},{"user_id":675,"name":"breathing meat donut","steam_id":76561198123566649,"connected_time":363000000000,"state":"active","ping":73},{"user_id":669,"name":"Cheesecake","steam_id":76561197978508626,"connected_time":734000000000,"state":"active","ping":78},{"user_id":598,"name":"Nestor","steam_id":76561198070782619,"connected_time":6614000000000,"state":"active","ping":68},{"user_id":679,"name":"Hideo","steam_id":76561198021776676,"connected_time":277000000000,"state":"active","ping":161},{"user_id":668,"name":"BL√òRG","steam_id":76561198036126673,"connected_time":801000000000,"state":"active","ping":81},{"user_id":670,"name":"yalu","steam_id":76561198224811504,"connected_time":587000000000,"state":"active","ping":66},{"user_id":626,"name":"Infurno","steam_id":76561198817371052,"connected_time":3076000000000,"state":"active","ping":91},{"user_id":628,"name":"Kantamoe","steam_id":76561198046661611,"connected_time":3060000000000,"state":"active","ping":88},{"user_id":664,"name":"playguy carter","steam_id":76561198080679337,"connected_time":910000000000,"state":"active","ping":51},{"user_id":676,"name":"Walla","steam_id":76561198103379757,"connected_time":302000000000,"state":"active","ping":45},{"user_id":680,"name":"pigswill","steam_id":76561197999081865,"connected_time":242000000000,"state":"active","ping":90},{"user_id":681,"name":"Sir Grey The Ranger","steam_id":76561198096235582,"connected_time":156000000000,"state":"active","ping":50}]},{"server_id":36,"name":"Uncletopia | Chicago | 5 | All Maps","name_short":"chi-5","host":"chi-2.us.uncletopia.com","port":27015,"enabled":true,"region":"us-central","cc":"us","latitude":41.881832,"longitude":-87.62318,"reserved":0,"last_update":"0001-01-01T00:00:00Z","name_a2s":"Uncletopia | Chicago | 5 | All Maps","protocol":17,"map":"cp_altitude","folder":"tf","game":"Team Fortress","app_id":440,"player_count":0,"max_players":24,"Bots":0,"server_type":"Dedicated","server_os":"Linux","password":true,"vac":true,"version":"7961495","steam_id":85568392924866362,"keywords":["cp","nocrits","nodmgspread","uncletopia"],"game_id":440,"stv_port":27016,"stv_name":"Uncletopia | Chicago | 5 | All Maps | STV","players":null},{"server_id":37,"name":"Uncletopia | Chicago | 6 | All Maps","name_short":"chi-6","host":"chi-2.us.uncletopia.com","port":27025,"enabled":true,"region":"us-central","cc":"us","latitude":41.881832,"longitude":-87.62318,"reserved":0,"last_update":"0001-01-01T00:00:00Z","name_a2s":"Uncletopia | Chicago | 6 | All Maps","protocol":17,"map":"ctf_2fort","folder":"tf","game":"Team Fortress","app_id":440,"player_count":24,"max_players":24,"Bots":0,"server_type":"Dedicated","server_os":"Linux","password":true,"vac":true,"version":"7961495","steam_id":85568392924866363,"keywords":["ctf","nocrits","nodmgspread","uncletopia"],"game_id":440,"stv_port":27026,"stv_name":"Uncletopia | Chicago | 6 | All Maps | STV","players":[{"user_id":467,"name":"sleepy‚äπ","steam_id":76561199200969139,"connected_time":1615000000000,"state":"active","ping":104},{"user_id":454,"name":"Sandman's fan #1","steam_id":76561199049620145,"connected_time":2233000000000,"state":"active","ping":193},{"user_id":401,"name":"BARON VON FLUFF AND STUFF","steam_id":76561198036325020,"connected_time":6679000000000,"state":"active","ping":93},{"user_id":489,"name":"Techo","steam_id":76561199169405285,"connected_time":297000000000,"state":"active","ping":106},{"user_id":486,"name":"Big titty garf gf","steam_id":76561198220756188,"connected_time":426000000000,"state":"active","ping":55},{"user_id":464,"name":"Hound From Heck","steam_id":76561198087764017,"connected_time":1811000000000,"state":"active","ping":84},{"user_id":490,"name":"ryfith","steam_id":76561198878986398,"connected_time":233000000000,"state":"active","ping":74},{"user_id":468,"name":"Preston","steam_id":76561198335444084,"connected_time":1587000000000,"state":"active","ping":126},{"user_id":456,"name":"Catzs","steam_id":76561197996013572,"connected_time":2148000000000,"state":"active","ping":95},{"user_id":491,"name":"Micheymomo","steam_id":76561198059699913,"connected_time":69000000000,"state":"active","ping":74},{"user_id":487,"name":"079 enjoyer","steam_id":76561199183122979,"connected_time":415000000000,"state":"active","ping":61},{"user_id":469,"name":"87987974","steam_id":76561198046948758,"connected_time":1578000000000,"state":"active","ping":68},{"user_id":479,"name":"Tabby!!!!","steam_id":76561198018288153,"connected_time":928000000000,"state":"active","ping":46},{"user_id":432,"name":"DYGIILYIAHSPJTOS (she/her)","steam_id":76561198042177809,"connected_time":4912000000000,"state":"active","ping":71},{"user_id":470,"name":"f1a2s3s4","steam_id":76561198228400104,"connected_time":1573000000000,"state":"active","ping":120},{"user_id":480,"name":"‚òÜShinyMew112","steam_id":76561198042820161,"connected_time":927000000000,"state":"active","ping":50},{"user_id":476,"name":"xanderthecommander","steam_id":76561198883218291,"connected_time":1023000000000,"state":"active","ping":92},{"user_id":488,"name":"The Groovy man","steam_id":76561198260531991,"connected_time":383000000000,"state":"active","ping":80},{"user_id":409,"name":"Lj3online, Questing Ronin","steam_id":76561198009960926,"connected_time":6230000000000,"state":"active","ping":103},{"user_id":463,"name":"Bonk Nickeltoon","steam_id":76561198027738883,"connected_time":1836000000000,"state":"active","ping":51},{"user_id":472,"name":"Koipetal","steam_id":76561198445464412,"connected_time":1538000000000,"state":"active","ping":85},{"user_id":485,"name":"Hiko The Wizard","steam_id":76561198082834147,"connected_time":681000000000,"state":"active","ping":47},{"user_id":478,"name":"GoldtoothFour","steam_id":76561198055529332,"connected_time":996000000000,"state":"active","ping":54},{"user_id":473,"name":"concreteeater22","steam_id":76561198250042710,"connected_time":1508000000000,"state":"active","ping":93}]},{"server_id":38,"name":"Uncletopia | Chicago | 7 | Stopwatch","name_short":"chi-7","host":"chi-2.us.uncletopia.com","port":27035,"enabled":true,"region":"us-central","cc":"us","latitude":41.881832,"longitude":-87.62318,"reserved":0,"last_update":"0001-01-01T00:00:00Z","name_a2s":"Uncletopia | Chicago | 7 | Stopwatch","protocol":17,"map":"koth_lakeside_final","folder":"tf","game":"Team Fortress","app_id":440,"player_count":0,"max_players":24,"Bots":0,"server_type":"Dedicated","server_os":"Linux","password":true,"vac":true,"version":"7961495","steam_id":85568392924866364,"keywords":["cp","nocrits","nodmgspread","uncletopia"],"game_id":440,"stv_port":27036,"stv_name":"Uncletopia | Chicago | 7 | Stopwatch | STV","players":null},{"server_id":39,"name":"Uncletopia | Chicago | 8 | Community","name_short":"chi-8","host":"chi-2.us.uncletopia.com","port":27045,"enabled":true,"region":"us-central","cc":"us","latitude":41.881832,"longitude":-87.62318,"reserved":0,"last_update":"0001-01-01T00:00:00Z","name_a2s":"Uncletopia | Chicago | 8 | Community","protocol":17,"map":"workshop/pl_divulgence_b4b.ugc2884808746","folder":"tf","game":"Team Fortress","app_id":440,"player_count":2,"max_players":24,"Bots":0,"server_type":"Dedicated","server_os":"Linux","password":true,"vac":true,"version":"7961495","steam_id":85568392924866365,"keywords":["nocrits","nodmgspread","payload","uncletopia"],"game_id":440,"stv_port":27046,"stv_name":"Uncletopia | Chicago | 8 | Community | STV","players":[{"user_id":128,"name":"Ask Nicely For Heals","steam_id":76561198138478907,"connected_time":2138000000000,"state":"active","ping":76},{"user_id":125,"name":"Mr.President","steam_id":76561198971144834,"connected_time":3495000000000,"state":"active","ping":60}]},{"server_id":8,"name":"Uncletopia | Dallas | 1 | All Maps","name_short":"dal-1","host":"dal-1.us.uncletopia.com","port":27015,"enabled":true,"region":"us-central","cc":"us","latitude":32.779167,"longitude":-96.80889,"reserved":0,"last_update":"0001-01-01T00:00:00Z","name_a2s":"Uncletopia | Dallas | 1 | All Maps","protocol":17,"map":"koth_cascade","folder":"tf","game":"Team Fortress","app_id":440,"player_count":20,"max_players":24,"Bots":0,"server_type":"Dedicated","server_os":"Linux","password":true,"vac":true,"version":"7961495","steam_id":85568392924469986,"keywords":["cp","nocrits","nodmgspread","uncletopia"],"game_id":440,"stv_port":27016,"stv_name":"Uncletopia | Dallas | 1 | All Maps | STV","players":[{"user_id":577,"name":"Fake21","steam_id":76561198282065071,"connected_time":4036000000000,"state":"active","ping":50},{"user_id":578,"name":"itcamefromspace","steam_id":76561198138860356,"connected_time":4035000000000,"state":"active","ping":58},{"user_id":580,"name":"porz","steam_id":76561198195711453,"connected_time":3997000000000,"state":"active","ping":45},{"user_id":612,"name":"goopgrabber","steam_id":76561199029951083,"connected_time":221000000000,"state":"active","ping":90},{"user_id":613,"name":"Arrythmia","steam_id":76561198093748123,"connected_time":206000000000,"state":"active","ping":105},{"user_id":547,"name":"Typh","steam_id":76561198315344079,"connected_time":6826000000000,"state":"active","ping":78},{"user_id":605,"name":"Wikked","steam_id":76561198196149207,"connected_time":1360000000000,"state":"active","ping":135},{"user_id":614,"name":"Sanity Impaired Toast Man","steam_id":76561198057654265,"connected_time":129000000000,"state":"active","ping":92},{"user_id":575,"name":"dobby","steam_id":76561198012274834,"connected_time":4623000000000,"state":"active","ping":65},{"user_id":579,"name":"Dot.","steam_id":76561198149463984,"connected_time":4032000000000,"state":"active","ping":65},{"user_id":596,"name":"Jebbe","steam_id":76561198240835684,"connected_time":3000000000000,"state":"active","ping":50},{"user_id":602,"name":"Ghoulenoir","steam_id":76561198074314573,"connected_time":2070000000000,"state":"active","ping":60},{"user_id":576,"name":"plink","steam_id":76561198057829889,"connected_time":4138000000000,"state":"active","ping":58},{"user_id":591,"name":"Penguin","steam_id":76561198042896082,"connected_time":3667000000000,"state":"active","ping":87},{"user_id":608,"name":"Burpingtaco","steam_id":76561198081207098,"connected_time":762000000000,"state":"active","ping":98},{"user_id":586,"name":"Punished Shitster","steam_id":76561198150452857,"connected_time":3866000000000,"state":"active","ping":46},{"user_id":513,"name":"Momiji Pop!","steam_id":76561198039869773,"connected_time":9804000000000,"state":"active","ping":74},{"user_id":610,"name":"SGT Disoriented","steam_id":76561198058177958,"connected_time":588000000000,"state":"active","ping":58},{"user_id":611,"name":"Dr. Pepper","steam_id":76561198160614405,"connected_time":517000000000,"state":"active","ping":94},{"user_id":536,"name":"Ojen","steam_id":76561197998414482,"connected_time":7965000000000,"state":"active","ping":76}]},{"server_id":108,"name":"Uncletopia | Dallas | 2 | All Maps","name_short":"dal-2","host":"dal-1.us.uncletopia.com","port":27025,"enabled":true,"region":"us-central","cc":"us","latitude":32.779167,"longitude":-96.80889,"reserved":0,"last_update":"0001-01-01T00:00:00Z","name_a2s":"Uncletopia | Dallas | 2 | All Maps","protocol":17,"map":"pl_snowycoast","folder":"tf","game":"Team Fortress","app_id":440,"player_count":0,"max_players":24,"Bots":0,"server_type":"Dedicated","server_os":"Linux","password":true,"vac":true,"version":"7961495","steam_id":85568392924469988,"keywords":["nocrits","nodmgspread","payload","uncletopia"],"game_id":440,"stv_port":27026,"stv_name":"Uncletopia | Dallas | 2 | All Maps | STV","players":null},{"server_id":404,"name":"Uncletopia | Dallas | 3 | All Maps","name_short":"dal-3","host":"dal-1.us.uncletopia.com","port":27035,"enabled":true,"region":"us-central","cc":"us","latitude":32.779167,"longitude":-96.80889,"reserved":0,"last_update":"0001-01-01T00:00:00Z","name_a2s":"Uncletopia | Dallas | 3 | All Maps","protocol":17,"map":"cp_altitude","folder":"tf","game":"Team Fortress","app_id":440,"player_count":0,"max_players":24,"Bots":0,"server_type":"Dedicated","server_os":"Linux","password":true,"vac":true,"version":"7961495","steam_id":85568392924515219,"keywords":["cp","nocrits","nodmgspread","uncletopia"],"game_id":440,"stv_port":27036,"stv_name":"Uncletopia | Dallas | 3 | All Maps | STV","players":null},{"server_id":405,"name":"Uncletopia | Dallas | 4 | Community","name_short":"dal-4","host":"dal-1.us.uncletopia.com","port":27045,"enabled":true,"region":"us-central","cc":"us","latitude":32.779167,"longitude":-96.80889,"reserved":0,"last_update":"0001-01-01T00:00:00Z","name_a2s":"Uncletopia | Dallas | 4 | Community","protocol":17,"map":"workshop/pl_corrode_rc2.ugc546577989","folder":"tf","game":"Team Fortress","app_id":440,"player_count":0,"max_players":24,"Bots":0,"server_type":"Dedicated","server_os":"Linux","password":true,"vac":true,"version":"7961495","steam_id":85568392924515220,"keywords":["nocrits","nodmgspread","payload","uncletopia"],"game_id":440,"stv_port":27046,"stv_name":"Uncletopia | Dallas | 4 | Community | STV","players":null},{"server_id":5,"name":"Uncletopia | Frankfurt | 1 | All Maps","name_short":"frk-1","host":"frk-1.de.uncletopia.com","port":27015,"enabled":true,"region":"eu","cc":"de","latitude":50.110924,"longitude":8.682127,"reserved":0,"last_update":"0001-01-01T00:00:00Z","name_a2s":"Uncletopia | Frankfurt | 1 | All Maps","protocol":17,"map":"koth_highpass","folder":"tf","game":"Team Fortress","app_id":440,"player_count":0,"max_players":24,"Bots":0,"server_type":"Dedicated","server_os":"Linux","password":true,"vac":true,"version":"7961495","steam_id":85568392924469989,"keywords":["cp","nocrits","nodmgspread","uncletopia"],"game_id":440,"stv_port":27016,"stv_name":"Uncletopia | Frankfurt | 1 | All Maps | STV","players":null},{"server_id":110,"name":"Uncletopia | Frankfurt | 2 | All Maps","name_short":"frk-2","host":"frk-1.de.uncletopia.com","port":27025,"enabled":true,"region":"eu","cc":"de","latitude":50.110924,"longitude":8.682127,"reserved":0,"last_update":"0001-01-01T00:00:00Z","name_a2s":"Uncletopia | Frankfurt | 2 | All Maps","protocol":17,"map":"cp_dustbowl","folder":"tf","game":"Team Fortress","app_id":440,"player_count":0,"max_players":24,"Bots":0,"server_type":"Dedicated","server_os":"Linux","password":true,"vac":true,"version":"7961495","steam_id":85568392924469990,"keywords":["cp","nocrits","nodmgspread","uncletopia"],"game_id":440,"stv_port":27026,"stv_name":"Uncletopia | Frankfurt | 2 | All Maps | STV","players":null},{"server_id":308,"name":"Uncletopia | Frankfurt | 3 | All Maps","name_short":"frk-3","host":"frk-1.de.uncletopia.com","port":27035,"enabled":true,"region":"eu","cc":"de","latitude":50.110924,"longitude":8.682127,"reserved":0,"last_update":"0001-01-01T00:00:00Z","name_a2s":"Uncletopia | Frankfurt | 3 | All Maps","protocol":17,"map":"pl_barnblitz","folder":"tf","game":"Team Fortress","app_id":440,"player_count":0,"max_players":24,"Bots":0,"server_type":"Dedicated","server_os":"Linux","password":true,"vac":true,"version":"7961495","steam_id":85568392924504274,"keywords":["nocrits","nodmgspread","payload","uncletopia"],"game_id":440,"stv_port":27036,"stv_name":"Uncletopia | Frankfurt | 3 | All Maps | STV","players":null},{"server_id":309,"name":"Uncletopia | Frankfurt | 4 | All Maps","name_short":"frk-4","host":"frk-1.de.uncletopia.com","port":27045,"enabled":true,"region":"eu","cc":"de","latitude":50.110924,"longitude":8.682127,"reserved":0,"last_update":"0001-01-01T00:00:00Z","name_a2s":"Uncletopia | Frankfurt | 4 | All Maps","protocol":17,"map":"koth_highpass","folder":"tf","game":"Team Fortress","app_id":440,"player_count":0,"max_players":24,"Bots":0,"server_type":"Dedicated","server_os":"Linux","password":true,"vac":true,"version":"7961495","steam_id":85568392924504275,"keywords":["cp","nocrits","nodmgspread","uncletopia"],"game_id":440,"stv_port":27046,"stv_name":"Uncletopia | Frankfurt | 4 | All Maps | STV","players":null},{"server_id":310,"name":"Uncletopia | Frankfurt | 5 | All Maps","name_short":"frk-5","host":"frk-1.de.uncletopia.com","port":27055,"enabled":true,"region":"eu","cc":"de","latitude":50.110924,"longitude":8.682127,"reserved":0,"last_update":"0001-01-01T00:00:00Z","name_a2s":"Uncletopia | Frankfurt | 5 | All Maps","protocol":17,"map":"pl_badwater","folder":"tf","game":"Team Fortress","app_id":440,"player_count":0,"max_players":24,"Bots":0,"server_type":"Dedicated","server_os":"Linux","password":true,"vac":true,"version":"7961495","steam_id":85568392924504277,"keywords":["nocrits","nodmgspread","payload","uncletopia"],"game_id":440,"stv_port":27056,"stv_name":"Uncletopia | Frankfurt | 5 | All Maps | STV","players":null},{"server_id":311,"name":"Uncletopia | Frankfurt | 6 | All Maps","name_short":"frk-6","host":"frk-1.de.uncletopia.com","port":27065,"enabled":true,"region":"eu","cc":"de","latitude":50.110924,"longitude":8.682127,"reserved":0,"last_update":"0001-01-01T00:00:00Z","name_a2s":"Uncletopia | Frankfurt | 6 | All Maps","protocol":17,"map":"pl_upward","folder":"tf","game":"Team Fortress","app_id":440,"player_count":0,"max_players":24,"Bots":0,"server_type":"Dedicated","server_os":"Linux","password":true,"vac":true,"version":"7961495","steam_id":85568392924504278,"keywords":["nocrits","nodmgspread","payload","uncletopia"],"game_id":440,"stv_port":27066,"stv_name":"Uncletopia | Frankfurt | 6 | All Maps | STV","players":null},{"server_id":23,"name":"Uncletopia | Frankfurt | 7 | Stopwatch","name_short":"frk-7","host":"frk-1.de.uncletopia.com","port":27075,"enabled":true,"region":"eu","cc":"de","latitude":50.110924,"longitude":8.682127,"reserved":0,"last_update":"0001-01-01T00:00:00Z","name_a2s":"Uncletopia | Frankfurt | 7 | Stopwatch","protocol":17,"map":"pl_swiftwater_final1","folder":"tf","game":"Team Fortress","app_id":440,"player_count":4,"max_players":24,"Bots":0,"server_type":"Dedicated","server_os":"Linux","password":true,"vac":true,"version":"7961495","steam_id":85568392924742827,"keywords":["nocrits","nodmgspread","payload","uncletopia"],"game_id":440,"stv_port":27076,"stv_name":"Uncletopia | Frankfurt | 7 | Stopwatch | STV","players":[{"user_id":5,"name":"Analni Zlotvor","steam_id":76561198178886767,"connected_time":1421000000000,"state":"active","ping":75},{"user_id":6,"name":"Taur","steam_id":76561198310905979,"connected_time":1411000000000,"state":"active","ping":98},{"user_id":7,"name":"tyroksi :D","steam_id":76561198103875245,"connected_time":803000000000,"state":"active","ping":102},{"user_id":11,"name":"Armolitskiy","steam_id":76561198443646513,"connected_time":146000000000,"state":"active","ping":149}]},{"server_id":24,"name":"Uncletopia | Frankfurt | 8 | Community","name_short":"frk-8","host":"frk-1.de.uncletopia.com","port":27085,"enabled":true,"region":"eu","cc":"de","latitude":50.110924,"longitude":8.682127,"reserved":0,"last_update":"0001-01-01T00:00:00Z","name_a2s":"Uncletopia | Frankfurt | 8 | Community","protocol":17,"map":"workshop/rd_asteroid_redux_b1.ugc2154902912","folder":"tf","game":"Team Fortress","app_id":440,"player_count":0,"max_players":24,"Bots":0,"server_type":"Dedicated","server_os":"Linux","password":true,"vac":true,"version":"7961495","steam_id":85568392924742828,"keywords":["beta","nocrits","nodmgspread","rd","uncletopia"],"game_id":440,"stv_port":27086,"stv_name":"Uncletopia | Frankfurt | 8 | Community | STV","players":null},{"server_id":202,"name":"Uncletopia | Hong Kong | 1 | All Maps","name_short":"hgk-1","host":"hgk-1.hk.uncletopia.com","port":27015,"enabled":true,"region":"asia","cc":"hk","latitude":22.302711,"longitude":114.177216,"reserved":0,"last_update":"0001-01-01T00:00:00Z","name_a2s":"Uncletopia | Hong Kong | 1 | All Maps","protocol":17,"map":"ctf_turbine","folder":"tf","game":"Team Fortress","app_id":440,"player_count":23,"max_players":24,"Bots":0,"server_type":"Dedicated","server_os":"Linux","password":true,"vac":true,"version":"7961495","steam_id":85568392924494504,"keywords":["ctf","nocrits","nodmgspread","uncletopia"],"game_id":440,"stv_port":27016,"stv_name":"Uncletopia | Hong Kong | 1 | All Maps | STV","players":[{"user_id":218,"name":"CaptainBozo","steam_id":76561199151959977,"connected_time":373000000000,"state":"active","ping":64},{"user_id":122,"name":"2746","steam_id":76561199390507975,"connected_time":3378000000000,"state":"active","ping":50},{"user_id":116,"name":"water tastes good","steam_id":76561199375947670,"connected_time":4263000000000,"state":"active","ping":71},{"user_id":117,"name":"Jun-char","steam_id":76561198126774704,"connected_time":3800000000000,"state":"active","ping":84},{"user_id":123,"name":"PissDrinker98","steam_id":76561198856157761,"connected_time":3257000000000,"state":"active","ping":116},{"user_id":204,"name":"coakDeLera","steam_id":76561199262817512,"connected_time":873000000000,"state":"active","ping":83},{"user_id":138,"name":"thelightcreeprr","steam_id":76561199478299222,"connected_time":1896000000000,"state":"active","ping":65},{"user_id":126,"name":"piston","steam_id":76561198992723983,"connected_time":2633000000000,"state":"active","ping":97},{"user_id":74,"name":"Lanz","steam_id":76561198815561855,"connected_time":6392000000000,"state":"active","ping":58},{"user_id":223,"name":"wur","steam_id":76561197984249963,"connected_time":184000000000,"state":"active","ping":136},{"user_id":225,"name":"marisaloses","steam_id":76561199033032870,"connected_time":139000000000,"state":"active","ping":112},{"user_id":70,"name":"MS PowerPoint","steam_id":76561198369523192,"connected_time":7012000000000,"state":"active","ping":63},{"user_id":220,"name":"Ruby Star","steam_id":76561198400705064,"connected_time":308000000000,"state":"active","ping":73},{"user_id":219,"name":"Unalive me=gay","steam_id":76561198837566675,"connected_time":355000000000,"state":"active","ping":77},{"user_id":214,"name":"HIGHSSTN","steam_id":76561198131270946,"connected_time":568000000000,"state":"active","ping":104},{"user_id":85,"name":"The one who shit on piss","steam_id":76561199254649689,"connected_time":5718000000000,"state":"active","ping":119},{"user_id":159,"name":"14","steam_id":76561198113401862,"connected_time":1606000000000,"state":"active","ping":85},{"user_id":199,"name":"big beaver","steam_id":76561199219484527,"connected_time":928000000000,"state":"active","ping":153},{"user_id":221,"name":"[Sicky] I twin-charged your kid","steam_id":76561198228084940,"connected_time":303000000000,"state":"active","ping":32},{"user_id":222,"name":"Shotty 2 Hotty","steam_id":76561199174449723,"connected_time":300000000000,"state":"active","ping":102},{"user_id":129,"name":"Dr. Piss Rat","steam_id":76561199074809838,"connected_time":2272000000000,"state":"active","ping":84},{"user_id":125,"name":"niceguy6785","steam_id":76561199442589750,"connected_time":2888000000000,"state":"active","ping":47},{"user_id":175,"name":"ArcticDolphin","steam_id":76561198203626319,"connected_time":1311000000000,"state":"active","ping":129}]},{"server_id":1,"name":"Uncletopia | Los Angeles | 1 | All Maps","name_short":"lax-1","host":"lax-1.us.uncletopia.com","port":27015,"enabled":true,"region":"us-west","cc":"us","latitude":33.94279,"longitude":-118.41004,"reserved":0,"last_update":"0001-01-01T00:00:00Z","name_a2s":"Uncletopia | Los Angeles | 1 | All Maps","protocol":17,"map":"pl_swiftwater_final1","folder":"tf","game":"Team Fortress","app_id":440,"player_count":2,"max_players":24,"Bots":0,"server_type":"Dedicated","server_os":"Linux","password":true,"vac":true,"version":"7961495","steam_id":85568392924469991,"keywords":["nocrits","nodmgspread","payload","uncletopia"],"game_id":440,"stv_port":27016,"stv_name":"Uncletopia | Los Angeles | 1 | All Maps | STV","players":[{"user_id":339,"name":"knatspray","steam_id":76561198832507482,"connected_time":4333000000000,"state":"active","ping":78},{"user_id":377,"name":"Thiscookieman","steam_id":76561199012117130,"connected_time":1234000000000,"state":"active","ping":80}]},{"server_id":112,"name":"Uncletopia | Los Angeles | 2 | All Maps","name_short":"lax-2","host":"lax-1.us.uncletopia.com","port":27025,"enabled":true,"region":"us-west","cc":"us","latitude":33.94279,"longitude":-118.41004,"reserved":0,"last_update":"0001-01-01T00:00:00Z","name_a2s":"Uncletopia | Los Angeles | 2 | All Maps","protocol":17,"map":"cp_dustbowl","folder":"tf","game":"Team Fortress","app_id":440,"player_count":24,"max_players":24,"Bots":0,"server_type":"Dedicated","server_os":"Linux","password":true,"vac":true,"version":"7961495","steam_id":85568392924469992,"keywords":["cp","nocrits","nodmgspread","uncletopia"],"game_id":440,"stv_port":27026,"stv_name":"Uncletopia | Los Angeles | 2 | All Maps | STV","players":[{"user_id":395,"name":"ninety9dragonfly","steam_id":76561198363406983,"connected_time":2215000000000,"state":"active","ping":71},{"user_id":405,"name":"Xemyr","steam_id":76561198044090177,"connected_time":1505000000000,"state":"active","ping":91},{"user_id":397,"name":"ìÜèCayenne Pepper ìÜè","steam_id":76561198124881810,"connected_time":1996000000000,"state":"active","ping":79},{"user_id":406,"name":"A B1 Battle Droid","steam_id":76561198050678984,"connected_time":1499000000000,"state":"active","ping":90},{"user_id":400,"name":"Gary Sinfeld","steam_id":76561198042274074,"connected_time":1933000000000,"state":"active","ping":70},{"user_id":350,"name":"Username","steam_id":76561198198918781,"connected_time":6169000000000,"state":"active","ping":70},{"user_id":399,"name":"ShadowBolt","steam_id":76561198061610985,"connected_time":1947000000000,"state":"active","ping":144},{"user_id":407,"name":"Shadoe","steam_id":76561198218577281,"connected_time":1334000000000,"state":"active","ping":100},{"user_id":402,"name":"Sly_1087.TTV","steam_id":76561198188900013,"connected_time":1744000000000,"state":"active","ping":116},{"user_id":424,"name":"Cy","steam_id":76561198134543062,"connected_time":441000000000,"state":"active","ping":70},{"user_id":422,"name":"blozet","steam_id":76561199120161035,"connected_time":480000000000,"state":"active","ping":116},{"user_id":384,"name":"Ethan7704","steam_id":76561198821010606,"connected_time":4072000000000,"state":"active","ping":115},{"user_id":409,"name":"Cmoon99999","steam_id":76561198928412604,"connected_time":1309000000000,"state":"active","ping":116},{"user_id":410,"name":"Hektur Salmondchonka","steam_id":76561198136982572,"connected_time":1275000000000,"state":"active","ping":86},{"user_id":382,"name":"vgMaster749","steam_id":76561198205048900,"connected_time":4120000000000,"state":"active","ping":97},{"user_id":411,"name":"FI LO","steam_id":76561198976530881,"connected_time":1233000000000,"state":"active","ping":29},{"user_id":423,"name":"Lord Pretty Flocko Jordye","steam_id":76561198962880749,"connected_time":480000000000,"state":"active","ping":85},{"user_id":412,"name":"messenger zidgeon","steam_id":76561198098770013,"connected_time":1222000000000,"state":"active","ping":41},{"user_id":413,"name":"MORE BOUNCE TO THE OUNCE","steam_id":76561198243399336,"connected_time":1187000000000,"state":"active","ping":73},{"user_id":414,"name":"„ÉÉ SStickyrice","steam_id":76561198278306483,"connected_time":1115000000000,"state":"active","ping":69},{"user_id":378,"name":"tutua","steam_id":76561198065709917,"connected_time":4508000000000,"state":"active","ping":113},{"user_id":415,"name":"‚ú™ Dawso.rice","steam_id":76561198296052759,"connected_time":1114000000000,"state":"active","ping":82},{"user_id":416,"name":"danEY","steam_id":76561198049857596,"connected_time":1112000000000,"state":"active","ping":55},{"user_id":420,"name":"nescoceo","steam_id":76561198040801160,"connected_time":799000000000,"state":"active","ping":53}]},{"server_id":324,"name":"Uncletopia | Los Angeles | 3 | All Maps","name_short":"lax-3","host":"lax-1.us.uncletopia.com","port":27035,"enabled":true,"region":"us-west","cc":"us","latitude":33.94279,"longitude":-118.41004,"reserved":0,"last_update":"0001-01-01T00:00:00Z","name_a2s":"Uncletopia | Los Angeles | 3 | All Maps","protocol":17,"map":"pl_badwater","folder":"tf","game":"Team Fortress","app_id":440,"player_count":23,"max_players":24,"Bots":0,"server_type":"Dedicated","server_os":"Linux","password":true,"vac":true,"version":"7961495","steam_id":85568392924510198,"keywords":["nocrits","nodmgspread","payload","uncletopia"],"game_id":440,"stv_port":27036,"stv_name":"Uncletopia | Los Angeles | 3 | All Maps | STV","players":[{"user_id":328,"name":"Grassman (Cc)","steam_id":76561198026488532,"connected_time":2374000000000,"state":"active","ping":56},{"user_id":358,"name":"atomicmushroom7","steam_id":76561198008181404,"connected_time":365000000000,"state":"active","ping":82},{"user_id":336,"name":"Maks","steam_id":76561198315278876,"connected_time":1887000000000,"state":"active","ping":183},{"user_id":341,"name":"bootyzilla·¥∏·¥Æ·¥¥","steam_id":76561198322206140,"connected_time":1450000000000,"state":"active","ping":86},{"user_id":347,"name":"sandman","steam_id":76561198144772540,"connected_time":1207000000000,"state":"active","ping":91},{"user_id":337,"name":"Gimme your Teeth","steam_id":76561198240523882,"connected_time":1870000000000,"state":"active","ping":45},{"user_id":289,"name":"cheese biddle","steam_id":76561198971552734,"connected_time":4354000000000,"state":"active","ping":49},{"user_id":294,"name":"perc 10","steam_id":76561198116471653,"connected_time":4023000000000,"state":"active","ping":60},{"user_id":346,"name":"Grandpa Baozhai","steam_id":76561198086667725,"connected_time":1225000000000,"state":"active","ping":84},{"user_id":359,"name":"wizerd","steam_id":76561198342480009,"connected_time":168000000000,"state":"active","ping":59},{"user_id":298,"name":"Zebulon","steam_id":76561198025719753,"connected_time":3854000000000,"state":"active","ping":65},{"user_id":299,"name":"Whiskey","steam_id":76561198858154667,"connected_time":3819000000000,"state":"active","ping":45},{"user_id":360,"name":"CORGIMOM420","steam_id":76561197999423108,"connected_time":167000000000,"state":"active","ping":75},{"user_id":326,"name":"Salt Syndrome","steam_id":76561198046584592,"connected_time":2657000000000,"state":"active","ping":85},{"user_id":352,"name":"akio","steam_id":76561198067850362,"connected_time":999000000000,"state":"active","ping":67},{"user_id":361,"name":"(Speaks in Spanish)","steam_id":76561198198704538,"connected_time":151000000000,"state":"active","ping":62},{"user_id":349,"name":"Fargo","steam_id":76561198044703931,"connected_time":1126000000000,"state":"active","ping":75},{"user_id":362,"name":"Skip Hop Doo Bop","steam_id":76561199161571849,"connected_time":134000000000,"state":"active","ping":55},{"user_id":363,"name":"_mako","steam_id":76561198008262397,"connected_time":128000000000,"state":"active","ping":119},{"user_id":364,"name":"Halo\u003c3","steam_id":76561198144909435,"connected_time":100000000000,"state":"active","ping":55},{"user_id":365,"name":"blue of days","steam_id":76561199113013688,"connected_time":31000000000,"state":"spawning","ping":50},{"user_id":366,"name":"hardfork","steam_id":76561197960958019,"connected_time":22000000000,"state":"active","ping":76},{"user_id":342,"name":"captainclass","steam_id":76561198073307396,"connected_time":1443000000000,"state":"active","ping":83}]},{"server_id":25,"name":"Uncletopia | Los Angeles | 4 | Stopwatch","name_short":"lax-4","host":"lax-1.us.uncletopia.com","port":27045,"enabled":true,"region":"us-west","cc":"us","latitude":33.94279,"longitude":-118.41004,"reserved":0,"last_update":"0001-01-01T00:00:00Z","name_a2s":"Uncletopia | Los Angeles | 4 | Stopwatch","protocol":17,"map":"cp_gullywash_final1","folder":"tf","game":"Team Fortress","app_id":440,"player_count":0,"max_players":24,"Bots":0,"server_type":"Dedicated","server_os":"Linux","password":true,"vac":true,"version":"7961495","steam_id":85568392924510199,"keywords":["cp","nocrits","nodmgspread","uncletopia"],"game_id":440,"stv_port":27046,"stv_name":"Uncletopia | Los Angeles | 4 | Stopwatch | STV","players":null},{"server_id":11,"name":"Uncletopia | London | 1 | All Maps","name_short":"lon-1","host":"lon-1.uk.uncletopia.com","port":27015,"enabled":true,"region":"eu","cc":"gb","latitude":51.509865,"longitude":-0.118092,"reserved":0,"last_update":"0001-01-01T00:00:00Z","name_a2s":"Uncletopia | London | 1 | All Maps","protocol":17,"map":"koth_highpass","folder":"tf","game":"Team Fortress","app_id":440,"player_count":0,"max_players":24,"Bots":0,"server_type":"Dedicated","server_os":"Linux","password":true,"vac":true,"version":"7961495","steam_id":85568392924367362,"keywords":["cp","nocrits","nodmgspread","uncletopia"],"game_id":440,"stv_port":27016,"stv_name":"Uncletopia | London | 1 | All Maps | STV","players":null},{"server_id":114,"name":"Uncletopia | London | 2 | All Maps","name_short":"lon-2","host":"lon-1.uk.uncletopia.com","port":27025,"enabled":true,"region":"eu","cc":"gb","latitude":51.509865,"longitude":-0.118092,"reserved":0,"last_update":"0001-01-01T00:00:00Z","name_a2s":"Uncletopia | London | 2 | All Maps","protocol":17,"map":"koth_lakeside_final","folder":"tf","game":"Team Fortress","app_id":440,"player_count":0,"max_players":24,"Bots":0,"server_type":"Dedicated","server_os":"Linux","password":true,"vac":true,"version":"7961495","steam_id":85568392924470941,"keywords":["cp","nocrits","nodmgspread","uncletopia"],"game_id":440,"stv_port":27026,"stv_name":"Uncletopia | London | 2 | All Maps | STV","players":null},{"server_id":320,"name":"Uncletopia | London | 3 | All Maps","name_short":"lon-3","host":"lon-1.uk.uncletopia.com","port":27035,"enabled":true,"region":"eu","cc":"gb","latitude":51.509865,"longitude":-0.118092,"reserved":0,"last_update":"0001-01-01T00:00:00Z","name_a2s":"Uncletopia | London | 3 | All Maps","protocol":17,"map":"cp_process_final","folder":"tf","game":"Team Fortress","app_id":440,"player_count":0,"max_players":24,"Bots":0,"server_type":"Dedicated","server_os":"Linux","password":true,"vac":true,"version":"7961495","steam_id":85568392924510192,"keywords":["cp","nocrits","nodmgspread","uncletopia"],"game_id":440,"stv_port":27036,"stv_name":"Uncletopia | London | 3 | All Maps | STV","players":null},{"server_id":321,"name":"Uncletopia | London | 4 | All Maps","name_short":"lon-4","host":"lon-1.uk.uncletopia.com","port":27045,"enabled":true,"region":"eu","cc":"gb","latitude":51.509865,"longitude":-0.118092,"reserved":0,"last_update":"0001-01-01T00:00:00Z","name_a2s":"Uncletopia | London | 4 | All Maps","protocol":17,"map":"koth_cascade","folder":"tf","game":"Team Fortress","app_id":440,"player_count":0,"max_players":24,"Bots":0,"server_type":"Dedicated","server_os":"Linux","password":true,"vac":true,"version":"7961495","steam_id":85568392924510193,"keywords":["cp","nocrits","nodmgspread","uncletopia"],"game_id":440,"stv_port":27046,"stv_name":"Uncletopia | London | 4 | All Maps | STV","players":null},{"server_id":21,"name":"Uncletopia | London | 5 | All Maps","name_short":"lon-5","host":"lon-1.uk.uncletopia.com","port":27055,"enabled":true,"region":"eu","cc":"gb","latitude":51.509865,"longitude":-0.118092,"reserved":0,"last_update":"0001-01-01T00:00:00Z","name_a2s":"Uncletopia | London | 5 | All Maps","protocol":17,"map":"koth_lakeside_final","folder":"tf","game":"Team Fortress","app_id":440,"player_count":0,"max_players":24,"Bots":0,"server_type":"Dedicated","server_os":"Linux","password":true,"vac":true,"version":"7961495","steam_id":85568392924742829,"keywords":["cp","nocrits","nodmgspread","uncletopia"],"game_id":440,"stv_port":27056,"stv_name":"Uncletopia | London | 5 | All Maps | STV","players":null},{"server_id":22,"name":"Uncletopia | London | 6 | All Maps","name_short":"lon-6","host":"lon-1.uk.uncletopia.com","port":27065,"enabled":true,"region":"eu","cc":"gb","latitude":51.509865,"longitude":-0.118092,"reserved":0,"last_update":"0001-01-01T00:00:00Z","name_a2s":"Uncletopia | London | 6 | All Maps","protocol":17,"map":"cp_dustbowl","folder":"tf","game":"Team Fortress","app_id":440,"player_count":0,"max_players":24,"Bots":0,"server_type":"Dedicated","server_os":"Linux","password":true,"vac":true,"version":"7961495","steam_id":85568392924742830,"keywords":["cp","nocrits","nodmgspread","uncletopia"],"game_id":440,"stv_port":27066,"stv_name":"Uncletopia | London | 6 | All Maps | STV","players":null},{"server_id":40,"name":"Uncletopia | London | 7 | Stopwatch","name_short":"lon-7","host":"lon-1.uk.uncletopia.com","port":27075,"enabled":true,"region":"eu","cc":"gb","latitude":51.509865,"longitude":-0.118092,"reserved":0,"last_update":"0001-01-01T00:00:00Z","name_a2s":"Uncletopia | London | 7 | Stopwatch","protocol":17,"map":"koth_lakeside_final","folder":"tf","game":"Team Fortress","app_id":440,"player_count":0,"max_players":24,"Bots":0,"server_type":"Dedicated","server_os":"Linux","password":true,"vac":true,"version":"7961495","steam_id":85568392924964314,"keywords":["cp","nocrits","nodmgspread","uncletopia"],"game_id":440,"stv_port":27076,"stv_name":"Uncletopia | London | 7 | Stopwatch | STV","players":null},{"server_id":41,"name":"Uncletopia | London | 8 | Community","name_short":"lon-8","host":"lon-1.uk.uncletopia.com","port":27085,"enabled":true,"region":"eu","cc":"gb","latitude":51.509865,"longitude":-0.118092,"reserved":0,"last_update":"0001-01-01T00:00:00Z","name_a2s":"Uncletopia | London | 8 | Community","protocol":17,"map":"cp_snakewater_final1","folder":"tf","game":"Team Fortress","app_id":440,"player_count":0,"max_players":24,"Bots":0,"server_type":"Dedicated","server_os":"Linux","password":true,"vac":true,"version":"7961495","steam_id":85568392924964315,"keywords":["cp","nocrits","nodmgspread","uncletopia"],"game_id":440,"stv_port":27086,"stv_name":"Uncletopia | London | 8 | Community | STV","players":null},{"server_id":300,"name":"Uncletopia | Montr√©al | 1 | One Thousand Uncles","name_short":"mtl-1","host":"mtl-1.ca.uncletopia.com","port":27015,"enabled":true,"region":"us-east","cc":"ca","latitude":45.50889,"longitude":-73.56167,"reserved":0,"last_update":"0001-01-01T00:00:00Z","name_a2s":"","protocol":0,"map":"","folder":"","game":"","app_id":0,"player_count":3,"max_players":0,"Bots":0,"server_type":"","server_os":"","password":false,"vac":false,"version":"","steam_id":0,"keywords":null,"game_id":0,"stv_port":0,"stv_name":"","players":[{"user_id":646,"name":"Consolidated Fart","steam_id":76561198924101909,"connected_time":3288000000000,"state":"active","ping":266},{"user_id":647,"name":"RacoonGamer","steam_id":76561198100907657,"connected_time":3267000000000,"state":"active","ping":44},{"user_id":665,"name":"Bobby Bigman","steam_id":76561198044679656,"connected_time":2394000000000,"state":"active","ping":268}]},{"server_id":301,"name":"Uncletopia | Montr√©al | 2 | One Thousand Uncles","name_short":"mtl-2","host":"mtl-1.ca.uncletopia.com","port":27025,"enabled":true,"region":"us-east","cc":"ca","latitude":45.50889,"longitude":-73.56167,"reserved":0,"last_update":"0001-01-01T00:00:00Z","name_a2s":"","protocol":0,"map":"","folder":"","game":"","app_id":0,"player_count":3,"max_players":0,"Bots":0,"server_type":"","server_os":"","password":false,"vac":false,"version":"","steam_id":0,"keywords":null,"game_id":0,"stv_port":0,"stv_name":"","players":[{"user_id":289,"name":"Holiday Fartcruise","steam_id":76561198043851584,"connected_time":2334000000000,"state":"active","ping":122},{"user_id":306,"name":"Gay Cake","steam_id":76561198004388831,"connected_time":2091000000000,"state":"active","ping":74},{"user_id":308,"name":"BlixyDragon","steam_id":76561198295422834,"connected_time":1103000000000,"state":"active","ping":136}]},{"server_id":302,"name":"Uncletopia | Montr√©al | 3 | One Thousand Uncles","name_short":"mtl-3","host":"mtl-1.ca.uncletopia.com","port":27035,"enabled":true,"region":"us-east","cc":"ca","latitude":45.50889,"longitude":-73.56167,"reserved":0,"last_update":"0001-01-01T00:00:00Z","name_a2s":"","protocol":0,"map":"","folder":"","game":"","app_id":0,"player_count":0,"max_players":0,"Bots":0,"server_type":"","server_os":"","password":false,"vac":false,"version":"","steam_id":0,"keywords":null,"game_id":0,"stv_port":0,"stv_name":"","players":null},{"server_id":13,"name":"Uncletopia | New York City | 1 | All Maps","name_short":"nyc-1","host":"nyc-1.us.uncletopia.com","port":27015,"enabled":true,"region":"us-east","cc":"us","latitude":40.73061,"longitude":-73.93524,"reserved":0,"last_update":"0001-01-01T00:00:00Z","name_a2s":"Uncletopia | New York City | 1 | All Maps","protocol":17,"map":"pl_upward","folder":"tf","game":"Team Fortress","app_id":440,"player_count":23,"max_players":24,"Bots":0,"server_type":"Dedicated","server_os":"Linux","password":true,"vac":true,"version":"7961495","steam_id":85568392924469993,"keywords":["nocrits","nodmgspread","payload","uncletopia"],"game_id":440,"stv_port":27016,"stv_name":"Uncletopia | New York City | 1 | All Maps | STV","players":[{"user_id":623,"name":"alleeop43","steam_id":76561199029390266,"connected_time":1100000000000,"state":"active","ping":144},{"user_id":624,"name":"The Grim Heaper","steam_id":76561197987759101,"connected_time":1075000000000,"state":"active","ping":120},{"user_id":611,"name":"ClutchSR","steam_id":76561199018366378,"connected_time":2451000000000,"state":"active","ping":100},{"user_id":616,"name":"XoaT_.","steam_id":76561198095119371,"connected_time":2255000000000,"state":"active","ping":90},{"user_id":606,"name":"Lemon","steam_id":76561199470347358,"connected_time":2814000000000,"state":"active","ping":77},{"user_id":631,"name":"dipski","steam_id":76561198032340084,"connected_time":565000000000,"state":"active","ping":89},{"user_id":595,"name":"shadow wizard money gang","steam_id":76561198181153199,"connected_time":3894000000000,"state":"active","ping":82},{"user_id":559,"name":"Voracious Puma","steam_id":76561197963621649,"connected_time":5839000000000,"state":"active","ping":85},{"user_id":635,"name":"Sergeant Snowflake","steam_id":76561198041474489,"connected_time":208000000000,"state":"active","ping":71},{"user_id":640,"name":"Eli","steam_id":76561198254184465,"connected_time":6000000000,"state":"spawning","ping":254},{"user_id":620,"name":"Shadow VonMoon","steam_id":76561198864843988,"connected_time":1474000000000,"state":"active","ping":87},{"user_id":632,"name":"Kirby !!","steam_id":76561198834741464,"connected_time":354000000000,"state":"active","ping":60},{"user_id":566,"name":"rubn","steam_id":76561198119586410,"connected_time":5589000000000,"state":"active","ping":135},{"user_id":626,"name":"Kritzburgh","steam_id":76561198149466938,"connected_time":1019000000000,"state":"active","ping":49},{"user_id":633,"name":"Tf Classic better","steam_id":76561198391284380,"connected_time":297000000000,"state":"active","ping":68},{"user_id":637,"name":"vareh","steam_id":76561197993190926,"connected_time":110000000000,"state":"active","ping":120},{"user_id":612,"name":"GtownMenace","steam_id":76561198079359870,"connected_time":2448000000000,"state":"active","ping":151},{"user_id":558,"name":"king julian","steam_id":76561198119651530,"connected_time":5845000000000,"state":"active","ping":56},{"user_id":601,"name":"Xyverle","steam_id":76561198799726415,"connected_time":3573000000000,"state":"active","ping":74},{"user_id":628,"name":"io","steam_id":76561198118909037,"connected_time":979000000000,"state":"active","ping":65},{"user_id":600,"name":"Rambly Dambly","steam_id":76561198844496567,"connected_time":3623000000000,"state":"active","ping":39},{"user_id":639,"name":"haydar198112","steam_id":76561198131197590,"connected_time":58000000000,"state":"active","ping":207},{"user_id":634,"name":"Bombilla","steam_id":76561198084281798,"connected_time":297000000000,"state":"active","ping":135}]},{"server_id":14,"name":"Uncletopia | New York City | 2 | All Maps","name_short":"nyc-2","host":"nyc-1.us.uncletopia.com","port":27025,"enabled":true,"region":"us-east","cc":"us","latitude":40.73061,"longitude":-73.93524,"reserved":0,"last_update":"0001-01-01T00:00:00Z","name_a2s":"Uncletopia | New York City | 2 | All Maps","protocol":17,"map":"cp_sunshine","folder":"tf","game":"Team Fortress","app_id":440,"player_count":0,"max_players":24,"Bots":0,"server_type":"Dedicated","server_os":"Linux","password":true,"vac":true,"version":"7961495","steam_id":85568392924469994,"keywords":["cp","nocrits","nodmgspread","uncletopia"],"game_id":440,"stv_port":27026,"stv_name":"Uncletopia | New York City | 2 | All Maps | STV","players":null},{"server_id":15,"name":"Uncletopia | New York City | 3 | Stopwatch","name_short":"nyc-3","host":"nyc-1.us.uncletopia.com","port":27035,"enabled":true,"region":"us-east","cc":"us","latitude":40.73061,"longitude":-73.93524,"reserved":0,"last_update":"0001-01-01T00:00:00Z","name_a2s":"Uncletopia | New York City | 3 | Stopwatch","protocol":17,"map":"pl_borneo","folder":"tf","game":"Team Fortress","app_id":440,"player_count":0,"max_players":24,"Bots":0,"server_type":"Dedicated","server_os":"Linux","password":true,"vac":true,"version":"7961495","steam_id":85568392924742820,"keywords":["nocrits","nodmgspread","payload","uncletopia"],"game_id":440,"stv_port":27036,"stv_name":"Uncletopia | New York City | 3 | Stopwatch | STV","players":null},{"server_id":16,"name":"Uncletopia | New York City | 4 | Community","name_short":"nyc-4","host":"nyc-1.us.uncletopia.com","port":27045,"enabled":true,"region":"us-east","cc":"us","latitude":40.73061,"longitude":-73.93524,"reserved":0,"last_update":"0001-01-01T00:00:00Z","name_a2s":"Uncletopia | New York City | 4 | Community","protocol":17,"map":"workshop/koth_ramjam_rc1.ugc459778887","folder":"tf","game":"Team Fortress","app_id":440,"player_count":0,"max_players":24,"Bots":0,"server_type":"Dedicated","server_os":"Linux","password":true,"vac":true,"version":"7961495","steam_id":85568392924742821,"keywords":["cp","nocrits","nodmgspread","uncletopia"],"game_id":440,"stv_port":27046,"stv_name":"Uncletopia | New York City | 4 | Community | STV","players":null},{"server_id":142,"name":"Uncletopia | S√£o Paulo | 1 | All Maps","name_short":"sao-1","host":"sao-1.br.uncletopia.com","port":27015,"enabled":true,"region":"sa","cc":"br","latitude":-23.533773,"longitude":-46.62529,"reserved":0,"last_update":"0001-01-01T00:00:00Z","name_a2s":"Uncletopia | S√£o Paulo | 1 | All Maps","protocol":17,"map":"pl_swiftwater_final1","folder":"tf","game":"Team Fortress","app_id":440,"player_count":0,"max_players":24,"Bots":0,"server_type":"Dedicated","server_os":"Linux","password":true,"vac":true,"version":"7961495","steam_id":85568392924469996,"keywords":["nocrits","nodmgspread","payload","uncletopia"],"game_id":440,"stv_port":27016,"stv_name":"Uncletopia | S√£o Paulo | 1 | All Maps | STV","players":null},{"server_id":143,"name":"Uncletopia | S√£o Paulo | 2 | Community","name_short":"sao-2","host":"sao-2.br.uncletopia.com","port":27015,"enabled":true,"region":"sa","cc":"br","latitude":-23.533773,"longitude":-46.62529,"reserved":0,"last_update":"0001-01-01T00:00:00Z","name_a2s":"Uncletopia | S√£o Paulo | 2 | Community","protocol":17,"map":"workshop/koth_product_final.ugc454272353","folder":"tf","game":"Team Fortress","app_id":440,"player_count":0,"max_players":24,"Bots":0,"server_type":"Dedicated","server_os":"Linux","password":true,"vac":true,"version":"7961495","steam_id":85568392924485349,"keywords":["cp","nocrits","nodmgspread","uncletopia"],"game_id":440,"stv_port":27016,"stv_name":"Uncletopia | S√£o Paulo | 2 | Community | STV","players":null},{"server_id":7,"name":"Uncletopia | Seattle | 1 | All Maps","name_short":"sea-1","host":"sea-1.us.uncletopia.com","port":27015,"enabled":true,"region":"us-west","cc":"us","latitude":47.608013,"longitude":-122.33517,"reserved":0,"last_update":"0001-01-01T00:00:00Z","name_a2s":"Uncletopia | Seattle | 1 | All Maps","protocol":17,"map":"koth_nucleus","folder":"tf","game":"Team Fortress","app_id":440,"player_count":23,"max_players":24,"Bots":0,"server_type":"Dedicated","server_os":"Linux","password":true,"vac":true,"version":"7961495","steam_id":85568392924469997,"keywords":["cp","nocrits","nodmgspread","uncletopia"],"game_id":440,"stv_port":27016,"stv_name":"Uncletopia | Seattle | 1 | All Maps | STV","players":[{"user_id":599,"name":"mrthugpug1732","steam_id":76561198881200768,"connected_time":1090000000000,"state":"active","ping":75},{"user_id":604,"name":"PerKnuckleChuckle","steam_id":76561198023221596,"connected_time":786000000000,"state":"active","ping":60},{"user_id":606,"name":"¬´D·µÉ ≥·µè.,,.T·µâ·µê·µñ¬ª","steam_id":76561198018185884,"connected_time":617000000000,"state":"active","ping":43},{"user_id":529,"name":"Lord Hater","steam_id":76561199158148782,"connected_time":7524000000000,"state":"active","ping":55},{"user_id":551,"name":"cerious","steam_id":76561197994365894,"connected_time":5419000000000,"state":"active","ping":39},{"user_id":608,"name":"Henry11799","steam_id":76561198121162774,"connected_time":100000000000,"state":"active","ping":64},{"user_id":595,"name":"Mitchell","steam_id":76561197972922328,"connected_time":1373000000000,"state":"active","ping":48},{"user_id":591,"name":"Obersteuermann","steam_id":76561198044468707,"connected_time":1804000000000,"state":"active","ping":49},{"user_id":584,"name":"Divergence Test","steam_id":76561198103653795,"connected_time":2968000000000,"state":"active","ping":89},{"user_id":609,"name":"lovebug","steam_id":76561198228395556,"connected_time":8000000000,"state":"spawning","ping":385},{"user_id":589,"name":"[TrC] Nosy","steam_id":76561197978859310,"connected_time":1843000000000,"state":"active","ping":58},{"user_id":593,"name":"Japanese Pizza Girlfriend","steam_id":76561198044855147,"connected_time":1603000000000,"state":"active","ping":42},{"user_id":552,"name":"[TrC] Dackstrus","steam_id":76561197973518509,"connected_time":5324000000000,"state":"active","ping":57},{"user_id":550,"name":"Havi","steam_id":76561198197832829,"connected_time":5456000000000,"state":"active","ping":45},{"user_id":566,"name":"_Ati","steam_id":76561198339777801,"connected_time":4295000000000,"state":"active","ping":84},{"user_id":602,"name":"Crooked--Savant","steam_id":76561198070937094,"connected_time":939000000000,"state":"active","ping":58},{"user_id":597,"name":"w a o w","steam_id":76561198060769385,"connected_time":1279000000000,"state":"active","ping":75},{"user_id":600,"name":"Dapper","steam_id":76561198103189993,"connected_time":1031000000000,"state":"active","ping":76},{"user_id":586,"name":"Stick","steam_id":76561198001509374,"connected_time":2938000000000,"state":"active","ping":96},{"user_id":588,"name":"kill me","steam_id":76561198032625036,"connected_time":2687000000000,"state":"active","ping":59},{"user_id":598,"name":"your buddy shlomo","steam_id":76561198075544930,"connected_time":1124000000000,"state":"active","ping":102},{"user_id":587,"name":"Master Oogway","steam_id":76561198252199106,"connected_time":2920000000000,"state":"active","ping":105},{"user_id":607,"name":"lker","steam_id":76561197976975075,"connected_time":522000000000,"state":"active","ping":110}]},{"server_id":119,"name":"Uncletopia | Seattle | 2 | All Maps","name_short":"sea-2","host":"sea-1.us.uncletopia.com","port":27025,"enabled":true,"region":"us-west","cc":"us","latitude":47.608013,"longitude":-122.33517,"reserved":0,"last_update":"0001-01-01T00:00:00Z","name_a2s":"Uncletopia | Seattle | 2 | All Maps","protocol":17,"map":"cp_dustbowl","folder":"tf","game":"Team Fortress","app_id":440,"player_count":22,"max_players":24,"Bots":0,"server_type":"Dedicated","server_os":"Linux","password":true,"vac":true,"version":"7961495","steam_id":85568392924469998,"keywords":["cp","nocrits","nodmgspread","uncletopia"],"game_id":440,"stv_port":27026,"stv_name":"Uncletopia | Seattle | 2 | All Maps | STV","players":[{"user_id":378,"name":"FidelGuevara","steam_id":76561198368296171,"connected_time":3925000000000,"state":"active","ping":92},{"user_id":391,"name":"sagekiss","steam_id":76561198038831240,"connected_time":2623000000000,"state":"active","ping":55},{"user_id":393,"name":"Giant Rat Ashes +7","steam_id":76561198045235251,"connected_time":2607000000000,"state":"active","ping":30},{"user_id":429,"name":"*Gage*","steam_id":76561197975233869,"connected_time":42000000000,"state":"active","ping":112},{"user_id":430,"name":"Rusty","steam_id":76561198055585129,"connected_time":6000000000,"state":"spawning","ping":51},{"user_id":410,"name":"Milkf porn","steam_id":76561198152601497,"connected_time":852000000000,"state":"active","ping":84},{"user_id":425,"name":"Road To 1K SANDMAN Kills!","steam_id":76561198045398686,"connected_time":181000000000,"state":"active","ping":120},{"user_id":416,"name":"laggy mcstab","steam_id":76561198106379962,"connected_time":404000000000,"state":"active","ping":60},{"user_id":402,"name":"crouching tiger heavy","steam_id":76561198121767390,"connected_time":1651000000000,"state":"active","ping":106},{"user_id":381,"name":"jodi engwyrn","steam_id":76561198131833567,"connected_time":3731000000000,"state":"active","ping":65},{"user_id":418,"name":"mmmBoyo","steam_id":76561198821360261,"connected_time":338000000000,"state":"active","ping":44},{"user_id":417,"name":"Puskinti","steam_id":76561198032120688,"connected_time":365000000000,"state":"active","ping":46},{"user_id":331,"name":"Mr8bittripper","steam_id":76561198133894229,"connected_time":7858000000000,"state":"active","ping":43},{"user_id":336,"name":"Hawksgamer","steam_id":76561198152405941,"connected_time":7320000000000,"state":"active","ping":66},{"user_id":420,"name":"Motobono9","steam_id":76561198032403516,"connected_time":302000000000,"state":"active","ping":55},{"user_id":421,"name":"PikaJW","steam_id":76561198079831429,"connected_time":281000000000,"state":"active","ping":48},{"user_id":426,"name":"Fachedin","steam_id":76561198041850415,"connected_time":132000000000,"state":"active","ping":60},{"user_id":422,"name":"dubba13 ( ‚Ä¢ÃÄ_‚Ä¢ÃÅ)","steam_id":76561199428471192,"connected_time":278000000000,"state":"active","ping":54},{"user_id":404,"name":"Snoopist","steam_id":76561198144023761,"connected_time":1599000000000,"state":"active","ping":85},{"user_id":427,"name":"kaela","steam_id":76561198868313598,"connected_time":119000000000,"state":"active","ping":46},{"user_id":424,"name":"cubular","steam_id":76561198060490991,"connected_time":256000000000,"state":"active","ping":73},{"user_id":348,"name":"K1ng_Terpz #savelight_env","steam_id":76561198094217198,"connected_time":6137000000000,"state":"active","ping":54}]},{"server_id":406,"name":"Uncletopia | Seattle | 3 | Stopwatch","name_short":"sea-3","host":"sea-1.us.uncletopia.com","port":27035,"enabled":true,"region":"us-west","cc":"us","latitude":47.608013,"longitude":-122.33517,"reserved":0,"last_update":"0001-01-01T00:00:00Z","name_a2s":"Uncletopia | Seattle | 3 | Stopwatch","protocol":17,"map":"workshop/koth_ashville_final.ugc2130459942","folder":"tf","game":"Team Fortress","app_id":440,"player_count":0,"max_players":24,"Bots":0,"server_type":"Dedicated","server_os":"Linux","password":true,"vac":true,"version":"7961495","steam_id":85568392924515217,"keywords":["cp","nocrits","nodmgspread","uncletopia"],"game_id":440,"stv_port":27036,"stv_name":"Uncletopia | Seattle | 3 | Stopwatch | STV","players":null},{"server_id":17,"name":"Uncletopia | San Francisco | 1 | All Maps","name_short":"sfo-1","host":"sfo-1.us.uncletopia.com","port":27015,"enabled":true,"region":"us-west","cc":"us","latitude":37.77397,"longitude":-122.4313,"reserved":0,"last_update":"0001-01-01T00:00:00Z","name_a2s":"Uncletopia | San Francisco | 1 | All Maps","protocol":17,"map":"pl_barnblitz","folder":"tf","game":"Team Fortress","app_id":440,"player_count":0,"max_players":24,"Bots":0,"server_type":"Dedicated","server_os":"Linux","password":true,"vac":true,"version":"7961495","steam_id":85568392924469999,"keywords":["nocrits","nodmgspread","payload","uncletopia"],"game_id":440,"stv_port":27016,"stv_name":"Uncletopia | San Francisco | 1 | All Maps | STV","players":null},{"server_id":18,"name":"Uncletopia | San Francisco | 2 | All Maps","name_short":"sfo-2","host":"sfo-1.us.uncletopia.com","port":27025,"enabled":true,"region":"us-west","cc":"us","latitude":37.77397,"longitude":-122.4313,"reserved":0,"last_update":"0001-01-01T00:00:00Z","name_a2s":"Uncletopia | San Francisco | 2 | All Maps","protocol":17,"map":"cp_sunshine","folder":"tf","game":"Team Fortress","app_id":440,"player_count":8,"max_players":24,"Bots":0,"server_type":"Dedicated","server_os":"Linux","password":true,"vac":true,"version":"7961495","steam_id":85568392924470000,"keywords":["cp","nocrits","nodmgspread","uncletopia"],"game_id":440,"stv_port":27026,"stv_name":"Uncletopia | San Francisco | 2 | All Maps | STV","players":[{"user_id":328,"name":"aphip","steam_id":76561198084621244,"connected_time":526000000000,"state":"active","ping":45},{"user_id":329,"name":"The_RainbowTrout","steam_id":76561199309554436,"connected_time":384000000000,"state":"active","ping":58},{"user_id":316,"name":"Mapachito Lindo","steam_id":76561198031359995,"connected_time":1852000000000,"state":"active","ping":59},{"user_id":330,"name":"Diamitha","steam_id":76561198288279659,"connected_time":375000000000,"state":"active","ping":122},{"user_id":204,"name":"Lambchop","steam_id":76561198043900363,"connected_time":10569000000000,"state":"active","ping":60},{"user_id":258,"name":"sincerelymagicmeister","steam_id":76561198393923543,"connected_time":7569000000000,"state":"active","ping":67},{"user_id":295,"name":"The Horny","steam_id":76561198863639459,"connected_time":3430000000000,"state":"active","ping":73},{"user_id":321,"name":"darkelaine227","steam_id":76561198097330521,"connected_time":1394000000000,"state":"active","ping":113}]},{"server_id":19,"name":"Uncletopia | San Francisco | 3 | Stopwatch","name_short":"sfo-3","host":"sfo-1.us.uncletopia.com","port":27035,"enabled":true,"region":"us-west","cc":"us","latitude":37.77397,"longitude":-122.4313,"reserved":0,"last_update":"0001-01-01T00:00:00Z","name_a2s":"Uncletopia | San Francisco | 3 | Stopwatch","protocol":17,"map":"workshop/pl_barnblitz_pro7.ugc582280235","folder":"tf","game":"Team Fortress","app_id":440,"player_count":0,"max_players":24,"Bots":0,"server_type":"Dedicated","server_os":"Linux","password":true,"vac":true,"version":"7961495","steam_id":85568392924742824,"keywords":["nocrits","nodmgspread","payload","uncletopia"],"game_id":440,"stv_port":27036,"stv_name":"Uncletopia | San Francisco | 3 | Stopwatch | STV","players":null},{"server_id":20,"name":"Uncletopia | San Francisco | 4 | Community","name_short":"sfo-4","host":"sfo-1.us.uncletopia.com","port":27045,"enabled":true,"region":"us-west","cc":"us","latitude":37.77397,"longitude":-122.4313,"reserved":0,"last_update":"0001-01-01T00:00:00Z","name_a2s":"Uncletopia | San Francisco | 4 | Community","protocol":17,"map":"workshop/koth_bagel_rc6.ugc2514036946","folder":"tf","game":"Team Fortress","app_id":440,"player_count":0,"max_players":24,"Bots":0,"server_type":"Dedicated","server_os":"Linux","password":true,"vac":true,"version":"7961495","steam_id":85568392924742826,"keywords":["cp","nocrits","nodmgspread","uncletopia"],"game_id":440,"stv_port":27046,"stv_name":"Uncletopia | San Francisco | 4 | Community | STV","players":null},{"server_id":141,"name":"Uncletopia | Sydney | 1 | All Maps","name_short":"syd-1","host":"syd-1.au.uncletopia.com","port":27015,"enabled":true,"region":"au","cc":"au","latitude":-33.865143,"longitude":151.2099,"reserved":0,"last_update":"0001-01-01T00:00:00Z","name_a2s":"Uncletopia | Sydney | 1 | All Maps","protocol":17,"map":"koth_highpass","folder":"tf","game":"Team Fortress","app_id":440,"player_count":0,"max_players":24,"Bots":0,"server_type":"Dedicated","server_os":"Linux","password":true,"vac":true,"version":"7961495","steam_id":85568392924470001,"keywords":["cp","nocrits","nodmgspread","uncletopia"],"game_id":440,"stv_port":27016,"stv_name":"Uncletopia | Sydney | 1 | All Maps | STV","players":null},{"server_id":123,"name":"Uncletopia | Sydney | 2 | All Maps","name_short":"syd-2","host":"syd-1.au.uncletopia.com","port":27025,"enabled":true,"region":"au","cc":"au","latitude":-33.865143,"longitude":151.2099,"reserved":0,"last_update":"0001-01-01T00:00:00Z","name_a2s":"Uncletopia | Sydney | 2 | All Maps","protocol":17,"map":"koth_lakeside_final","folder":"tf","game":"Team Fortress","app_id":440,"player_count":0,"max_players":24,"Bots":0,"server_type":"Dedicated","server_os":"Linux","password":true,"vac":true,"version":"7961495","steam_id":85568392924470002,"keywords":["cp","nocrits","nodmgspread","uncletopia"],"game_id":440,"stv_port":27026,"stv_name":"Uncletopia | Sydney | 2 | All Maps | STV","players":null},{"server_id":395,"name":"Uncletopia | Sydney | 3 | All Maps","name_short":"syd-3","host":"syd-1.au.uncletopia.com","port":27035,"enabled":true,"region":"au","cc":"au","latitude":-33.865143,"longitude":151.2099,"reserved":0,"last_update":"0001-01-01T00:00:00Z","name_a2s":"Uncletopia | Sydney | 3 | All Maps","protocol":17,"map":"cp_sunshine","folder":"tf","game":"Team Fortress","app_id":440,"player_count":0,"max_players":24,"Bots":0,"server_type":"Dedicated","server_os":"Linux","password":true,"vac":true,"version":"7961495","steam_id":85568392925194467,"keywords":["cp","nocrits","nodmgspread","uncletopia"],"game_id":440,"stv_port":27036,"stv_name":"Uncletopia | Sydney | 3 | All Maps | STV","players":null},{"server_id":396,"name":"Uncletopia | Sydney | 4 | All Maps","name_short":"syd-4","host":"syd-1.au.uncletopia.com","port":27045,"enabled":true,"region":"au","cc":"au","latitude":-33.865143,"longitude":151.2099,"reserved":0,"last_update":"0001-01-01T00:00:00Z","name_a2s":"Uncletopia | Sydney | 4 | All Maps","protocol":17,"map":"koth_highpass","folder":"tf","game":"Team Fortress","app_id":440,"player_count":0,"max_players":24,"Bots":0,"server_type":"Dedicated","server_os":"Linux","password":true,"vac":true,"version":"7961495","steam_id":85568392925397958,"keywords":["cp","nocrits","nodmgspread","uncletopia"],"game_id":440,"stv_port":27046,"stv_name":"Uncletopia | Sydney | 4 | All Maps | STV","players":null},{"server_id":58,"name":"Uncletopia | Sydney | 5 | Stopwatch","name_short":"syd-5","host":"syd-1.au.uncletopia.com","port":27055,"enabled":true,"region":"au","cc":"au","latitude":-33.865143,"longitude":151.2099,"reserved":0,"last_update":"0001-01-01T00:00:00Z","name_a2s":"Uncletopia | Sydney | 5 | Stopwatch","protocol":17,"map":"pl_frontier_final","folder":"tf","game":"Team Fortress","app_id":440,"player_count":0,"max_players":24,"Bots":0,"server_type":"Dedicated","server_os":"Linux","password":true,"vac":true,"version":"7961495","steam_id":85568392925397959,"keywords":["nocrits","nodmgspread","payload","uncletopia"],"game_id":440,"stv_port":27056,"stv_name":"Uncletopia | Sydney | 5 | Stopwatch | STV","players":null},{"server_id":59,"name":"Uncletopia | Sydney | 6 | Community","name_short":"syd-6","host":"syd-1.au.uncletopia.com","port":27065,"enabled":true,"region":"au","cc":"au","latitude":-33.865143,"longitude":151.2099,"reserved":0,"last_update":"0001-01-01T00:00:00Z","name_a2s":"Uncletopia | Sydney | 6 | Community","protocol":17,"map":"cp_sunshine","folder":"tf","game":"Team Fortress","app_id":440,"player_count":0,"max_players":24,"Bots":0,"server_type":"Dedicated","server_os":"Linux","password":true,"vac":true,"version":"7961495","steam_id":85568392925397960,"keywords":["cp","nocrits","nodmgspread","uncletopia"],"game_id":440,"stv_port":27066,"stv_name":"Uncletopia | Sydney | 6 | Community | STV","players":null},{"server_id":49,"name":"Uncletopia | Warsaw | 1 | One Thousand Uncles","name_short":"waw-1","host":"waw-1.pl.uncletopia.com","port":27015,"enabled":true,"region":"eu","cc":"pl","latitude":52.2297,"longitude":21.017532,"reserved":0,"last_update":"0001-01-01T00:00:00Z","name_a2s":"Uncletopia | Warsaw | 1 | One Thousand Uncles","protocol":17,"map":"koth_highpass","folder":"tf","game":"Team Fortress","app_id":440,"player_count":0,"max_players":32,"Bots":0,"server_type":"Dedicated","server_os":"Linux","password":true,"vac":true,"version":"7961495","steam_id":85568392925397850,"keywords":["alltalk","cp","danepve","increased_maxplayers","nocrits","norespawntime","uncletopia"],"game_id":440,"stv_port":0,"stv_name":"","players":null},{"server_id":50,"name":"Uncletopia | Warsaw | 2 | One Thousand Uncles","name_short":"waw-2","host":"waw-1.pl.uncletopia.com","port":27025,"enabled":true,"region":"eu","cc":"pl","latitude":52.2297,"longitude":21.017532,"reserved":0,"last_update":"0001-01-01T00:00:00Z","name_a2s":"Uncletopia | Warsaw | 2 | One Thousand Uncles","protocol":17,"map":"pl_goldrush","folder":"tf","game":"Team Fortress","app_id":440,"player_count":0,"max_players":32,"Bots":0,"server_type":"Dedicated","server_os":"Linux","password":true,"vac":true,"version":"7961495","steam_id":85568392925397851,"keywords":["alltalk","danepve","increased_maxplayers","nocrits","norespawntime","payload","uncletopia"],"game_id":440,"stv_port":0,"stv_name":"","players":null},{"server_id":51,"name":"Uncletopia | Warsaw | 3 | All Maps","name_short":"waw-3","host":"waw-1.pl.uncletopia.com","port":27035,"enabled":true,"region":"eu","cc":"pl","latitude":52.2297,"longitude":21.017532,"reserved":0,"last_update":"0001-01-01T00:00:00Z","name_a2s":"Uncletopia | Warsaw | 3 | All Maps","protocol":17,"map":"plr_pipeline","folder":"tf","game":"Team Fortress","app_id":440,"player_count":0,"max_players":24,"Bots":0,"server_type":"Dedicated","server_os":"Linux","password":true,"vac":true,"version":"7961495","steam_id":85568392925397852,"keywords":["nocrits","nodmgspread","payload","uncletopia"],"game_id":440,"stv_port":27036,"stv_name":"Uncletopia | Warsaw | 3 | All Maps | STV","players":null},{"server_id":52,"name":"Uncletopia | Warsaw | 4 | All Maps","name_short":"waw-4","host":"waw-1.pl.uncletopia.com","port":27045,"enabled":true,"region":"eu","cc":"pl","latitude":52.2297,"longitude":21.017532,"reserved":0,"last_update":"0001-01-01T00:00:00Z","name_a2s":"Uncletopia | Warsaw | 4 | All Maps","protocol":17,"map":"cp_coldfront","folder":"tf","game":"Team Fortress","app_id":440,"player_count":0,"max_players":24,"Bots":0,"server_type":"Dedicated","server_os":"Linux","password":true,"vac":true,"version":"7961495","steam_id":85568392925397853,"keywords":["cp","nocrits","nodmgspread","uncletopia"],"game_id":440,"stv_port":27046,"stv_name":"Uncletopia | Warsaw | 4 | All Maps | STV","players":null},{"server_id":53,"name":"Uncletopia | Warsaw | 5 | Stopwatch","name_short":"waw-5","host":"waw-1.pl.uncletopia.com","port":27055,"enabled":true,"region":"eu","cc":"pl","latitude":52.2297,"longitude":21.017532,"reserved":0,"last_update":"0001-01-01T00:00:00Z","name_a2s":"Uncletopia | Warsaw | 5 | Stopwatch","protocol":17,"map":"workshop/koth_bagel_rc6.ugc2514036946","folder":"tf","game":"Team Fortress","app_id":440,"player_count":0,"max_players":24,"Bots":0,"server_type":"Dedicated","server_os":"Linux","password":true,"vac":true,"version":"7961495","steam_id":85568392925397854,"keywords":["cp","nocrits","nodmgspread","uncletopia"],"game_id":440,"stv_port":27056,"stv_name":"Uncletopia | Warsaw | 5 | Stopwatch | STV","players":null},{"server_id":54,"name":"Uncletopia | Warsaw | 6 | Community","name_short":"waw-6","host":"waw-1.pl.uncletopia.com","port":27065,"enabled":true,"region":"eu","cc":"pl","latitude":52.2297,"longitude":21.017532,"reserved":0,"last_update":"0001-01-01T00:00:00Z","name_a2s":"Uncletopia | Warsaw | 6 | Community","protocol":17,"map":"workshop/pl_badwater_pro_v12.ugc2142942074","folder":"tf","game":"Team Fortress","app_id":440,"player_count":0,"max_players":24,"Bots":0,"server_type":"Dedicated","server_os":"Linux","password":true,"vac":true,"version":"7961495","steam_id":85568392925397856,"keywords":["nocrits","nodmgspread","payload","uncletopia"],"game_id":440,"stv_port":27066,"stv_name":"Uncletopia | Warsaw | 6 | Community | STV","players":null}]}