{"status":true,"message":"","result":[{"server_id":9,"name":"Uncletopia | Atlanta | 1 | All Maps","name_short":"atl-1","host":"atl-1.us.uncletopia.com","port":27015,"enabled":true,"region":"us-east","cc":"us","latitude":33.753746,"longitude":-84.38633,"reserved":0,"last_update":"0001-01-01T00:00:00Z","name_a2s":"Uncletopia | Atlanta | 1 | All Maps","protocol":17,"map":"pl_frontier_final","folder":"tf","game":"Team Fortress","app_id":440,"player_count":24,"max_players":24,"Bots":0,"server_type":"Dedicated","server_os":"Linux","password":true,"vac":true,"version":"7757534","steam_id":85568392924469982,"keywords":["nocrits","nodmgspread","payload","uncletopia"],"game_id":440,"stv_port":27016,"stv_name":"Uncletopia | Atlanta | 1 | All Maps | STV","players":[{"user_id":147,"name":"mcdoubble","steam_id":76561198089126832,"connected_time":2912000000000,"state":"active","ping":90},{"user_id":124,"name":"oiljacket","steam_id":76561199162111049,"connected_time":5024000000000,"state":"active","ping":71},{"user_id":22,"name":"Towns","steam_id":76561198984662863,"connected_time":12011000000000,"state":"active","ping":59},{"user_id":176,"name":"namisimp102","steam_id":76561198166710027,"connected_time":873000000000,"state":"active","ping":45},{"user_id":102,"name":"ATL1 | on my hunting trip","steam_id":76561198315341646,"connected_time":6380000000000,"state":"active","ping":73},{"user_id":164,"name":"Oddball","steam_id":76561198040440984,"connected_time":1572000000000,"state":"active","ping":87},{"user_id":121,"name":"Ashes!","steam_id":76561197998475441,"connected_time":5320000000000,"state":"active","ping":75},{"user_id":100,"name":"[txc] garf","steam_id":76561198083078030,"connected_time":7071000000000,"state":"active","ping":46},{"user_id":181,"name":".Eitho","steam_id":76561199036099287,"connected_time":98000000000,"state":"active","ping":44},{"user_id":178,"name":"Alt1 l Epifiny","steam_id":76561198027958086,"connected_time":751000000000,"state":"active","ping":88},{"user_id":165,"name":"Betting Snow","steam_id":76561198170577499,"connected_time":1567000000000,"state":"active","ping":45},{"user_id":162,"name":"‚ô°Alyx‚ô°","steam_id":76561198024303978,"connected_time":1680000000000,"state":"active","ping":56},{"user_id":168,"name":"Takumi Fujiwara","steam_id":76561198146281101,"connected_time":1518000000000,"state":"active","ping":71},{"user_id":145,"name":"BLU1| Inky (Coolest)","steam_id":76561198968337022,"connected_time":2923000000000,"state":"active","ping":57},{"user_id":180,"name":"pingus","steam_id":76561198268995867,"connected_time":680000000000,"state":"active","ping":90},{"user_id":173,"name":"Ninty","steam_id":76561199364725776,"connected_time":1274000000000,"state":"active","ping":59},{"user_id":179,"name":"Bad Headshots - (RIP Rick May)","steam_id":76561199050642411,"connected_time":720000000000,"state":"active","ping":74},{"user_id":117,"name":"Dr.Zarann","steam_id":76561198163952958,"connected_time":5551000000000,"state":"active","ping":61},{"user_id":175,"name":"ADGSRJRDKDTYKYRDJTJTJRT","steam_id":76561198822069026,"connected_time":1039000000000,"state":"active","ping":94},{"user_id":161,"name":"Karma","steam_id":76561198030565234,"connected_time":2546000000000,"state":"active","ping":137},{"user_id":169,"name":"spiderland","steam_id":76561198335992132,"connected_time":1514000000000,"state":"active","ping":120},{"user_id":170,"name":"hunchback of gay paris","steam_id":76561198116741891,"connected_time":1511000000000,"state":"active","ping":61},{"user_id":174,"name":"ƒ†1 ‚ô¶ Synth","steam_id":76561198058660228,"connected_time":1264000000000,"state":"active","ping":45},{"user_id":132,"name":"Mikhaila","steam_id":76561198065005979,"connected_time":4273000000000,"state":"active","ping":117}]},{"server_id":400,"name":"Uncletopia | Atlanta | 3 | Community","name_short":"atl-3","host":"atl-1.us.uncletopia.com","port":27035,"enabled":true,"region":"us-east","cc":"us","latitude":33.753746,"longitude":-84.38633,"reserved":0,"last_update":"0001-01-01T00:00:00Z","name_a2s":"Uncletopia | Atlanta | 3 | Community","protocol":17,"map":"workshop/pl_corrode_rc2.ugc546577989","folder":"tf","game":"Team Fortress","app_id":440,"player_count":0,"max_players":24,"Bots":0,"server_type":"Dedicated","server_os":"Linux","password":true,"vac":true,"version":"7757534","steam_id":85568392924515187,"keywords":["nocrits","nodmgspread","payload","uncletopia"],"game_id":440,"stv_port":27036,"stv_name":"Uncletopia | Atlanta | 3 | Community | STV","players":null},{"server_id":401,"name":"Uncletopia | Atlanta | 4 | No Payload","name_short":"atl-4","host":"atl-1.us.uncletopia.com","port":27045,"enabled":true,"region":"us-east","cc":"us","latitude":33.753746,"longitude":-84.38633,"reserved":0,"last_update":"0001-01-01T00:00:00Z","name_a2s":"","protocol":0,"map":"","folder":"","game":"","app_id":0,"player_count":0,"max_players":0,"Bots":0,"server_type":"","server_os":"","password":false,"vac":false,"version":"","steam_id":0,"keywords":null,"game_id":0,"stv_port":0,"stv_name":"","players":null},{"server_id":2,"name":"Uncletopia | Chicago | 1 | All Maps","name_short":"chi-1","host":"chi-1.us.uncletopia.com","port":27015,"enabled":true,"region":"us-central","cc":"us","latitude":41.881832,"longitude":-87.62318,"reserved":0,"last_update":"0001-01-01T00:00:00Z","name_a2s":"Uncletopia | Chicago | 1 | All Maps","protocol":17,"map":"pl_snowycoast","folder":"tf","game":"Team Fortress","app_id":440,"player_count":24,"max_players":24,"Bots":0,"server_type":"Dedicated","server_os":"Linux","password":true,"vac":true,"version":"7757534","steam_id":85568392924469984,"keywords":["nocrits","nodmgspread","payload","uncletopia"],"game_id":440,"stv_port":27016,"stv_name":"Uncletopia | Chicago | 1 | All Maps | STV","players":[{"user_id":300,"name":"Ursus Ludius","steam_id":76561198025470722,"connected_time":667000000000,"state":"active","ping":88},{"user_id":274,"name":"PKBEAST_7","steam_id":76561198177136537,"connected_time":2013000000000,"state":"active","ping":91},{"user_id":281,"name":"shadow wizard","steam_id":76561198165212575,"connected_time":1688000000000,"state":"active","ping":65},{"user_id":253,"name":"John Dungus (the real one)","steam_id":76561198049191027,"connected_time":3891000000000,"state":"active","ping":59},{"user_id":285,"name":";-;","steam_id":76561198044443985,"connected_time":1551000000000,"state":"active","ping":82},{"user_id":240,"name":"Bond","steam_id":76561198089262776,"connected_time":4801000000000,"state":"active","ping":84},{"user_id":286,"name":"PTSleepyHead","steam_id":76561198037748705,"connected_time":1520000000000,"state":"active","ping":101},{"user_id":276,"name":"jolo","steam_id":76561198042831480,"connected_time":1983000000000,"state":"active","ping":74},{"user_id":270,"name":"Universal Knowledge Allah","steam_id":76561198855935442,"connected_time":2855000000000,"state":"active","ping":74},{"user_id":188,"name":"General Jimbo","steam_id":76561198075426735,"connected_time":9060000000000,"state":"active","ping":85},{"user_id":246,"name":"Nati0n","steam_id":76561198151827926,"connected_time":4748000000000,"state":"active","ping":67},{"user_id":293,"name":"Big Phony","steam_id":76561199092395311,"connected_time":1010000000000,"state":"active","ping":62},{"user_id":294,"name":"=UWU=","steam_id":76561198033075245,"connected_time":1009000000000,"state":"active","ping":80},{"user_id":277,"name":"A Zoo Keeper","steam_id":76561198013732450,"connected_time":1976000000000,"state":"active","ping":53},{"user_id":290,"name":"jimbo","steam_id":76561198046059770,"connected_time":1081000000000,"state":"active","ping":64},{"user_id":305,"name":"Ghaeril","steam_id":76561198047880019,"connected_time":264000000000,"state":"active","ping":89},{"user_id":223,"name":"Crab Rangoon","steam_id":76561198059310510,"connected_time":6531000000000,"state":"active","ping":74},{"user_id":247,"name":"Skullypoo","steam_id":76561198067912022,"connected_time":4743000000000,"state":"active","ping":64},{"user_id":259,"name":"McdonaldsCoke","steam_id":76561199090988312,"connected_time":3598000000000,"state":"active","ping":86},{"user_id":292,"name":"Wumps","steam_id":76561198207226825,"connected_time":1023000000000,"state":"active","ping":84},{"user_id":302,"name":"98","steam_id":76561198134813102,"connected_time":510000000000,"state":"active","ping":60},{"user_id":296,"name":"SCATTER","steam_id":76561198405168492,"connected_time":966000000000,"state":"active","ping":82},{"user_id":297,"name":"RandyPickleshoes [BEC]","steam_id":76561198064139260,"connected_time":924000000000,"state":"active","ping":77},{"user_id":304,"name":"vyx","steam_id":76561198037205391,"connected_time":491000000000,"state":"active","ping":62}]},{"server_id":106,"name":"Uncletopia | Chicago | 2 | All Maps","name_short":"chi-2","host":"chi-1.us.uncletopia.com","port":27025,"enabled":true,"region":"us-central","cc":"us","latitude":41.881832,"longitude":-87.62318,"reserved":0,"last_update":"0001-01-01T00:00:00Z","name_a2s":"Uncletopia | Chicago | 2 | All Maps","protocol":17,"map":"pl_upward","folder":"tf","game":"Team Fortress","app_id":440,"player_count":24,"max_players":24,"Bots":0,"server_type":"Dedicated","server_os":"Linux","password":true,"vac":true,"version":"7757534","steam_id":85568392924469985,"keywords":["nocrits","nodmgspread","payload","uncletopia"],"game_id":440,"stv_port":27026,"stv_name":"Uncletopia | Chicago | 2 | All Maps | STV","players":[{"user_id":233,"name":".jpg","steam_id":76561198137237377,"connected_time":7249000000000,"state":"active","ping":48},{"user_id":320,"name":"years","steam_id":76561197994098627,"connected_time":5499000000000,"state":"active","ping":115},{"user_id":430,"name":"SpringSeas","steam_id":76561199019859624,"connected_time":511000000000,"state":"active","ping":69},{"user_id":414,"name":"Ametrines","steam_id":76561198981184670,"connected_time":1597000000000,"state":"active","ping":61},{"user_id":433,"name":"silly jester","steam_id":76561198079609974,"connected_time":417000000000,"state":"active","ping":107},{"user_id":425,"name":"Cusven","steam_id":76561198319658526,"connected_time":1356000000000,"state":"active","ping":57},{"user_id":431,"name":"Iggy Dogg","steam_id":76561198059602545,"connected_time":503000000000,"state":"active","ping":56},{"user_id":384,"name":"Fiendish Frog","steam_id":76561198029478821,"connected_time":3643000000000,"state":"active","ping":75},{"user_id":429,"name":"Trusty","steam_id":76561198035444237,"connected_time":970000000000,"state":"active","ping":69},{"user_id":419,"name":"A Fruit","steam_id":76561198951830050,"connected_time":1515000000000,"state":"active","ping":72},{"user_id":403,"name":"soundwave | sfm comms open!","steam_id":76561198454725718,"connected_time":2565000000000,"state":"active","ping":46},{"user_id":395,"name":"BamboozleMcdoozle","steam_id":76561198166510167,"connected_time":3032000000000,"state":"active","ping":97},{"user_id":428,"name":"dinoraptor","steam_id":76561198389217408,"connected_time":1152000000000,"state":"active","ping":189},{"user_id":432,"name":"Quietsharp","steam_id":76561198277968438,"connected_time":498000000000,"state":"active","ping":105},{"user_id":420,"name":"LG_Fridge_User","steam_id":76561198977815014,"connected_time":1505000000000,"state":"active","ping":76},{"user_id":435,"name":"Turtle","steam_id":76561198098121333,"connected_time":187000000000,"state":"active","ping":66},{"user_id":436,"name":"Spy that sex's dispensers","steam_id":76561198070154445,"connected_time":125000000000,"state":"active","ping":81},{"user_id":411,"name":"A Shiny Meat Bicycle","steam_id":76561198358757709,"connected_time":1866000000000,"state":"active","ping":94},{"user_id":422,"name":"Jaydyn","steam_id":76561198140326797,"connected_time":1488000000000,"state":"active","ping":81},{"user_id":426,"name":"Crystallixed","steam_id":76561198072263515,"connected_time":1292000000000,"state":"active","ping":79},{"user_id":423,"name":"B. Scrub","steam_id":76561198053931212,"connected_time":1474000000000,"state":"active","ping":88},{"user_id":427,"name":"Bon Gripper","steam_id":76561198090074621,"connected_time":1211000000000,"state":"active","ping":61},{"user_id":326,"name":"MidMilk","steam_id":76561198285631030,"connected_time":5448000000000,"state":"active","ping":60},{"user_id":424,"name":"Jelly","steam_id":76561199223817927,"connected_time":1461000000000,"state":"active","ping":92}]},{"server_id":402,"name":"Uncletopia | Chicago | 3 | All Maps","name_short":"chi-3","host":"chi-1.us.uncletopia.com","port":27035,"enabled":true,"region":"us-central","cc":"us","latitude":41.881832,"longitude":-87.62318,"reserved":0,"last_update":"0001-01-01T00:00:00Z","name_a2s":"Uncletopia | Chicago | 3 | All Maps","protocol":17,"map":"cp_altitude","folder":"tf","game":"Team Fortress","app_id":440,"player_count":24,"max_players":24,"Bots":0,"server_type":"Dedicated","server_os":"Linux","password":true,"vac":true,"version":"7757534","steam_id":85568392924515191,"keywords":["cp","nocrits","nodmgspread","uncletopia"],"game_id":440,"stv_port":27036,"stv_name":"Uncletopia | Chicago | 3 | All Maps | STV","players":[{"user_id":294,"name":"Waluigi","steam_id":76561198891626233,"connected_time":549000000000,"state":"active","ping":46},{"user_id":289,"name":"‚ù§Blunt.Boy420‚ù§","steam_id":76561198112590142,"connected_time":1558000000000,"state":"active","ping":91},{"user_id":286,"name":"‚úøBlunt.Babe420‚úø","steam_id":76561199014055970,"connected_time":1802000000000,"state":"active","ping":55},{"user_id":301,"name":"Cosmotzar","steam_id":76561198027505591,"connected_time":357000000000,"state":"active","ping":88},{"user_id":269,"name":"Ejaculation Zach","steam_id":76561198203765200,"connected_time":2488000000000,"state":"active","ping":65},{"user_id":287,"name":"Joe Grumbo","steam_id":76561198048485190,"connected_time":1642000000000,"state":"active","ping":67},{"user_id":296,"name":"malarkey","steam_id":76561198084544420,"connected_time":461000000000,"state":"active","ping":58},{"user_id":297,"name":"Maria \u003c3","steam_id":76561199192798666,"connected_time":429000000000,"state":"active","ping":75},{"user_id":288,"name":"UNITED WE STAND","steam_id":76561198282764599,"connected_time":1640000000000,"state":"active","ping":45},{"user_id":293,"name":"Hayden-G230","steam_id":76561198307148690,"connected_time":1077000000000,"state":"active","ping":77},{"user_id":252,"name":"centuronstar","steam_id":76561198277177841,"connected_time":4198000000000,"state":"active","ping":74},{"user_id":273,"name":"Your Local NPR Station","steam_id":76561198143830279,"connected_time":2452000000000,"state":"active","ping":59},{"user_id":298,"name":"Silverriver","steam_id":76561198121289856,"connected_time":423000000000,"state":"active","ping":66},{"user_id":308,"name":"psy","steam_id":76561198013195018,"connected_time":64000000000,"state":"active","ping":75},{"user_id":300,"name":"Tlaloc","steam_id":76561198375215983,"connected_time":422000000000,"state":"active","ping":119},{"user_id":302,"name":"SparkZ","steam_id":76561198314637812,"connected_time":355000000000,"state":"active","ping":169},{"user_id":303,"name":"Chucklin","steam_id":76561198010823579,"connected_time":317000000000,"state":"active","ping":64},{"user_id":259,"name":"BrightestHammer","steam_id":76561198142343467,"connected_time":3281000000000,"state":"active","ping":68},{"user_id":278,"name":"Cerebral","steam_id":76561198408258313,"connected_time":2342000000000,"state":"active","ping":85},{"user_id":260,"name":"thecal","steam_id":76561198307893384,"connected_time":3267000000000,"state":"active","ping":53},{"user_id":304,"name":"silentpieceofbacon","steam_id":76561198869323351,"connected_time":279000000000,"state":"active","ping":74},{"user_id":305,"name":"Veritox","steam_id":76561198075778026,"connected_time":244000000000,"state":"active","ping":101},{"user_id":306,"name":"Bada Bingus","steam_id":76561198046743307,"connected_time":240000000000,"state":"active","ping":92},{"user_id":307,"name":"catrinaisahuman","steam_id":76561198281355729,"connected_time":222000000000,"state":"active","ping":61}]},{"server_id":403,"name":"Uncletopia | Chicago | 4 | All Maps","name_short":"chi-4","host":"chi-1.us.uncletopia.com","port":27045,"enabled":true,"region":"us-central","cc":"us","latitude":41.881832,"longitude":-87.62318,"reserved":0,"last_update":"0001-01-01T00:00:00Z","name_a2s":"Uncletopia | Chicago | 4 | All Maps","protocol":17,"map":"pl_upward","folder":"tf","game":"Team Fortress","app_id":440,"player_count":24,"max_players":24,"Bots":0,"server_type":"Dedicated","server_os":"Linux","password":true,"vac":true,"version":"7757534","steam_id":85568392924515193,"keywords":["nocrits","nodmgspread","payload","uncletopia"],"game_id":440,"stv_port":27046,"stv_name":"Uncletopia | Chicago | 4 | All Maps | STV","players":[{"user_id":327,"name":"VerdantSunset","steam_id":76561198062313478,"connected_time":336000000000,"state":"active","ping":83},{"user_id":336,"name":"TheGamingJasper","steam_id":76561199054003635,"connected_time":19000000000,"state":"active","ping":111},{"user_id":326,"name":"threethree","steam_id":76561198177354155,"connected_time":354000000000,"state":"active","ping":64},{"user_id":325,"name":"Bee","steam_id":76561198074681324,"connected_time":376000000000,"state":"active","ping":63},{"user_id":301,"name":"The local hobo","steam_id":76561198289650060,"connected_time":2823000000000,"state":"active","ping":95},{"user_id":272,"name":"CeigeBirb","steam_id":76561198068538473,"connected_time":5904000000000,"state":"active","ping":78},{"user_id":284,"name":"DeadErebus","steam_id":76561198286117045,"connected_time":4725000000000,"state":"active","ping":40},{"user_id":249,"name":"Bobato Chaps","steam_id":76561198065103552,"connected_time":7423000000000,"state":"active","ping":75},{"user_id":322,"name":"pablo","steam_id":76561198395577807,"connected_time":714000000000,"state":"active","ping":51},{"user_id":328,"name":"lfty","steam_id":76561198283841707,"connected_time":326000000000,"state":"active","ping":66},{"user_id":316,"name":"globefrotter","steam_id":76561198185980055,"connected_time":2109000000000,"state":"active","ping":66},{"user_id":275,"name":"üé£ I'd Rather Be Gooning","steam_id":76561198062410522,"connected_time":5336000000000,"state":"active","ping":59},{"user_id":222,"name":"RedSock","steam_id":76561198161243404,"connected_time":9843000000000,"state":"active","ping":43},{"user_id":315,"name":"rE_d0","steam_id":76561198975450630,"connected_time":2146000000000,"state":"active","ping":97},{"user_id":313,"name":"Ace","steam_id":76561198309637160,"connected_time":2175000000000,"state":"active","ping":42},{"user_id":319,"name":"gyozaking","steam_id":76561197972312696,"connected_time":1818000000000,"state":"active","ping":48},{"user_id":337,"name":"ClickityShiba","steam_id":76561199381626991,"connected_time":14000000000,"state":"spawning","ping":60},{"user_id":324,"name":"victordead121","steam_id":76561199180843121,"connected_time":571000000000,"state":"active","ping":139},{"user_id":323,"name":"arii","steam_id":76561198247905096,"connected_time":593000000000,"state":"active","ping":77},{"user_id":273,"name":"Fluffeline","steam_id":76561198352909489,"connected_time":5682000000000,"state":"active","ping":142},{"user_id":333,"name":"Nolan","steam_id":76561198047844747,"connected_time":144000000000,"state":"active","ping":74},{"user_id":330,"name":"ice cream enthusiast","steam_id":76561198372994028,"connected_time":288000000000,"state":"active","ping":81},{"user_id":335,"name":"son of wagoogus","steam_id":76561198213628860,"connected_time":92000000000,"state":"active","ping":70},{"user_id":332,"name":"cheated on the pregnancy test","steam_id":76561199107068627,"connected_time":210000000000,"state":"active","ping":52}]},{"server_id":36,"name":"Uncletopia | Chicago | 5 | All Maps","name_short":"chi-5","host":"chi-2.us.uncletopia.com","port":27015,"enabled":true,"region":"us-central","cc":"us","latitude":41.881832,"longitude":-87.62318,"reserved":0,"last_update":"0001-01-01T00:00:00Z","name_a2s":"Uncletopia | Chicago | 5 | All Maps","protocol":17,"map":"pl_barnblitz","folder":"tf","game":"Team Fortress","app_id":440,"player_count":23,"max_players":24,"Bots":0,"server_type":"Dedicated","server_os":"Linux","password":true,"vac":true,"version":"7757534","steam_id":85568392924866362,"keywords":["nocrits","nodmgspread","payload","uncletopia"],"game_id":440,"stv_port":27016,"stv_name":"Uncletopia | Chicago | 5 | All Maps | STV","players":[{"user_id":8,"name":"The World's Softest Sandwich","steam_id":76561198015577707,"connected_time":11064000000000,"state":"active","ping":74},{"user_id":9,"name":"Fresh Lychee","steam_id":76561198045399559,"connected_time":10924000000000,"state":"active","ping":59},{"user_id":104,"name":"Discourse","steam_id":76561198984286678,"connected_time":1854000000000,"state":"active","ping":56},{"user_id":78,"name":"BambuBabyPackRunner","steam_id":76561198320866421,"connected_time":3975000000000,"state":"active","ping":71},{"user_id":113,"name":"Crazy__Biscuit","steam_id":76561198399851872,"connected_time":1558000000000,"state":"active","ping":81},{"user_id":122,"name":"Bawower","steam_id":76561198347769261,"connected_time":1011000000000,"state":"active","ping":91},{"user_id":123,"name":"c","steam_id":76561198118319408,"connected_time":1003000000000,"state":"active","ping":77},{"user_id":115,"name":"Crazy Cane","steam_id":76561198993941174,"connected_time":1392000000000,"state":"active","ping":64},{"user_id":135,"name":"recycle","steam_id":76561198819562111,"connected_time":34000000000,"state":"active","ping":65},{"user_id":28,"name":"King Cotton","steam_id":76561198292444376,"connected_time":7319000000000,"state":"active","ping":92},{"user_id":83,"name":"sweppy","steam_id":76561198035457667,"connected_time":3790000000000,"state":"active","ping":72},{"user_id":132,"name":"Rodrick Knee","steam_id":76561198283021062,"connected_time":498000000000,"state":"active","ping":84},{"user_id":118,"name":"The Lonely Croc","steam_id":76561198123241396,"connected_time":1302000000000,"state":"active","ping":82},{"user_id":117,"name":"2023 is my year","steam_id":76561198039909187,"connected_time":1318000000000,"state":"active","ping":58},{"user_id":116,"name":"Elizabeth truss","steam_id":76561198058250979,"connected_time":1364000000000,"state":"active","ping":72},{"user_id":133,"name":"BigBubble42","steam_id":76561198136286123,"connected_time":389000000000,"state":"active","ping":56},{"user_id":129,"name":"IVV4","steam_id":76561198194356583,"connected_time":615000000000,"state":"active","ping":81},{"user_id":134,"name":"Baked_tomato","steam_id":76561199104132783,"connected_time":291000000000,"state":"active","ping":119},{"user_id":125,"name":"TheAnswer","steam_id":76561198039471743,"connected_time":939000000000,"state":"active","ping":71},{"user_id":126,"name":"Omni-S","steam_id":76561198082396372,"connected_time":930000000000,"state":"active","ping":76},{"user_id":82,"name":"Geloman","steam_id":76561198005501322,"connected_time":3921000000000,"state":"active","ping":74},{"user_id":95,"name":"evil autistic","steam_id":76561198367954353,"connected_time":2680000000000,"state":"active","ping":48},{"user_id":130,"name":"I DECIDE","steam_id":76561198011675372,"connected_time":611000000000,"state":"active","ping":109}]},{"server_id":37,"name":"Uncletopia | Chicago | 6 | All Maps","name_short":"chi-6","host":"chi-2.us.uncletopia.com","port":27025,"enabled":true,"region":"us-central","cc":"us","latitude":41.881832,"longitude":-87.62318,"reserved":0,"last_update":"0001-01-01T00:00:00Z","name_a2s":"Uncletopia | Chicago | 6 | All Maps","protocol":17,"map":"pl_badwater","folder":"tf","game":"Team Fortress","app_id":440,"player_count":24,"max_players":24,"Bots":0,"server_type":"Dedicated","server_os":"Linux","password":true,"vac":true,"version":"7757534","steam_id":85568392924866363,"keywords":["nocrits","nodmgspread","payload","uncletopia"],"game_id":440,"stv_port":27026,"stv_name":"Uncletopia | Chicago | 6 | All Maps | STV","players":[{"user_id":211,"name":"twitch.tv/cccilytf2","steam_id":76561198322125595,"connected_time":2684000000000,"state":"active","ping":94},{"user_id":226,"name":"garfield","steam_id":76561198114119308,"connected_time":1121000000000,"state":"active","ping":60},{"user_id":235,"name":"[DEEP] Fitts1099","steam_id":76561198044986906,"connected_time":629000000000,"state":"active","ping":49},{"user_id":179,"name":"NeoN","steam_id":76561198117608366,"connected_time":4775000000000,"state":"active","ping":54},{"user_id":216,"name":"financial recession","steam_id":76561198313695660,"connected_time":2337000000000,"state":"active","ping":68},{"user_id":237,"name":"Sasha Enjoyer","steam_id":76561198070402855,"connected_time":548000000000,"state":"active","ping":54},{"user_id":225,"name":"Antonin Scalia","steam_id":76561198080687598,"connected_time":1558000000000,"state":"active","ping":56},{"user_id":228,"name":"thomasdee725","steam_id":76561199189526173,"connected_time":1065000000000,"state":"active","ping":91},{"user_id":229,"name":"Cheeeeeeeen","steam_id":76561198986388085,"connected_time":1009000000000,"state":"active","ping":106},{"user_id":230,"name":"awsomeeevee1","steam_id":76561199012905300,"connected_time":1005000000000,"state":"active","ping":102},{"user_id":240,"name":"open","steam_id":76561198202273263,"connected_time":190000000000,"state":"active","ping":45},{"user_id":200,"name":"shibaba bababool","steam_id":76561197972601902,"connected_time":3102000000000,"state":"active","ping":81},{"user_id":209,"name":"Riot Wyatt","steam_id":76561199012624181,"connected_time":2814000000000,"state":"active","ping":67},{"user_id":164,"name":"Dot.","steam_id":76561198149463984,"connected_time":5447000000000,"state":"active","ping":48},{"user_id":221,"name":"Good Vibrations","steam_id":76561198018734187,"connected_time":2065000000000,"state":"active","ping":60},{"user_id":64,"name":"Average Engineer Main","steam_id":76561197999657118,"connected_time":11995000000000,"state":"active","ping":84},{"user_id":215,"name":"brobtlcehc","steam_id":76561198043558709,"connected_time":2492000000000,"state":"active","ping":91},{"user_id":202,"name":"Gingersnaps","steam_id":76561198118844443,"connected_time":3096000000000,"state":"active","ping":99},{"user_id":232,"name":"Back with the milk","steam_id":76561199020105501,"connected_time":912000000000,"state":"active","ping":63},{"user_id":238,"name":"Xeno IN A THONG","steam_id":76561198120574708,"connected_time":539000000000,"state":"active","ping":75},{"user_id":234,"name":"Kdash","steam_id":76561198043829155,"connected_time":870000000000,"state":"active","ping":77},{"user_id":239,"name":"Killer Machine Abe","steam_id":76561198257872736,"connected_time":313000000000,"state":"active","ping":67},{"user_id":110,"name":"Training Arc","steam_id":76561198038832034,"connected_time":8858000000000,"state":"active","ping":105},{"user_id":157,"name":"Affy","steam_id":76561198056511949,"connected_time":6516000000000,"state":"active","ping":60}]},{"server_id":38,"name":"Uncletopia | Chicago | 7 | Stopwatch Beta","name_short":"chi-7","host":"chi-2.us.uncletopia.com","port":27035,"enabled":true,"region":"us-central","cc":"us","latitude":41.881832,"longitude":-87.62318,"reserved":0,"last_update":"0001-01-01T00:00:00Z","name_a2s":"Uncletopia | Chicago | 7 | Stopwatch Beta","protocol":17,"map":"koth_viaduct","folder":"tf","game":"Team Fortress","app_id":440,"player_count":0,"max_players":24,"Bots":0,"server_type":"Dedicated","server_os":"Linux","password":true,"vac":true,"version":"7757534","steam_id":85568392924866364,"keywords":["cp","nocrits","nodmgspread","uncletopia"],"game_id":440,"stv_port":27036,"stv_name":"Uncletopia | Chicago | 7 | Stopwatch Beta | STV","players":null},{"server_id":39,"name":"Uncletopia | Chicago | 8 | Community","name_short":"chi-8","host":"chi-2.us.uncletopia.com","port":27045,"enabled":true,"region":"us-central","cc":"us","latitude":41.881832,"longitude":-87.62318,"reserved":0,"last_update":"0001-01-01T00:00:00Z","name_a2s":"Uncletopia | Chicago | 8 | Community","protocol":17,"map":"koth_lakeside_final","folder":"tf","game":"Team Fortress","app_id":440,"player_count":0,"max_players":24,"Bots":0,"server_type":"Dedicated","server_os":"Linux","password":true,"vac":true,"version":"7757534","steam_id":85568392924866365,"keywords":["cp","nocrits","nodmgspread","uncletopia"],"game_id":440,"stv_port":27046,"stv_name":"Uncletopia | Chicago | 8 | Community | STV","players":null},{"server_id":8,"name":"Uncletopia | Dallas | 1 | All Maps","name_short":"dal-1","host":"dal-1.us.uncletopia.com","port":27015,"enabled":true,"region":"us-central","cc":"us","latitude":32.779167,"longitude":-96.80889,"reserved":0,"last_update":"0001-01-01T00:00:00Z","name_a2s":"Uncletopia | Dallas | 1 | All Maps","protocol":17,"map":"pl_badwater","folder":"tf","game":"Team Fortress","app_id":440,"player_count":24,"max_players":24,"Bots":0,"server_type":"Dedicated","server_os":"Linux","password":true,"vac":true,"version":"7757534","steam_id":85568392924469986,"keywords":["nocrits","nodmgspread","payload","uncletopia"],"game_id":440,"stv_port":27016,"stv_name":"Uncletopia | Dallas | 1 | All Maps | STV","players":[{"user_id":213,"name":"Baseball Billy","steam_id":76561199060742929,"connected_time":1800000000000,"state":"active","ping":112},{"user_id":144,"name":"[√òWQJ√ò]chubacaalatake","steam_id":76561198136201697,"connected_time":5687000000000,"state":"active","ping":121},{"user_id":224,"name":"ammo box","steam_id":76561199214012781,"connected_time":622000000000,"state":"active","ping":150},{"user_id":222,"name":"ShinGojirabrYT","steam_id":76561199199037141,"connected_time":696000000000,"state":"active","ping":162},{"user_id":176,"name":"Dictator Noodle","steam_id":76561198277243768,"connected_time":3563000000000,"state":"active","ping":83},{"user_id":194,"name":"yuki","steam_id":76561198388123421,"connected_time":2694000000000,"state":"active","ping":77},{"user_id":215,"name":"GOD EMPEROR","steam_id":76561198089852954,"connected_time":1532000000000,"state":"active","ping":76},{"user_id":217,"name":"iluvtoust","steam_id":76561198869269207,"connected_time":1164000000000,"state":"active","ping":49},{"user_id":204,"name":"GatorAIDS","steam_id":76561198043220092,"connected_time":2010000000000,"state":"active","ping":60},{"user_id":172,"name":"Dr. Dynamo","steam_id":76561198114569365,"connected_time":3709000000000,"state":"active","ping":66},{"user_id":211,"name":"inzang","steam_id":76561198088318074,"connected_time":1862000000000,"state":"active","ping":62},{"user_id":207,"name":"5ytty5","steam_id":76561198041643833,"connected_time":1962000000000,"state":"active","ping":63},{"user_id":184,"name":"waster","steam_id":76561198078395002,"connected_time":3340000000000,"state":"active","ping":76},{"user_id":149,"name":"chiswola","steam_id":76561198046920142,"connected_time":5228000000000,"state":"active","ping":94},{"user_id":208,"name":"Alkimia","steam_id":76561198385763137,"connected_time":1952000000000,"state":"active","ping":140},{"user_id":228,"name":"Humper","steam_id":76561198272961376,"connected_time":495000000000,"state":"active","ping":79},{"user_id":229,"name":"Possessd Pyro","steam_id":76561198389830988,"connected_time":493000000000,"state":"active","ping":45},{"user_id":230,"name":"Humbetymymeaty","steam_id":76561198435326008,"connected_time":456000000000,"state":"active","ping":74},{"user_id":223,"name":"the","steam_id":76561198311446636,"connected_time":676000000000,"state":"active","ping":78},{"user_id":197,"name":"???","steam_id":76561198200155343,"connected_time":2363000000000,"state":"active","ping":46},{"user_id":231,"name":"Burny Sanders","steam_id":76561197961879048,"connected_time":451000000000,"state":"active","ping":45},{"user_id":226,"name":"drugger. (coleridge implant)","steam_id":76561198353463585,"connected_time":597000000000,"state":"active","ping":96},{"user_id":233,"name":"DrBenjas","steam_id":76561198345883103,"connected_time":83000000000,"state":"active","ping":74},{"user_id":232,"name":"Frank","steam_id":76561198104620535,"connected_time":432000000000,"state":"active","ping":64}]},{"server_id":108,"name":"Uncletopia | Dallas | 2 | All Maps","name_short":"dal-2","host":"dal-1.us.uncletopia.com","port":27025,"enabled":true,"region":"us-central","cc":"us","latitude":32.779167,"longitude":-96.80889,"reserved":0,"last_update":"0001-01-01T00:00:00Z","name_a2s":"Uncletopia | Dallas | 2 | All Maps","protocol":17,"map":"pl_frontier_final","folder":"tf","game":"Team Fortress","app_id":440,"player_count":24,"max_players":24,"Bots":0,"server_type":"Dedicated","server_os":"Linux","password":true,"vac":true,"version":"7757534","steam_id":85568392924469988,"keywords":["nocrits","nodmgspread","payload","uncletopia"],"game_id":440,"stv_port":27026,"stv_name":"Uncletopia | Dallas | 2 | All Maps | STV","players":[{"user_id":17,"name":"Chol","steam_id":76561198122054259,"connected_time":5889000000000,"state":"active","ping":76},{"user_id":18,"name":"glop shitto bounter hunter","steam_id":76561198063138457,"connected_time":5829000000000,"state":"active","ping":100},{"user_id":91,"name":"Killerofzombie23","steam_id":76561198799173778,"connected_time":1343000000000,"state":"active","ping":99},{"user_id":84,"name":"Xruffel :3 (high)","steam_id":76561198067697879,"connected_time":2233000000000,"state":"active","ping":68},{"user_id":54,"name":"Crabby","steam_id":76561198040023173,"connected_time":3961000000000,"state":"active","ping":115},{"user_id":103,"name":"|WS| Don't_Taze_Me_Bro","steam_id":76561198043289495,"connected_time":382000000000,"state":"active","ping":74},{"user_id":92,"name":"NOT Susie Deltarune (not real)","steam_id":76561199007365488,"connected_time":1249000000000,"state":"active","ping":71},{"user_id":24,"name":"Dopteros","steam_id":76561198096732072,"connected_time":5061000000000,"state":"active","ping":96},{"user_id":104,"name":"Krazykind","steam_id":76561198063136713,"connected_time":379000000000,"state":"active","ping":83},{"user_id":89,"name":"pipe","steam_id":76561199059257565,"connected_time":1727000000000,"state":"active","ping":88},{"user_id":106,"name":"Sad_Pepe","steam_id":76561199014989291,"connected_time":126000000000,"state":"active","ping":41},{"user_id":28,"name":"The Gamer For God","steam_id":76561198095916325,"connected_time":4957000000000,"state":"active","ping":73},{"user_id":93,"name":"Antknee","steam_id":76561198263793809,"connected_time":1233000000000,"state":"active","ping":129},{"user_id":95,"name":"aidenmc3","steam_id":76561198062209166,"connected_time":1232000000000,"state":"active","ping":45},{"user_id":105,"name":"agent P","steam_id":76561199251829030,"connected_time":150000000000,"state":"active","ping":93},{"user_id":33,"name":"CYBERZ0NED","steam_id":76561198190318030,"connected_time":4860000000000,"state":"active","ping":87},{"user_id":107,"name":"evan_is_sauce","steam_id":76561199086802383,"connected_time":104000000000,"state":"active","ping":62},{"user_id":96,"name":"vortex","steam_id":76561199037197794,"connected_time":1211000000000,"state":"active","ping":47},{"user_id":78,"name":"pour","steam_id":76561198127525888,"connected_time":2638000000000,"state":"active","ping":47},{"user_id":87,"name":"Icy","steam_id":76561198125015366,"connected_time":1847000000000,"state":"active","ping":121},{"user_id":108,"name":"Quansen","steam_id":76561198151594550,"connected_time":73000000000,"state":"active","ping":79},{"user_id":102,"name":"Florence Jenkins","steam_id":76561198023894049,"connected_time":728000000000,"state":"active","ping":104},{"user_id":94,"name":"Lolxdloldx","steam_id":76561198136887125,"connected_time":1233000000000,"state":"active","ping":82},{"user_id":74,"name":"Breadman","steam_id":76561198097979919,"connected_time":3176000000000,"state":"active","ping":138}]},{"server_id":5,"name":"Uncletopia | Frankfurt | 1 | All Maps","name_short":"frk-1","host":"frk-1.de.uncletopia.com","port":27015,"enabled":true,"region":"eu","cc":"de","latitude":50.110924,"longitude":8.682127,"reserved":0,"last_update":"0001-01-01T00:00:00Z","name_a2s":"Uncletopia | Frankfurt | 1 | All Maps","protocol":17,"map":"pl_badwater","folder":"tf","game":"Team Fortress","app_id":440,"player_count":24,"max_players":24,"Bots":0,"server_type":"Dedicated","server_os":"Linux","password":true,"vac":true,"version":"7757534","steam_id":85568392924469989,"keywords":["nocrits","nodmgspread","payload","uncletopia"],"game_id":440,"stv_port":27016,"stv_name":"Uncletopia | Frankfurt | 1 | All Maps | STV","players":[{"user_id":566,"name":"Carrotcracker","steam_id":76561198034862396,"connected_time":2987000000000,"state":"active","ping":65},{"user_id":558,"name":"Laxslow","steam_id":76561198065361846,"connected_time":3451000000000,"state":"active","ping":51},{"user_id":555,"name":"Fuvuk","steam_id":76561198044458593,"connected_time":3502000000000,"state":"active","ping":99},{"user_id":557,"name":"Sigma","steam_id":76561199088506542,"connected_time":3473000000000,"state":"active","ping":45},{"user_id":503,"name":"Aroo","steam_id":76561198132601368,"connected_time":7368000000000,"state":"active","ping":73},{"user_id":559,"name":"eeeeee","steam_id":76561198017786875,"connected_time":3441000000000,"state":"active","ping":57},{"user_id":579,"name":"…π«ùu ço s…•…ìƒ±…•‚ä•","steam_id":76561198986703944,"connected_time":1701000000000,"state":"active","ping":112},{"user_id":523,"name":"Counter-Life‚Ñ¢","steam_id":76561197977875927,"connected_time":5885000000000,"state":"active","ping":58},{"user_id":577,"name":"ricky pee pee","steam_id":76561198152620745,"connected_time":1715000000000,"state":"active","ping":74},{"user_id":575,"name":"GogsCrunchyNuts","steam_id":76561198150599213,"connected_time":1753000000000,"state":"active","ping":117},{"user_id":569,"name":"MRLOLENO","steam_id":76561198450911838,"connected_time":2603000000000,"state":"active","ping":66},{"user_id":586,"name":"20BB Raxor","steam_id":76561198239927434,"connected_time":69000000000,"state":"active","ping":82},{"user_id":561,"name":"‚àö(-Wolf)","steam_id":76561198024769704,"connected_time":3362000000000,"state":"active","ping":85},{"user_id":582,"name":"Maythorn","steam_id":76561198049709072,"connected_time":664000000000,"state":"active","ping":135},{"user_id":563,"name":"Ecton","steam_id":76561198025103720,"connected_time":3223000000000,"state":"active","ping":62},{"user_id":578,"name":"kaelan!","steam_id":76561198001425310,"connected_time":1708000000000,"state":"active","ping":75},{"user_id":499,"name":"doopsuiker","steam_id":76561198025916703,"connected_time":7452000000000,"state":"active","ping":71},{"user_id":587,"name":"Laki","steam_id":76561198126078953,"connected_time":67000000000,"state":"active","ping":118},{"user_id":496,"name":"Raivop","steam_id":76561197980854307,"connected_time":8107000000000,"state":"active","ping":101},{"user_id":532,"name":"Cane","steam_id":76561197976831215,"connected_time":5589000000000,"state":"active","ping":99},{"user_id":570,"name":"ghost","steam_id":76561198189940229,"connected_time":2380000000000,"state":"active","ping":64},{"user_id":574,"name":"Flash","steam_id":76561198067379855,"connected_time":2173000000000,"state":"active","ping":55},{"user_id":581,"name":"Potat Master |Potato Industries","steam_id":76561199112380553,"connected_time":905000000000,"state":"active","ping":80},{"user_id":552,"name":"Silent Person","steam_id":76561198107763537,"connected_time":4077000000000,"state":"active","ping":76}]},{"server_id":110,"name":"Uncletopia | Frankfurt | 2 | All Maps","name_short":"frk-2","host":"frk-1.de.uncletopia.com","port":27025,"enabled":true,"region":"eu","cc":"de","latitude":50.110924,"longitude":8.682127,"reserved":0,"last_update":"0001-01-01T00:00:00Z","name_a2s":"Uncletopia | Frankfurt | 2 | All Maps","protocol":17,"map":"pl_swiftwater_final1","folder":"tf","game":"Team Fortress","app_id":440,"player_count":24,"max_players":24,"Bots":0,"server_type":"Dedicated","server_os":"Linux","password":true,"vac":true,"version":"7757534","steam_id":85568392924469990,"keywords":["nocrits","nodmgspread","payload","uncletopia"],"game_id":440,"stv_port":27026,"stv_name":"Uncletopia | Frankfurt | 2 | All Maps | STV","players":[{"user_id":1061,"name":"AWJ ÀÜ-ÀÜ","steam_id":76561198053628243,"connected_time":2076000000000,"state":"active","ping":64},{"user_id":1062,"name":"Slimeby","steam_id":76561198353438688,"connected_time":2043000000000,"state":"active","ping":87},{"user_id":1072,"name":"Amandus","steam_id":76561198036281079,"connected_time":1342000000000,"state":"active","ping":59},{"user_id":1076,"name":"rigel_","steam_id":76561198148640847,"connected_time":1280000000000,"state":"active","ping":74},{"user_id":1077,"name":"rozen","steam_id":76561198119167317,"connected_time":1241000000000,"state":"active","ping":58},{"user_id":1030,"name":"Mozza","steam_id":76561198035915570,"connected_time":3548000000000,"state":"active","ping":66},{"user_id":1040,"name":"zazuza","steam_id":76561198049820905,"connected_time":2965000000000,"state":"active","ping":62},{"user_id":1060,"name":"Deacon Dracul","steam_id":76561198046880663,"connected_time":2117000000000,"state":"active","ping":100},{"user_id":1085,"name":"Floris","steam_id":76561198001717422,"connected_time":874000000000,"state":"active","ping":67},{"user_id":1091,"name":"Mao Zedong","steam_id":76561198347020945,"connected_time":506000000000,"state":"active","ping":82},{"user_id":1089,"name":"Flostro","steam_id":76561198259793697,"connected_time":755000000000,"state":"active","ping":67},{"user_id":1070,"name":"Videogamer","steam_id":76561198106012909,"connected_time":1424000000000,"state":"active","ping":66},{"user_id":1014,"name":"‚ô• TRANS RIGHTS ‚ô•","steam_id":76561198066258544,"connected_time":4160000000000,"state":"active","ping":50},{"user_id":1075,"name":"quickfast","steam_id":76561199438900919,"connected_time":1311000000000,"state":"active","ping":71},{"user_id":1079,"name":"Panda","steam_id":76561198176342325,"connected_time":1225000000000,"state":"active","ping":103},{"user_id":1045,"name":"Rendeto","steam_id":76561198271955247,"connected_time":2839000000000,"state":"active","ping":74},{"user_id":1046,"name":"New","steam_id":76561198402195911,"connected_time":2759000000000,"state":"active","ping":124},{"user_id":1084,"name":"arim","steam_id":76561197994600818,"connected_time":1006000000000,"state":"active","ping":49},{"user_id":1059,"name":"Bobo","steam_id":76561198052308399,"connected_time":2245000000000,"state":"active","ping":58},{"user_id":1081,"name":"Laru","steam_id":76561197998838438,"connected_time":1192000000000,"state":"active","ping":83},{"user_id":1052,"name":"Trumpetdude2000","steam_id":76561198905888008,"connected_time":2429000000000,"state":"active","ping":71},{"user_id":1092,"name":"dn4k","steam_id":76561199221755690,"connected_time":404000000000,"state":"active","ping":80},{"user_id":1088,"name":"bombo112","steam_id":76561198059743551,"connected_time":841000000000,"state":"active","ping":96},{"user_id":1064,"name":"Waffles","steam_id":76561199086942763,"connected_time":1985000000000,"state":"active","ping":80}]},{"server_id":308,"name":"Uncletopia | Frankfurt | 3 | All Maps","name_short":"frk-3","host":"frk-1.de.uncletopia.com","port":27035,"enabled":true,"region":"eu","cc":"de","latitude":50.110924,"longitude":8.682127,"reserved":0,"last_update":"0001-01-01T00:00:00Z","name_a2s":"Uncletopia | Frankfurt | 3 | All Maps","protocol":17,"map":"pl_frontier_final","folder":"tf","game":"Team Fortress","app_id":440,"player_count":24,"max_players":24,"Bots":0,"server_type":"Dedicated","server_os":"Linux","password":true,"vac":true,"version":"7757534","steam_id":85568392924504274,"keywords":["nocrits","nodmgspread","payload","uncletopia"],"game_id":440,"stv_port":27036,"stv_name":"Uncletopia | Frankfurt | 3 | All Maps | STV","players":[{"user_id":412,"name":"f0x","steam_id":76561198072921704,"connected_time":224000000000,"state":"active","ping":46},{"user_id":387,"name":"Malsi","steam_id":76561199061284165,"connected_time":1175000000000,"state":"active","ping":86},{"user_id":402,"name":"Allereinan","steam_id":76561198342239906,"connected_time":805000000000,"state":"active","ping":117},{"user_id":415,"name":"REN","steam_id":76561198000596385,"connected_time":136000000000,"state":"active","ping":96},{"user_id":379,"name":"Gandhi the Grater","steam_id":76561198051198555,"connected_time":2039000000000,"state":"active","ping":79},{"user_id":411,"name":"SpyCrab  Erik Twice","steam_id":76561198009710309,"connected_time":268000000000,"state":"active","ping":62},{"user_id":305,"name":"sysanin","steam_id":76561198056649495,"connected_time":7432000000000,"state":"active","ping":90},{"user_id":414,"name":"hideki","steam_id":76561198030728517,"connected_time":177000000000,"state":"active","ping":31},{"user_id":352,"name":"cazador","steam_id":76561198123096922,"connected_time":3539000000000,"state":"active","ping":96},{"user_id":403,"name":"MAKENTAKEN","steam_id":76561199127359587,"connected_time":537000000000,"state":"active","ping":100},{"user_id":404,"name":"many thanks","steam_id":76561198089003514,"connected_time":491000000000,"state":"active","ping":45},{"user_id":407,"name":"Martin","steam_id":76561197963416927,"connected_time":412000000000,"state":"active","ping":53},{"user_id":390,"name":"$13 hand-crank","steam_id":76561198029998773,"connected_time":1087000000000,"state":"active","ping":69},{"user_id":384,"name":"Cuthbert","steam_id":76561198204649481,"connected_time":1416000000000,"state":"active","ping":93},{"user_id":397,"name":"Hexagon","steam_id":76561198151205758,"connected_time":964000000000,"state":"active","ping":50},{"user_id":369,"name":"balanced diet","steam_id":76561198240320806,"connected_time":2724000000000,"state":"active","ping":70},{"user_id":405,"name":"synoptic","steam_id":76561198995397050,"connected_time":455000000000,"state":"active","ping":79},{"user_id":409,"name":"Setter Ball Gaul","steam_id":76561198130427881,"connected_time":393000000000,"state":"active","ping":166},{"user_id":386,"name":"JimJam","steam_id":76561199002957746,"connected_time":1362000000000,"state":"active","ping":85},{"user_id":372,"name":"–¢—Ä—É–ø –í–æ–ª–æ–¥—è","steam_id":76561198035718457,"connected_time":2608000000000,"state":"active","ping":91},{"user_id":399,"name":"FoOzTV","steam_id":76561197998636728,"connected_time":935000000000,"state":"active","ping":71},{"user_id":375,"name":"astigmatic","steam_id":76561199103959197,"connected_time":2552000000000,"state":"active","ping":86},{"user_id":416,"name":"kreeekz","steam_id":76561198014431602,"connected_time":87000000000,"state":"active","ping":72},{"user_id":401,"name":"king","steam_id":76561198881197962,"connected_time":889000000000,"state":"active","ping":96}]},{"server_id":309,"name":"Uncletopia | Frankfurt | 4 | All Maps","name_short":"frk-4","host":"frk-1.de.uncletopia.com","port":27045,"enabled":true,"region":"eu","cc":"de","latitude":50.110924,"longitude":8.682127,"reserved":0,"last_update":"0001-01-01T00:00:00Z","name_a2s":"Uncletopia | Frankfurt | 4 | All Maps","protocol":17,"map":"cp_badlands","folder":"tf","game":"Team Fortress","app_id":440,"player_count":24,"max_players":24,"Bots":0,"server_type":"Dedicated","server_os":"Linux","password":true,"vac":true,"version":"7757534","steam_id":85568392924504275,"keywords":["cp","nocrits","nodmgspread","uncletopia"],"game_id":440,"stv_port":27046,"stv_name":"Uncletopia | Frankfurt | 4 | All Maps | STV","players":[{"user_id":233,"name":"FJADL","steam_id":76561198237008214,"connected_time":1664000000000,"state":"active","ping":59},{"user_id":193,"name":"‰∫∫ √ò–ê–ê–ê√ò‰∫∫","steam_id":76561198944032480,"connected_time":5142000000000,"state":"active","ping":88},{"user_id":195,"name":"Raymus","steam_id":76561198021330407,"connected_time":4796000000000,"state":"active","ping":52},{"user_id":249,"name":"Gender Stealer","steam_id":76561198436817109,"connected_time":581000000000,"state":"active","ping":74},{"user_id":237,"name":"Chris","steam_id":76561198018626828,"connected_time":1150000000000,"state":"active","ping":70},{"user_id":245,"name":"halo 3 rat","steam_id":76561198439007717,"connected_time":686000000000,"state":"active","ping":84},{"user_id":246,"name":"Jack.Orlando","steam_id":76561198802400236,"connected_time":644000000000,"state":"active","ping":73},{"user_id":247,"name":"sisto majesto","steam_id":76561198073532776,"connected_time":610000000000,"state":"active","ping":92},{"user_id":102,"name":"Fat Pigeon","steam_id":76561198817940142,"connected_time":12061000000000,"state":"active","ping":50},{"user_id":248,"name":"sork","steam_id":76561198082446459,"connected_time":607000000000,"state":"active","ping":64},{"user_id":215,"name":"Egor Pomidor","steam_id":76561199175688390,"connected_time":2936000000000,"state":"active","ping":75},{"user_id":256,"name":"Fancy","steam_id":76561198392804986,"connected_time":399000000000,"state":"active","ping":76},{"user_id":257,"name":"\u003eSix in swedish + y","steam_id":76561198372971096,"connected_time":387000000000,"state":"active","ping":84},{"user_id":250,"name":"adam","steam_id":76561199024816404,"connected_time":575000000000,"state":"active","ping":67},{"user_id":259,"name":"beurgeur","steam_id":76561198872426314,"connected_time":176000000000,"state":"active","ping":45},{"user_id":255,"name":"Reqs1o","steam_id":76561199067346663,"connected_time":495000000000,"state":"active","ping":91},{"user_id":258,"name":"yoursbzt","steam_id":76561198201866574,"connected_time":255000000000,"state":"active","ping":85},{"user_id":260,"name":"Moe Jama","steam_id":76561198021676997,"connected_time":156000000000,"state":"active","ping":71},{"user_id":236,"name":"o_o","steam_id":76561198113045011,"connected_time":1234000000000,"state":"active","ping":89},{"user_id":254,"name":"Wolfy","steam_id":76561198077232111,"connected_time":515000000000,"state":"active","ping":77},{"user_id":242,"name":"Pyrolander","steam_id":76561198050785450,"connected_time":932000000000,"state":"active","ping":54},{"user_id":261,"name":"Government Hooker","steam_id":76561198005361358,"connected_time":142000000000,"state":"active","ping":62},{"user_id":262,"name":"hedwig","steam_id":76561199091114467,"connected_time":138000000000,"state":"active","ping":122},{"user_id":263,"name":"Hanƒ±mSever23","steam_id":76561198142124751,"connected_time":132000000000,"state":"active","ping":119}]},{"server_id":310,"name":"Uncletopia | Frankfurt | 5 | All Maps","name_short":"frk-5","host":"frk-1.de.uncletopia.com","port":27055,"enabled":true,"region":"eu","cc":"de","latitude":50.110924,"longitude":8.682127,"reserved":0,"last_update":"0001-01-01T00:00:00Z","name_a2s":"Uncletopia | Frankfurt | 5 | All Maps","protocol":17,"map":"pl_thundermountain","folder":"tf","game":"Team Fortress","app_id":440,"player_count":3,"max_players":24,"Bots":0,"server_type":"Dedicated","server_os":"Linux","password":true,"vac":true,"version":"7757534","steam_id":85568392924504277,"keywords":["nocrits","nodmgspread","payload","uncletopia"],"game_id":440,"stv_port":27056,"stv_name":"Uncletopia | Frankfurt | 5 | All Maps | STV","players":[{"user_id":135,"name":"ma","steam_id":76561198952803300,"connected_time":265000000000,"state":"active","ping":68},{"user_id":115,"name":"Ged","steam_id":76561198079288943,"connected_time":1810000000000,"state":"active","ping":98},{"user_id":128,"name":"Kjat","steam_id":76561198839433592,"connected_time":1488000000000,"state":"active","ping":52}]},{"server_id":311,"name":"Uncletopia | Frankfurt | 6 | All Maps","name_short":"frk-6","host":"frk-1.de.uncletopia.com","port":27065,"enabled":true,"region":"eu","cc":"de","latitude":50.110924,"longitude":8.682127,"reserved":0,"last_update":"0001-01-01T00:00:00Z","name_a2s":"Uncletopia | Frankfurt | 6 | All Maps","protocol":17,"map":"koth_highpass","folder":"tf","game":"Team Fortress","app_id":440,"player_count":24,"max_players":24,"Bots":0,"server_type":"Dedicated","server_os":"Linux","password":true,"vac":true,"version":"7757534","steam_id":85568392924504278,"keywords":["cp","nocrits","nodmgspread","uncletopia"],"game_id":440,"stv_port":27066,"stv_name":"Uncletopia | Frankfurt | 6 | All Maps | STV","players":[{"user_id":530,"name":"0","steam_id":76561198267909207,"connected_time":3062000000000,"state":"active","ping":85},{"user_id":574,"name":"Mr.TEA","steam_id":76561198014381591,"connected_time":780000000000,"state":"active","ping":65},{"user_id":575,"name":"multiflex","steam_id":76561198049639319,"connected_time":776000000000,"state":"active","ping":84},{"user_id":508,"name":"Borat","steam_id":76561198122226417,"connected_time":4422000000000,"state":"active","ping":63},{"user_id":578,"name":"=^_^=","steam_id":76561198076494034,"connected_time":451000000000,"state":"active","ping":54},{"user_id":568,"name":"sareena","steam_id":76561198810194062,"connected_time":1201000000000,"state":"active","ping":75},{"user_id":535,"name":"BŒ£NZOIC","steam_id":76561198875665995,"connected_time":2915000000000,"state":"active","ping":96},{"user_id":569,"name":"GoatLord1","steam_id":76561198157964544,"connected_time":1111000000000,"state":"active","ping":75},{"user_id":538,"name":"EGirl | Klarra","steam_id":76561198077745407,"connected_time":2849000000000,"state":"active","ping":66},{"user_id":537,"name":"Roro Cyr","steam_id":76561198091380517,"connected_time":2880000000000,"state":"active","ping":71},{"user_id":580,"name":"Comet_Smasher","steam_id":76561198365102900,"connected_time":276000000000,"state":"connecting","ping":0},{"user_id":581,"name":"Wulfen","steam_id":76561198967364313,"connected_time":136000000000,"state":"active","ping":62},{"user_id":582,"name":"Kan0_","steam_id":76561198129596771,"connected_time":129000000000,"state":"active","ping":50},{"user_id":561,"name":"alvinulv","steam_id":76561198024487177,"connected_time":1359000000000,"state":"active","ping":61},{"user_id":562,"name":"quack","steam_id":76561198121003465,"connected_time":1323000000000,"state":"active","ping":77},{"user_id":563,"name":"Eidolyss","steam_id":76561198066997041,"connected_time":1323000000000,"state":"active","ping":57},{"user_id":583,"name":"shaolin monk","steam_id":76561198045466209,"connected_time":129000000000,"state":"active","ping":63},{"user_id":555,"name":"CalThePal","steam_id":76561198084842126,"connected_time":2124000000000,"state":"active","ping":67},{"user_id":542,"name":"Vershal Smershal","steam_id":76561198116223995,"connected_time":2706000000000,"state":"active","ping":62},{"user_id":565,"name":"bbLD","steam_id":76561198306818871,"connected_time":1318000000000,"state":"active","ping":69},{"user_id":543,"name":"my head + the wall = \u003c3","steam_id":76561198058012525,"connected_time":2698000000000,"state":"active","ping":78},{"user_id":548,"name":"hananamanna","steam_id":76561198006570285,"connected_time":2385000000000,"state":"active","ping":116},{"user_id":567,"name":"urbeK","steam_id":76561198105768820,"connected_time":1215000000000,"state":"active","ping":112},{"user_id":585,"name":"mcdonaldburger54@yahoo.com","steam_id":76561198846982793,"connected_time":69000000000,"state":"active","ping":71}]},{"server_id":23,"name":"Uncletopia | Frankfurt | 7 | Stopwatch Beta","name_short":"frk-7","host":"frk-1.de.uncletopia.com","port":27075,"enabled":true,"region":"eu","cc":"de","latitude":50.110924,"longitude":8.682127,"reserved":0,"last_update":"0001-01-01T00:00:00Z","name_a2s":"Uncletopia | Frankfurt | 7 | Stopwatch Beta","protocol":17,"map":"pl_borneo","folder":"tf","game":"Team Fortress","app_id":440,"player_count":0,"max_players":24,"Bots":0,"server_type":"Dedicated","server_os":"Linux","password":true,"vac":true,"version":"7757534","steam_id":85568392924742827,"keywords":["nocrits","nodmgspread","payload","uncletopia"],"game_id":440,"stv_port":27076,"stv_name":"Uncletopia | Frankfurt | 7 | Stopwatch Beta | STV","players":null},{"server_id":24,"name":"Uncletopia | Frankfurt | 8 | Community","name_short":"frk-8","host":"frk-1.de.uncletopia.com","port":27085,"enabled":true,"region":"eu","cc":"de","latitude":50.110924,"longitude":8.682127,"reserved":0,"last_update":"0001-01-01T00:00:00Z","name_a2s":"Uncletopia | Frankfurt | 8 | Community","protocol":17,"map":"workshop/pl_vigil_rc9.ugc1266210012","folder":"tf","game":"Team Fortress","app_id":440,"player_count":0,"max_players":24,"Bots":0,"server_type":"Dedicated","server_os":"Linux","password":true,"vac":true,"version":"7757534","steam_id":85568392924742828,"keywords":["nocrits","nodmgspread","payload","uncletopia"],"game_id":440,"stv_port":27086,"stv_name":"Uncletopia | Frankfurt | 8 | Community | STV","players":null},{"server_id":202,"name":"Uncletopia | Hong Kong | 1 | All Maps","name_short":"hgk-1","host":"hgk-1.hk.uncletopia.com","port":27015,"enabled":true,"region":"asia","cc":"hk","latitude":22.302711,"longitude":114.177216,"reserved":0,"last_update":"0001-01-01T00:00:00Z","name_a2s":"Uncletopia | Hong Kong | 1 | All Maps","protocol":17,"map":"koth_viaduct","folder":"tf","game":"Team Fortress","app_id":440,"player_count":0,"max_players":24,"Bots":0,"server_type":"Dedicated","server_os":"Linux","password":true,"vac":true,"version":"7757534","steam_id":85568392924494504,"keywords":["cp","nocrits","nodmgspread","uncletopia"],"game_id":440,"stv_port":27016,"stv_name":"Uncletopia | Hong Kong | 1 | All Maps | STV","players":null},{"server_id":1,"name":"Uncletopia | Los Angeles | 1 | All Maps","name_short":"lax-1","host":"lax-1.us.uncletopia.com","port":27015,"enabled":true,"region":"us-west","cc":"us","latitude":33.94279,"longitude":-118.41004,"reserved":0,"last_update":"0001-01-01T00:00:00Z","name_a2s":"Uncletopia | Los Angeles | 1 | All Maps","protocol":17,"map":"pl_barnblitz","folder":"tf","game":"Team Fortress","app_id":440,"player_count":0,"max_players":24,"Bots":0,"server_type":"Dedicated","server_os":"Linux","password":true,"vac":true,"version":"7757534","steam_id":85568392924469991,"keywords":["nocrits","nodmgspread","payload","uncletopia"],"game_id":440,"stv_port":27016,"stv_name":"Uncletopia | Los Angeles | 1 | All Maps | STV","players":null},{"server_id":112,"name":"Uncletopia | Los Angeles | 2 | All Maps","name_short":"lax-2","host":"lax-1.us.uncletopia.com","port":27025,"enabled":true,"region":"us-west","cc":"us","latitude":33.94279,"longitude":-118.41004,"reserved":0,"last_update":"0001-01-01T00:00:00Z","name_a2s":"Uncletopia | Los Angeles | 2 | All Maps","protocol":17,"map":"koth_highpass","folder":"tf","game":"Team Fortress","app_id":440,"player_count":0,"max_players":24,"Bots":0,"server_type":"Dedicated","server_os":"Linux","password":true,"vac":true,"version":"7757534","steam_id":85568392924469992,"keywords":["cp","nocrits","nodmgspread","uncletopia"],"game_id":440,"stv_port":27026,"stv_name":"Uncletopia | Los Angeles | 2 | All Maps | STV","players":null},{"server_id":324,"name":"Uncletopia | Los Angeles | 3 | All Maps","name_short":"lax-3","host":"lax-1.us.uncletopia.com","port":27035,"enabled":true,"region":"us-west","cc":"us","latitude":33.94279,"longitude":-118.41004,"reserved":0,"last_update":"0001-01-01T00:00:00Z","name_a2s":"Uncletopia | Los Angeles | 3 | All Maps","protocol":17,"map":"pl_pier","folder":"tf","game":"Team Fortress","app_id":440,"player_count":0,"max_players":24,"Bots":0,"server_type":"Dedicated","server_os":"Linux","password":true,"vac":true,"version":"7757534","steam_id":85568392924510198,"keywords":["nocrits","nodmgspread","payload","uncletopia"],"game_id":440,"stv_port":27036,"stv_name":"Uncletopia | Los Angeles | 3 | All Maps | STV","players":null},{"server_id":25,"name":"Uncletopia | Los Angeles | 4 | Stopwatch Beta","name_short":"lax-4","host":"lax-1.us.uncletopia.com","port":27045,"enabled":true,"region":"us-west","cc":"us","latitude":33.94279,"longitude":-118.41004,"reserved":0,"last_update":"0001-01-01T00:00:00Z","name_a2s":"Uncletopia | Los Angeles | 4 | Stopwatch Beta","protocol":17,"map":"workshop/koth_clearcut_b15.ugc2107050255","folder":"tf","game":"Team Fortress","app_id":440,"player_count":0,"max_players":24,"Bots":0,"server_type":"Dedicated","server_os":"Linux","password":true,"vac":true,"version":"7757534","steam_id":85568392924510199,"keywords":["cp","nocrits","nodmgspread","uncletopia"],"game_id":440,"stv_port":27046,"stv_name":"Uncletopia | Los Angeles | 4 | Stopwatch Beta | STV","players":null},{"server_id":11,"name":"Uncletopia | London | 1 | All Maps","name_short":"lon-1","host":"lon-1.uk.uncletopia.com","port":27015,"enabled":true,"region":"eu","cc":"gb","latitude":51.509865,"longitude":-0.118092,"reserved":0,"last_update":"0001-01-01T00:00:00Z","name_a2s":"Uncletopia | London | 1 | All Maps","protocol":17,"map":"cp_egypt_final","folder":"tf","game":"Team Fortress","app_id":440,"player_count":22,"max_players":24,"Bots":0,"server_type":"Dedicated","server_os":"Linux","password":true,"vac":true,"version":"7757534","steam_id":85568392924367362,"keywords":["cp","nocrits","nodmgspread","uncletopia"],"game_id":440,"stv_port":27016,"stv_name":"Uncletopia | London | 1 | All Maps | STV","players":[{"user_id":372,"name":"OnTheWaffle","steam_id":76561199469972723,"connected_time":663000000000,"state":"active","ping":45},{"user_id":366,"name":"Petight","steam_id":76561197999438798,"connected_time":814000000000,"state":"active","ping":45},{"user_id":368,"name":"bimgus","steam_id":76561198208045069,"connected_time":746000000000,"state":"active","ping":49},{"user_id":327,"name":"·†å·†å ·†å ·†å ·†å ·†å ·†å·†å","steam_id":76561198139659854,"connected_time":3144000000000,"state":"active","ping":87},{"user_id":373,"name":"Dr Condom","steam_id":76561198378657692,"connected_time":638000000000,"state":"active","ping":58},{"user_id":362,"name":"youmme95","steam_id":76561198049802823,"connected_time":1142000000000,"state":"active","ping":90},{"user_id":370,"name":"gmem","steam_id":76561198070006725,"connected_time":730000000000,"state":"active","ping":46},{"user_id":371,"name":"Flood","steam_id":76561198815991074,"connected_time":728000000000,"state":"active","ping":51},{"user_id":374,"name":"DotDotEight","steam_id":76561199036514719,"connected_time":618000000000,"state":"active","ping":49},{"user_id":375,"name":"Sauce","steam_id":76561198307339689,"connected_time":608000000000,"state":"active","ping":53},{"user_id":340,"name":"gojoel","steam_id":76561198251181946,"connected_time":2245000000000,"state":"active","ping":34},{"user_id":354,"name":"Meddler","steam_id":76561198033001402,"connected_time":1568000000000,"state":"active","ping":44},{"user_id":346,"name":"Angrymonkeybird","steam_id":76561198073896677,"connected_time":1968000000000,"state":"active","ping":71},{"user_id":376,"name":"AmadStatistician","steam_id":76561198163654770,"connected_time":600000000000,"state":"active","ping":71},{"user_id":377,"name":"Whizzo","steam_id":76561198058762428,"connected_time":527000000000,"state":"active","ping":56},{"user_id":381,"name":"Dingus","steam_id":76561198140514058,"connected_time":400000000000,"state":"active","ping":37},{"user_id":379,"name":"shed theory","steam_id":76561198308279567,"connected_time":458000000000,"state":"active","ping":48},{"user_id":352,"name":"[waffles]","steam_id":76561198951206047,"connected_time":1879000000000,"state":"active","ping":89},{"user_id":348,"name":"Marothen","steam_id":76561198069539056,"connected_time":1964000000000,"state":"active","ping":70},{"user_id":307,"name":"Wc Biere","steam_id":76561198200886539,"connected_time":4160000000000,"state":"active","ping":125},{"user_id":336,"name":"TheFriendZonedGuy","steam_id":76561198068862574,"connected_time":2403000000000,"state":"active","ping":70},{"user_id":273,"name":"dotdotdot","steam_id":76561198057628751,"connected_time":6247000000000,"state":"active","ping":68}]},{"server_id":114,"name":"Uncletopia | London | 2 | All Maps","name_short":"lon-2","host":"lon-1.uk.uncletopia.com","port":27025,"enabled":true,"region":"eu","cc":"gb","latitude":51.509865,"longitude":-0.118092,"reserved":0,"last_update":"0001-01-01T00:00:00Z","name_a2s":"Uncletopia | London | 2 | All Maps","protocol":17,"map":"pl_badwater","folder":"tf","game":"Team Fortress","app_id":440,"player_count":24,"max_players":24,"Bots":0,"server_type":"Dedicated","server_os":"Linux","password":true,"vac":true,"version":"7757534","steam_id":85568392924470941,"keywords":["nocrits","nodmgspread","payload","uncletopia"],"game_id":440,"stv_port":27026,"stv_name":"Uncletopia | London | 2 | All Maps | STV","players":[{"user_id":438,"name":"Joseph Stalin","steam_id":76561198033199746,"connected_time":2571000000000,"state":"active","ping":53},{"user_id":462,"name":"bum","steam_id":76561198060105180,"connected_time":1087000000000,"state":"active","ping":65},{"user_id":476,"name":"Uncle Moomin","steam_id":76561198011628656,"connected_time":501000000000,"state":"active","ping":82},{"user_id":465,"name":"Fran","steam_id":76561199070516960,"connected_time":830000000000,"state":"active","ping":77},{"user_id":441,"name":"umbrella leaf","steam_id":76561198299372487,"connected_time":2291000000000,"state":"active","ping":60},{"user_id":466,"name":"s a i","steam_id":76561197970379754,"connected_time":826000000000,"state":"active","ping":62},{"user_id":456,"name":"relic_","steam_id":76561199053114167,"connected_time":1411000000000,"state":"active","ping":102},{"user_id":354,"name":"gibb (official)","steam_id":76561198074097655,"connected_time":9491000000000,"state":"active","ping":37},{"user_id":469,"name":"Son Goku","steam_id":76561199383437138,"connected_time":798000000000,"state":"active","ping":127},{"user_id":467,"name":"Battersüå∏","steam_id":76561198927992205,"connected_time":809000000000,"state":"active","ping":41},{"user_id":428,"name":"Shezza","steam_id":76561198903969123,"connected_time":3162000000000,"state":"active","ping":79},{"user_id":457,"name":"kaa","steam_id":76561198044061430,"connected_time":1403000000000,"state":"active","ping":60},{"user_id":468,"name":"\"insert profile name\"","steam_id":76561198299691414,"connected_time":802000000000,"state":"active","ping":48},{"user_id":473,"name":"mei","steam_id":76561198028078806,"connected_time":637000000000,"state":"active","ping":47},{"user_id":463,"name":"Grey Fox","steam_id":76561197962122846,"connected_time":1068000000000,"state":"active","ping":35},{"user_id":420,"name":"BlobsOfWax","steam_id":76561198041752402,"connected_time":4391000000000,"state":"active","ping":45},{"user_id":474,"name":"norespectforthedevil","steam_id":76561197998922218,"connected_time":628000000000,"state":"active","ping":120},{"user_id":402,"name":"Lyell","steam_id":76561198350329389,"connected_time":5641000000000,"state":"active","ping":83},{"user_id":437,"name":"Mogwai","steam_id":76561198078832314,"connected_time":2606000000000,"state":"active","ping":93},{"user_id":446,"name":"TryX","steam_id":76561199356781475,"connected_time":1864000000000,"state":"active","ping":84},{"user_id":479,"name":"Rain","steam_id":76561198186993269,"connected_time":37000000000,"state":"active","ping":66},{"user_id":472,"name":"Big Mac Gaming","steam_id":76561198158209651,"connected_time":790000000000,"state":"active","ping":61},{"user_id":459,"name":"DarthPaul8181","steam_id":76561198373050455,"connected_time":1397000000000,"state":"active","ping":55},{"user_id":425,"name":"Zerfesh","steam_id":76561198117534358,"connected_time":3507000000000,"state":"active","ping":102}]},{"server_id":320,"name":"Uncletopia | London | 3 | All Maps","name_short":"lon-3","host":"lon-1.uk.uncletopia.com","port":27035,"enabled":true,"region":"eu","cc":"gb","latitude":51.509865,"longitude":-0.118092,"reserved":0,"last_update":"0001-01-01T00:00:00Z","name_a2s":"Uncletopia | London | 3 | All Maps","protocol":17,"map":"pl_upward","folder":"tf","game":"Team Fortress","app_id":440,"player_count":24,"max_players":24,"Bots":0,"server_type":"Dedicated","server_os":"Linux","password":true,"vac":true,"version":"7757534","steam_id":85568392924510192,"keywords":["nocrits","nodmgspread","payload","uncletopia"],"game_id":440,"stv_port":27036,"stv_name":"Uncletopia | London | 3 | All Maps | STV","players":[{"user_id":702,"name":"‚ú™ m_br3","steam_id":76561198044981990,"connected_time":2332000000000,"state":"active","ping":75},{"user_id":739,"name":"Krabs","steam_id":76561198161679477,"connected_time":240000000000,"state":"active","ping":40},{"user_id":727,"name":"Holtzer","steam_id":76561198031573426,"connected_time":1260000000000,"state":"active","ping":72},{"user_id":740,"name":"dd","steam_id":76561198257836694,"connected_time":231000000000,"state":"active","ping":41},{"user_id":741,"name":"Kaek","steam_id":76561197960283484,"connected_time":227000000000,"state":"active","ping":75},{"user_id":718,"name":"SoberOnion","steam_id":76561198987711995,"connected_time":1898000000000,"state":"active","ping":94},{"user_id":690,"name":"Sabesaroo","steam_id":76561198098751074,"connected_time":2926000000000,"state":"active","ping":50},{"user_id":692,"name":"Jyghc","steam_id":76561198405980575,"connected_time":2910000000000,"state":"active","ping":95},{"user_id":723,"name":"Thors","steam_id":76561197968739075,"connected_time":1671000000000,"state":"active","ping":45},{"user_id":696,"name":"tapeworms!","steam_id":76561198069649097,"connected_time":2591000000000,"state":"active","ping":48},{"user_id":748,"name":"azzy","steam_id":76561198061293740,"connected_time":90000000000,"state":"active","ping":76},{"user_id":736,"name":"BladedBloom4611","steam_id":76561198416655215,"connected_time":783000000000,"state":"active","ping":51},{"user_id":749,"name":"bonk","steam_id":76561198953939723,"connected_time":88000000000,"state":"active","ping":75},{"user_id":743,"name":"Gunslinger BOT","steam_id":76561198126762760,"connected_time":177000000000,"state":"active","ping":79},{"user_id":719,"name":"Bigson","steam_id":76561198114214362,"connected_time":1893000000000,"state":"active","ping":55},{"user_id":744,"name":"blade","steam_id":76561198235739036,"connected_time":176000000000,"state":"active","ping":91},{"user_id":720,"name":".Fourbee (4b)","steam_id":76561198249832770,"connected_time":1879000000000,"state":"active","ping":49},{"user_id":751,"name":"Grumtsior","steam_id":76561198043563111,"connected_time":22000000000,"state":"active","ping":174},{"user_id":750,"name":"Manslayer","steam_id":76561198063956707,"connected_time":86000000000,"state":"active","ping":60},{"user_id":734,"name":"Wubbles","steam_id":76561197970314906,"connected_time":1128000000000,"state":"active","ping":57},{"user_id":735,"name":"Asfreild","steam_id":76561198055901120,"connected_time":1127000000000,"state":"active","ping":84},{"user_id":746,"name":"Cosmetic brain","steam_id":76561198055936410,"connected_time":168000000000,"state":"active","ping":90},{"user_id":713,"name":"Max Andrew","steam_id":76561198158955194,"connected_time":2034000000000,"state":"active","ping":83},{"user_id":747,"name":"Lewylow","steam_id":76561198005425686,"connected_time":159000000000,"state":"active","ping":53}]},{"server_id":321,"name":"Uncletopia | London | 4 | All Maps","name_short":"lon-4","host":"lon-1.uk.uncletopia.com","port":27045,"enabled":true,"region":"eu","cc":"gb","latitude":51.509865,"longitude":-0.118092,"reserved":0,"last_update":"0001-01-01T00:00:00Z","name_a2s":"Uncletopia | London | 4 | All Maps","protocol":17,"map":"cp_sunshine","folder":"tf","game":"Team Fortress","app_id":440,"player_count":0,"max_players":24,"Bots":0,"server_type":"Dedicated","server_os":"Linux","password":true,"vac":true,"version":"7757534","steam_id":85568392924510193,"keywords":["cp","nocrits","nodmgspread","uncletopia"],"game_id":440,"stv_port":27046,"stv_name":"Uncletopia | London | 4 | All Maps | STV","players":null},{"server_id":21,"name":"Uncletopia | London | 5 | All Maps","name_short":"lon-5","host":"lon-1.uk.uncletopia.com","port":27055,"enabled":true,"region":"eu","cc":"gb","latitude":51.509865,"longitude":-0.118092,"reserved":0,"last_update":"0001-01-01T00:00:00Z","name_a2s":"Uncletopia | London | 5 | All Maps","protocol":17,"map":"koth_viaduct","folder":"tf","game":"Team Fortress","app_id":440,"player_count":0,"max_players":24,"Bots":0,"server_type":"Dedicated","server_os":"Linux","password":true,"vac":true,"version":"7757534","steam_id":85568392924742829,"keywords":["cp","nocrits","nodmgspread","uncletopia"],"game_id":440,"stv_port":27056,"stv_name":"Uncletopia | London | 5 | All Maps | STV","players":null},{"server_id":22,"name":"Uncletopia | London | 6 | All Maps","name_short":"lon-6","host":"lon-1.uk.uncletopia.com","port":27065,"enabled":true,"region":"eu","cc":"gb","latitude":51.509865,"longitude":-0.118092,"reserved":0,"last_update":"0001-01-01T00:00:00Z","name_a2s":"Uncletopia | London | 6 | All Maps","protocol":17,"map":"koth_highpass","folder":"tf","game":"Team Fortress","app_id":440,"player_count":0,"max_players":24,"Bots":0,"server_type":"Dedicated","server_os":"Linux","password":true,"vac":true,"version":"7757534","steam_id":85568392924742830,"keywords":["cp","nocrits","nodmgspread","uncletopia"],"game_id":440,"stv_port":27066,"stv_name":"Uncletopia | London | 6 | All Maps | STV","players":null},{"server_id":40,"name":"Uncletopia | London | 7 | No Payload","name_short":"lon-7","host":"lon-1.uk.uncletopia.com","port":27075,"enabled":true,"region":"eu","cc":"gb","latitude":51.509865,"longitude":-0.118092,"reserved":0,"last_update":"0001-01-01T00:00:00Z","name_a2s":"Uncletopia | London | 7 | No Payload","protocol":17,"map":"koth_highpass","folder":"tf","game":"Team Fortress","app_id":440,"player_count":0,"max_players":24,"Bots":0,"server_type":"Dedicated","server_os":"Linux","password":true,"vac":true,"version":"7757534","steam_id":85568392924964314,"keywords":["cp","nocrits","nodmgspread","uncletopia"],"game_id":440,"stv_port":27076,"stv_name":"Uncletopia | London | 7 | No Payload | STV","players":null},{"server_id":41,"name":"Uncletopia | London | 8 | Community","name_short":"lon-8","host":"lon-1.uk.uncletopia.com","port":27085,"enabled":true,"region":"eu","cc":"gb","latitude":51.509865,"longitude":-0.118092,"reserved":0,"last_update":"0001-01-01T00:00:00Z","name_a2s":"Uncletopia | London | 8 | Community","protocol":17,"map":"workshop/koth_trenchfoot_b1a.ugc731436616","folder":"tf","game":"Team Fortress","app_id":440,"player_count":0,"max_players":24,"Bots":0,"server_type":"Dedicated","server_os":"Linux","password":true,"vac":true,"version":"7757534","steam_id":85568392924964315,"keywords":["cp","nocrits","nodmgspread","uncletopia"],"game_id":440,"stv_port":27086,"stv_name":"Uncletopia | London | 8 | Community | STV","players":null},{"server_id":300,"name":"Uncletopia | Montr√©al | 1 | All Maps","name_short":"mtl-1","host":"mtl-1.ca.uncletopia.com","port":27015,"enabled":true,"region":"us-east","cc":"ca","latitude":45.50889,"longitude":-73.56167,"reserved":0,"last_update":"0001-01-01T00:00:00Z","name_a2s":"Uncletopia | Montr√©al | 1 | All Maps","protocol":17,"map":"koth_viaduct","folder":"tf","game":"Team Fortress","app_id":440,"player_count":2,"max_players":24,"Bots":0,"server_type":"Dedicated","server_os":"Linux","password":true,"vac":true,"version":"7757534","steam_id":85568392924500087,"keywords":["cp","nocrits","nodmgspread","uncletopia"],"game_id":440,"stv_port":27016,"stv_name":"Uncletopia | Montr√©al | 1 | All Maps | STV","players":[{"user_id":4,"name":"Piyono","steam_id":76561197962188504,"connected_time":2025000000000,"state":"active","ping":62},{"user_id":7,"name":"TheMilkMan","steam_id":76561199068930228,"connected_time":1169000000000,"state":"active","ping":140}]},{"server_id":301,"name":"Uncletopia | Montr√©al | 2 | All Maps","name_short":"mtl-2","host":"mtl-1.ca.uncletopia.com","port":27025,"enabled":true,"region":"us-east","cc":"ca","latitude":45.50889,"longitude":-73.56167,"reserved":0,"last_update":"0001-01-01T00:00:00Z","name_a2s":"Uncletopia | Montr√©al | 2 | All Maps","protocol":17,"map":"cp_sunshine","folder":"tf","game":"Team Fortress","app_id":440,"player_count":0,"max_players":24,"Bots":0,"server_type":"Dedicated","server_os":"Linux","password":true,"vac":true,"version":"7757534","steam_id":85568392924500088,"keywords":["cp","nocrits","nodmgspread","uncletopia"],"game_id":440,"stv_port":27026,"stv_name":"Uncletopia | Montr√©al | 2 | All Maps | STV","players":null},{"server_id":302,"name":"Uncletopia | Montr√©al | 3 | All Maps","name_short":"mtl-3","host":"mtl-1.ca.uncletopia.com","port":27035,"enabled":true,"region":"us-east","cc":"ca","latitude":45.50889,"longitude":-73.56167,"reserved":0,"last_update":"0001-01-01T00:00:00Z","name_a2s":"Uncletopia | Montr√©al | 3 | All Maps","protocol":17,"map":"pl_badwater","folder":"tf","game":"Team Fortress","app_id":440,"player_count":0,"max_players":24,"Bots":0,"server_type":"Dedicated","server_os":"Linux","password":true,"vac":true,"version":"7757534","steam_id":85568392924500089,"keywords":["nocrits","nodmgspread","payload","uncletopia"],"game_id":440,"stv_port":27036,"stv_name":"Uncletopia | Montr√©al | 3 | All Maps | STV","players":null},{"server_id":303,"name":"Uncletopia | Montr√©al | 4 | No Payload","name_short":"mtl-4","host":"mtl-1.ca.uncletopia.com","port":27045,"enabled":true,"region":"us-east","cc":"ca","latitude":45.50889,"longitude":-73.56167,"reserved":0,"last_update":"0001-01-01T00:00:00Z","name_a2s":"Uncletopia | Montr√©al | 4 | No Payload","protocol":17,"map":"pl_pier","folder":"tf","game":"Team Fortress","app_id":440,"player_count":0,"max_players":24,"Bots":0,"server_type":"Dedicated","server_os":"Linux","password":true,"vac":true,"version":"7757534","steam_id":85568392924500090,"keywords":["nocrits","nodmgspread","payload","uncletopia"],"game_id":440,"stv_port":27046,"stv_name":"Uncletopia | Montr√©al | 4 | No Payload | STV","players":null},{"server_id":13,"name":"Uncletopia | New York City | 1 | All Maps","name_short":"nyc-1","host":"nyc-1.us.uncletopia.com","port":27015,"enabled":true,"region":"us-east","cc":"us","latitude":40.73061,"longitude":-73.93524,"reserved":0,"last_update":"0001-01-01T00:00:00Z","name_a2s":"Uncletopia | New York City | 1 | All Maps","protocol":17,"map":"koth_highpass","folder":"tf","game":"Team Fortress","app_id":440,"player_count":1,"max_players":24,"Bots":0,"server_type":"Dedicated","server_os":"Linux","password":true,"vac":true,"version":"7757534","steam_id":85568392924469993,"keywords":["cp","nocrits","nodmgspread","uncletopia"],"game_id":440,"stv_port":27016,"stv_name":"Uncletopia | New York City | 1 | All Maps | STV","players":[{"user_id":25,"name":"_StrawberryOtter","steam_id":76561199223822243,"connected_time":3000000000,"state":"spawning","ping":48}]},{"server_id":14,"name":"Uncletopia | New York City | 2 | All Maps","name_short":"nyc-2","host":"nyc-1.us.uncletopia.com","port":27025,"enabled":true,"region":"us-east","cc":"us","latitude":40.73061,"longitude":-73.93524,"reserved":0,"last_update":"0001-01-01T00:00:00Z","name_a2s":"Uncletopia | New York City | 2 | All Maps","protocol":17,"map":"cp_sunshine","folder":"tf","game":"Team Fortress","app_id":440,"player_count":24,"max_players":24,"Bots":0,"server_type":"Dedicated","server_os":"Linux","password":true,"vac":true,"version":"7757534","steam_id":85568392924469994,"keywords":["cp","nocrits","nodmgspread","uncletopia"],"game_id":440,"stv_port":27026,"stv_name":"Uncletopia | New York City | 2 | All Maps | STV","players":[{"user_id":124,"name":"Kevin the Minion","steam_id":76561198052380794,"connected_time":1795000000000,"state":"active","ping":77},{"user_id":119,"name":"gnome (wanted felon)","steam_id":76561199229771413,"connected_time":2317000000000,"state":"active","ping":84},{"user_id":129,"name":"JO√ÉO MIGUEL","steam_id":76561198066297489,"connected_time":1456000000000,"state":"active","ping":139},{"user_id":163,"name":"potty trained","steam_id":76561198141557766,"connected_time":306000000000,"state":"active","ping":83},{"user_id":131,"name":"Post nut clarity","steam_id":76561198060246831,"connected_time":1352000000000,"state":"active","ping":81},{"user_id":132,"name":"üÖúüÖîüÖîüÖöüÖ¢üÖ£üÖî\ufffd\ufffd\ufffd","steam_id":76561197999748343,"connected_time":1352000000000,"state":"active","ping":82},{"user_id":127,"name":"fuckface","steam_id":76561198010059466,"connected_time":1543000000000,"state":"active","ping":45},{"user_id":133,"name":"Blitzy","steam_id":76561198149472890,"connected_time":1350000000000,"state":"active","ping":91},{"user_id":108,"name":"Reisen","steam_id":76561197968832019,"connected_time":2925000000000,"state":"active","ping":45},{"user_id":138,"name":".9 lg","steam_id":76561198092238353,"connected_time":1293000000000,"state":"active","ping":88},{"user_id":161,"name":"Snorty","steam_id":76561198114304454,"connected_time":499000000000,"state":"active","ping":80},{"user_id":152,"name":"I'm Bad at Video Games","steam_id":76561199090173079,"connected_time":1086000000000,"state":"active","ping":88},{"user_id":136,"name":"MidSobbes08","steam_id":76561199013101925,"connected_time":1315000000000,"state":"active","ping":116},{"user_id":164,"name":"grandma","steam_id":76561198962318010,"connected_time":113000000000,"state":"active","ping":92},{"user_id":146,"name":"Mike Rowe Penis","steam_id":76561198041120471,"connected_time":1184000000000,"state":"active","ping":61},{"user_id":144,"name":"Rockguy21","steam_id":76561198121303359,"connected_time":1200000000000,"state":"active","ping":61},{"user_id":165,"name":"Fredrick","steam_id":76561197981419964,"connected_time":0,"state":"spawning","ping":19},{"user_id":159,"name":"Nolan (Femboy)","steam_id":76561198082534795,"connected_time":670000000000,"state":"active","ping":86},{"user_id":156,"name":"jakob","steam_id":76561198094859796,"connected_time":826000000000,"state":"active","ping":75},{"user_id":151,"name":"ttv/Muenstier","steam_id":76561198312153623,"connected_time":1143000000000,"state":"active","ping":46},{"user_id":149,"name":"Reaper","steam_id":76561198435826103,"connected_time":1172000000000,"state":"active","ping":105},{"user_id":111,"name":"demonstrations man","steam_id":76561198362195862,"connected_time":2904000000000,"state":"active","ping":86},{"user_id":150,"name":"Gitgudgame","steam_id":76561198354761942,"connected_time":1161000000000,"state":"active","ping":65},{"user_id":158,"name":"nilftb","steam_id":76561198161952186,"connected_time":784000000000,"state":"active","ping":54}]},{"server_id":15,"name":"Uncletopia | New York City | 3 | Stopwatch Beta","name_short":"nyc-3","host":"nyc-1.us.uncletopia.com","port":27035,"enabled":true,"region":"us-east","cc":"us","latitude":40.73061,"longitude":-73.93524,"reserved":0,"last_update":"0001-01-01T00:00:00Z","name_a2s":"Uncletopia | New York City | 3 | Stopwatch Beta","protocol":17,"map":"workshop/pl_summercoast_rc8e.ugc1761528829","folder":"tf","game":"Team Fortress","app_id":440,"player_count":0,"max_players":24,"Bots":0,"server_type":"Dedicated","server_os":"Linux","password":true,"vac":true,"version":"7757534","steam_id":85568392924742820,"keywords":["nocrits","nodmgspread","payload","uncletopia"],"game_id":440,"stv_port":27036,"stv_name":"Uncletopia | New York City | 3 | Stopwatch Beta | STV","players":null},{"server_id":16,"name":"Uncletopia | New York City | 4 | Community","name_short":"nyc-4","host":"nyc-1.us.uncletopia.com","port":27045,"enabled":true,"region":"us-east","cc":"us","latitude":40.73061,"longitude":-73.93524,"reserved":0,"last_update":"0001-01-01T00:00:00Z","name_a2s":"Uncletopia | New York City | 4 | Community","protocol":17,"map":"workshop/pl_corrode_rc2.ugc546577989","folder":"tf","game":"Team Fortress","app_id":440,"player_count":0,"max_players":24,"Bots":0,"server_type":"Dedicated","server_os":"Linux","password":true,"vac":true,"version":"7757534","steam_id":85568392924742821,"keywords":["nocrits","nodmgspread","payload","uncletopia"],"game_id":440,"stv_port":27046,"stv_name":"Uncletopia | New York City | 4 | Community | STV","players":null},{"server_id":142,"name":"Uncletopia | S√£o Paulo | 1 | All Maps","name_short":"sao-1","host":"sao-1.br.uncletopia.com","port":27015,"enabled":true,"region":"sa","cc":"br","latitude":-23.533773,"longitude":-46.62529,"reserved":0,"last_update":"0001-01-01T00:00:00Z","name_a2s":"Uncletopia | S√£o Paulo | 1 | All Maps","protocol":17,"map":"cp_snakewater_final1","folder":"tf","game":"Team Fortress","app_id":440,"player_count":0,"max_players":24,"Bots":0,"server_type":"Dedicated","server_os":"Linux","password":true,"vac":true,"version":"7757534","steam_id":85568392924469996,"keywords":["cp","nocrits","nodmgspread","uncletopia"],"game_id":440,"stv_port":27016,"stv_name":"Uncletopia | S√£o Paulo | 1 | All Maps | STV","players":null},{"server_id":143,"name":"Uncletopia | S√£o Paulo | 2 | All Maps","name_short":"sao-2","host":"sao-2.br.uncletopia.com","port":27015,"enabled":true,"region":"sa","cc":"br","latitude":-23.533773,"longitude":-46.62529,"reserved":0,"last_update":"0001-01-01T00:00:00Z","name_a2s":"Uncletopia | S√£o Paulo | 2 | All Maps","protocol":17,"map":"cp_sunshine","folder":"tf","game":"Team Fortress","app_id":440,"player_count":0,"max_players":24,"Bots":0,"server_type":"Dedicated","server_os":"Linux","password":true,"vac":true,"version":"7757534","steam_id":85568392924485349,"keywords":["cp","nocrits","nodmgspread","uncletopia"],"game_id":440,"stv_port":27016,"stv_name":"Uncletopia | S√£o Paulo | 2 | All Maps | STV","players":null},{"server_id":7,"name":"Uncletopia | Seattle | 1 | All Maps","name_short":"sea-1","host":"sea-1.us.uncletopia.com","port":27015,"enabled":true,"region":"us-west","cc":"us","latitude":47.608013,"longitude":-122.33517,"reserved":0,"last_update":"0001-01-01T00:00:00Z","name_a2s":"Uncletopia | Seattle | 1 | All Maps","protocol":17,"map":"pl_borneo","folder":"tf","game":"Team Fortress","app_id":440,"player_count":24,"max_players":24,"Bots":0,"server_type":"Dedicated","server_os":"Linux","password":true,"vac":true,"version":"7757534","steam_id":85568392924469997,"keywords":["nocrits","nodmgspread","payload","uncletopia"],"game_id":440,"stv_port":27016,"stv_name":"Uncletopia | Seattle | 1 | All Maps | STV","players":[{"user_id":350,"name":"hold up let him stew","steam_id":76561198069199626,"connected_time":280000000000,"state":"active","ping":51},{"user_id":351,"name":"Skabbety","steam_id":76561198168044257,"connected_time":256000000000,"state":"active","ping":39},{"user_id":348,"name":"quality hair care products","steam_id":76561198046073848,"connected_time":287000000000,"state":"active","ping":48},{"user_id":327,"name":"Straight White Male","steam_id":76561199234350287,"connected_time":1640000000000,"state":"active","ping":109},{"user_id":293,"name":"Saint Pablo","steam_id":76561198083300159,"connected_time":2713000000000,"state":"active","ping":69},{"user_id":294,"name":"FireFighter_Jeffery","steam_id":76561198070823022,"connected_time":2713000000000,"state":"active","ping":78},{"user_id":347,"name":"MintyPawz","steam_id":76561198111430103,"connected_time":295000000000,"state":"active","ping":89},{"user_id":291,"name":"Mignyanne :3","steam_id":76561198048754056,"connected_time":2805000000000,"state":"active","ping":62},{"user_id":349,"name":"dearender","steam_id":76561199427644498,"connected_time":286000000000,"state":"active","ping":66},{"user_id":238,"name":"Hottodoggu","steam_id":76561198084080712,"connected_time":6620000000000,"state":"active","ping":89},{"user_id":331,"name":"demomanfan2008","steam_id":76561198077030486,"connected_time":1607000000000,"state":"active","ping":70},{"user_id":266,"name":"„Ä£dust„Ä£ -she/it-","steam_id":76561198045218909,"connected_time":4765000000000,"state":"active","ping":36},{"user_id":287,"name":"Eris","steam_id":76561199471434875,"connected_time":3531000000000,"state":"active","ping":38},{"user_id":343,"name":"dirty30","steam_id":76561198021226566,"connected_time":1317000000000,"state":"active","ping":48},{"user_id":344,"name":"Nuts","steam_id":76561199258535559,"connected_time":1311000000000,"state":"active","ping":89},{"user_id":283,"name":"‚úø PoutyBun ‚úø","steam_id":76561197965762847,"connected_time":3898000000000,"state":"active","ping":33},{"user_id":346,"name":"Truffles","steam_id":76561198095868800,"connected_time":1066000000000,"state":"active","ping":117},{"user_id":345,"name":"oo","steam_id":76561198119626492,"connected_time":1254000000000,"state":"active","ping":68},{"user_id":281,"name":"Luca","steam_id":76561198125087140,"connected_time":4011000000000,"state":"active","ping":46},{"user_id":260,"name":"jacix3 [gay wolfgirl]{she/it}","steam_id":76561198205004165,"connected_time":5357000000000,"state":"active","ping":65},{"user_id":333,"name":"jungus","steam_id":76561198129862008,"connected_time":1600000000000,"state":"active","ping":76},{"user_id":340,"name":"Google","steam_id":76561198857237473,"connected_time":1488000000000,"state":"active","ping":47},{"user_id":341,"name":"JellyParrot","steam_id":76561199190990163,"connected_time":1381000000000,"state":"active","ping":118},{"user_id":210,"name":"1dk","steam_id":76561198135104742,"connected_time":8633000000000,"state":"active","ping":47}]},{"server_id":119,"name":"Uncletopia | Seattle | 2 | All Maps","name_short":"sea-2","host":"sea-1.us.uncletopia.com","port":27025,"enabled":true,"region":"us-west","cc":"us","latitude":47.608013,"longitude":-122.33517,"reserved":0,"last_update":"0001-01-01T00:00:00Z","name_a2s":"Uncletopia | Seattle | 2 | All Maps","protocol":17,"map":"pl_pier","folder":"tf","game":"Team Fortress","app_id":440,"player_count":24,"max_players":24,"Bots":0,"server_type":"Dedicated","server_os":"Linux","password":true,"vac":true,"version":"7757534","steam_id":85568392924469998,"keywords":["nocrits","nodmgspread","payload","uncletopia"],"game_id":440,"stv_port":27026,"stv_name":"Uncletopia | Seattle | 2 | All Maps | STV","players":[{"user_id":148,"name":"Lazy","steam_id":76561198802747832,"connected_time":1487000000000,"state":"active","ping":52},{"user_id":151,"name":"H4V0C","steam_id":76561199129350925,"connected_time":1234000000000,"state":"active","ping":56},{"user_id":98,"name":"Sprucelass","steam_id":76561197998391724,"connected_time":5332000000000,"state":"active","ping":103},{"user_id":143,"name":"Elongated Muskrat","steam_id":76561198314501346,"connected_time":1986000000000,"state":"active","ping":52},{"user_id":126,"name":"TheCowledWiz","steam_id":76561198016735868,"connected_time":3345000000000,"state":"active","ping":46},{"user_id":168,"name":"jawnymac","steam_id":76561198179529599,"connected_time":262000000000,"state":"active","ping":74},{"user_id":169,"name":"Marz","steam_id":76561198799364911,"connected_time":230000000000,"state":"active","ping":89},{"user_id":167,"name":"TrashMan","steam_id":76561198064860110,"connected_time":283000000000,"state":"active","ping":107},{"user_id":157,"name":"bergly","steam_id":76561198811650078,"connected_time":1086000000000,"state":"active","ping":133},{"user_id":171,"name":"Mark Pliers (real)","steam_id":76561199088818698,"connected_time":103000000000,"state":"active","ping":59},{"user_id":158,"name":"Donk","steam_id":76561198803472441,"connected_time":994000000000,"state":"active","ping":124},{"user_id":130,"name":"obese farts","steam_id":76561198206922028,"connected_time":2869000000000,"state":"active","ping":84},{"user_id":80,"name":"ejschild745","steam_id":76561199013388867,"connected_time":6543000000000,"state":"active","ping":89},{"user_id":128,"name":"BlitzBrom","steam_id":76561197962231714,"connected_time":3019000000000,"state":"active","ping":62},{"user_id":170,"name":"HideOnTate","steam_id":76561198209880837,"connected_time":152000000000,"state":"active","ping":46},{"user_id":144,"name":"Five","steam_id":76561198026640473,"connected_time":1915000000000,"state":"active","ping":56},{"user_id":149,"name":"worker","steam_id":76561198039608940,"connected_time":1325000000000,"state":"active","ping":65},{"user_id":165,"name":"Jacohi","steam_id":76561198055089667,"connected_time":770000000000,"state":"active","ping":45},{"user_id":162,"name":"Salazar9","steam_id":76561198049903973,"connected_time":915000000000,"state":"active","ping":55},{"user_id":166,"name":"Pebbles","steam_id":76561197985155770,"connected_time":751000000000,"state":"active","ping":116},{"user_id":153,"name":"Jykle","steam_id":76561198077352807,"connected_time":1151000000000,"state":"active","ping":56},{"user_id":164,"name":"dabulletz","steam_id":76561197993956075,"connected_time":825000000000,"state":"active","ping":49},{"user_id":152,"name":"Omnoman","steam_id":76561198006258213,"connected_time":1197000000000,"state":"active","ping":142},{"user_id":163,"name":"SHI ' THEAD","steam_id":76561198119697137,"connected_time":882000000000,"state":"active","ping":96}]},{"server_id":406,"name":"Uncletopia | Seattle | 3 | Stopwatch Beta","name_short":"sea-3","host":"sea-1.us.uncletopia.com","port":27035,"enabled":true,"region":"us-west","cc":"us","latitude":47.608013,"longitude":-122.33517,"reserved":0,"last_update":"0001-01-01T00:00:00Z","name_a2s":"Uncletopia | Seattle | 3 | Stopwatch Beta","protocol":17,"map":"koth_highpass","folder":"tf","game":"Team Fortress","app_id":440,"player_count":0,"max_players":24,"Bots":0,"server_type":"Dedicated","server_os":"Linux","password":true,"vac":true,"version":"7757534","steam_id":85568392924515217,"keywords":["cp","nocrits","nodmgspread","uncletopia"],"game_id":440,"stv_port":27036,"stv_name":"Uncletopia | Seattle | 3 | Stopwatch Beta | STV","players":null},{"server_id":17,"name":"Uncletopia | San Francisco | 1 | All Maps","name_short":"sfo-1","host":"sfo-1.us.uncletopia.com","port":27015,"enabled":true,"region":"us-west","cc":"us","latitude":37.77397,"longitude":-122.4313,"reserved":0,"last_update":"0001-01-01T00:00:00Z","name_a2s":"Uncletopia | San Francisco | 1 | All Maps","protocol":17,"map":"pl_borneo","folder":"tf","game":"Team Fortress","app_id":440,"player_count":22,"max_players":24,"Bots":0,"server_type":"Dedicated","server_os":"Linux","password":true,"vac":true,"version":"7757534","steam_id":85568392924469999,"keywords":["nocrits","nodmgspread","payload","uncletopia"],"game_id":440,"stv_port":27016,"stv_name":"Uncletopia | San Francisco | 1 | All Maps | STV","players":[{"user_id":276,"name":"Dimple #TF2Center","steam_id":76561198980324190,"connected_time":856000000000,"state":"active","ping":67},{"user_id":271,"name":"/r/circumcision","steam_id":76561198045926594,"connected_time":1941000000000,"state":"active","ping":59},{"user_id":267,"name":"Pine Tree","steam_id":76561198112323877,"connected_time":2584000000000,"state":"active","ping":138},{"user_id":269,"name":"Antonpirulero10","steam_id":76561198253036781,"connected_time":2157000000000,"state":"active","ping":101},{"user_id":286,"name":"tech","steam_id":76561197994446792,"connected_time":604000000000,"state":"active","ping":56},{"user_id":255,"name":"Green‚Ñ¢","steam_id":76561198136522734,"connected_time":3096000000000,"state":"active","ping":106},{"user_id":291,"name":"Wahooka","steam_id":76561197962240925,"connected_time":165000000000,"state":"active","ping":105},{"user_id":263,"name":"DavisE","steam_id":76561198075504309,"connected_time":2634000000000,"state":"active","ping":91},{"user_id":237,"name":"Grzegorz Brzƒôczyszczykiewicz","steam_id":76561198229010452,"connected_time":4172000000000,"state":"active","ping":80},{"user_id":262,"name":"Drive-By-Fish-Guy","steam_id":76561198105513652,"connected_time":2779000000000,"state":"active","ping":68},{"user_id":268,"name":"MrHope","steam_id":76561197970434154,"connected_time":2551000000000,"state":"active","ping":84},{"user_id":272,"name":"Goymer","steam_id":76561198095445183,"connected_time":1940000000000,"state":"active","ping":69},{"user_id":233,"name":"Skullgirls enjoyer","steam_id":76561198077811162,"connected_time":4205000000000,"state":"active","ping":60},{"user_id":260,"name":"TriHerdOmniFlow","steam_id":76561198088688531,"connected_time":2899000000000,"state":"active","ping":140},{"user_id":239,"name":"rmbl","steam_id":76561198150137369,"connected_time":4020000000000,"state":"active","ping":55},{"user_id":279,"name":"ivyXXcision","steam_id":76561198031474906,"connected_time":819000000000,"state":"active","ping":109},{"user_id":274,"name":"r u guys going trick or treatin","steam_id":76561199074585110,"connected_time":1348000000000,"state":"active","ping":51},{"user_id":290,"name":"boopis","steam_id":76561198343502610,"connected_time":264000000000,"state":"active","ping":54},{"user_id":270,"name":"butcher pete","steam_id":76561197963872739,"connected_time":2074000000000,"state":"active","ping":34},{"user_id":281,"name":"w a o w","steam_id":76561198060769385,"connected_time":778000000000,"state":"active","ping":75},{"user_id":288,"name":"Alf Creepypasta","steam_id":76561198841844093,"connected_time":314000000000,"state":"active","ping":55},{"user_id":285,"name":"griddy","steam_id":76561198825658971,"connected_time":639000000000,"state":"active","ping":59}]},{"server_id":18,"name":"Uncletopia | San Francisco | 2 | All Maps","name_short":"sfo-2","host":"sfo-1.us.uncletopia.com","port":27025,"enabled":true,"region":"us-west","cc":"us","latitude":37.77397,"longitude":-122.4313,"reserved":0,"last_update":"0001-01-01T00:00:00Z","name_a2s":"Uncletopia | San Francisco | 2 | All Maps","protocol":17,"map":"koth_viaduct","folder":"tf","game":"Team Fortress","app_id":440,"player_count":0,"max_players":24,"Bots":0,"server_type":"Dedicated","server_os":"Linux","password":true,"vac":true,"version":"7757534","steam_id":85568392924470000,"keywords":["cp","nocrits","nodmgspread","uncletopia"],"game_id":440,"stv_port":27026,"stv_name":"Uncletopia | San Francisco | 2 | All Maps | STV","players":null},{"server_id":19,"name":"Uncletopia | San Francisco | 3 | Stopwatch Beta","name_short":"sfo-3","host":"sfo-1.us.uncletopia.com","port":27035,"enabled":true,"region":"us-west","cc":"us","latitude":37.77397,"longitude":-122.4313,"reserved":0,"last_update":"0001-01-01T00:00:00Z","name_a2s":"Uncletopia | San Francisco | 3 | Stopwatch Beta","protocol":17,"map":"workshop/pl_barnblitz_pro7.ugc582280235","folder":"tf","game":"Team Fortress","app_id":440,"player_count":1,"max_players":24,"Bots":0,"server_type":"Dedicated","server_os":"Linux","password":true,"vac":true,"version":"7757534","steam_id":85568392924742824,"keywords":["nocrits","nodmgspread","payload","uncletopia"],"game_id":440,"stv_port":27036,"stv_name":"Uncletopia | San Francisco | 3 | Stopwatch Beta | STV","players":[{"user_id":4,"name":"tomnovak375","steam_id":76561199472218712,"connected_time":189000000000,"state":"active","ping":214}]},{"server_id":20,"name":"Uncletopia | San Francisco | 4 | Community","name_short":"sfo-4","host":"sfo-1.us.uncletopia.com","port":27045,"enabled":true,"region":"us-west","cc":"us","latitude":37.77397,"longitude":-122.4313,"reserved":0,"last_update":"0001-01-01T00:00:00Z","name_a2s":"Uncletopia | San Francisco | 4 | Community","protocol":17,"map":"workshop/pl_divulgence_b4b.ugc2884808746","folder":"tf","game":"Team Fortress","app_id":440,"player_count":6,"max_players":24,"Bots":0,"server_type":"Dedicated","server_os":"Linux","password":true,"vac":true,"version":"7757534","steam_id":85568392924742826,"keywords":["nocrits","nodmgspread","payload","uncletopia"],"game_id":440,"stv_port":27046,"stv_name":"Uncletopia | San Francisco | 4 | Community | STV","players":[{"user_id":9,"name":"GaMeRbOi","steam_id":76561199094353617,"connected_time":1091000000000,"state":"active","ping":67},{"user_id":10,"name":"Power Station Worker","steam_id":76561199027981643,"connected_time":1048000000000,"state":"active","ping":103},{"user_id":11,"name":"Pile of Spinach","steam_id":76561198043068841,"connected_time":321000000000,"state":"active","ping":60},{"user_id":12,"name":"tum","steam_id":76561198084712019,"connected_time":314000000000,"state":"active","ping":58},{"user_id":13,"name":"Gamer","steam_id":76561199209853108,"connected_time":291000000000,"state":"active","ping":60},{"user_id":16,"name":"Mr.Z","steam_id":76561199251422541,"connected_time":29000000000,"state":"active","ping":57}]},{"server_id":141,"name":"Uncletopia | Sydney | 1 | All Maps","name_short":"syd-1","host":"syd-1.au.uncletopia.com","port":27015,"enabled":true,"region":"au","cc":"au","latitude":-33.865143,"longitude":151.2099,"reserved":0,"last_update":"0001-01-01T00:00:00Z","name_a2s":"Uncletopia | Sydney | 1 | All Maps","protocol":17,"map":"cp_mountainlab","folder":"tf","game":"Team Fortress","app_id":440,"player_count":0,"max_players":24,"Bots":0,"server_type":"Dedicated","server_os":"Linux","password":true,"vac":true,"version":"7757534","steam_id":85568392924470001,"keywords":["cp","nocrits","nodmgspread","uncletopia"],"game_id":440,"stv_port":27016,"stv_name":"Uncletopia | Sydney | 1 | All Maps | STV","players":null},{"server_id":123,"name":"Uncletopia | Sydney | 2 | All Maps","name_short":"syd-2","host":"syd-1.au.uncletopia.com","port":27025,"enabled":true,"region":"au","cc":"au","latitude":-33.865143,"longitude":151.2099,"reserved":0,"last_update":"0001-01-01T00:00:00Z","name_a2s":"Uncletopia | Sydney | 2 | All Maps","protocol":17,"map":"cp_snakewater_final1","folder":"tf","game":"Team Fortress","app_id":440,"player_count":0,"max_players":24,"Bots":0,"server_type":"Dedicated","server_os":"Linux","password":true,"vac":true,"version":"7757534","steam_id":85568392924470002,"keywords":["cp","nocrits","nodmgspread","uncletopia"],"game_id":440,"stv_port":27026,"stv_name":"Uncletopia | Sydney | 2 | All Maps | STV","players":null},{"server_id":395,"name":"Uncletopia | Sydney | 3 | All Maps","name_short":"syd-3","host":"syd-1.au.uncletopia.com","port":27035,"enabled":true,"region":"au","cc":"au","latitude":-33.865143,"longitude":151.2099,"reserved":0,"last_update":"0001-01-01T00:00:00Z","name_a2s":"Uncletopia | Sydney | 3 | All Maps","protocol":17,"map":"koth_highpass","folder":"tf","game":"Team Fortress","app_id":440,"player_count":0,"max_players":24,"Bots":0,"server_type":"Dedicated","server_os":"Linux","password":true,"vac":true,"version":"7757534","steam_id":85568392925194467,"keywords":["cp","nocrits","nodmgspread","uncletopia"],"game_id":440,"stv_port":27036,"stv_name":"Uncletopia | Sydney | 3 | All Maps | STV","players":null},{"server_id":396,"name":"Uncletopia | Sydney | 4 | All Maps","name_short":"syd-4","host":"syd-1.au.uncletopia.com","port":27045,"enabled":true,"region":"au","cc":"au","latitude":-33.865143,"longitude":151.2099,"reserved":0,"last_update":"0001-01-01T00:00:00Z","name_a2s":"Uncletopia | Sydney | 4 | All Maps","protocol":17,"map":"pl_snowycoast","folder":"tf","game":"Team Fortress","app_id":440,"player_count":0,"max_players":24,"Bots":0,"server_type":"Dedicated","server_os":"Linux","password":true,"vac":true,"version":"7757534","steam_id":85568392925397958,"keywords":["nocrits","nodmgspread","payload","uncletopia"],"game_id":440,"stv_port":27046,"stv_name":"Uncletopia | Sydney | 4 | All Maps | STV","players":null},{"server_id":58,"name":"Uncletopia | Sydney | 5 | Stopwatch Beta","name_short":"syd-5","host":"syd-1.au.uncletopia.com","port":27055,"enabled":true,"region":"au","cc":"au","latitude":-33.865143,"longitude":151.2099,"reserved":0,"last_update":"0001-01-01T00:00:00Z","name_a2s":"Uncletopia | Sydney | 5 | Stopwatch Beta","protocol":17,"map":"koth_cascade","folder":"tf","game":"Team Fortress","app_id":440,"player_count":0,"max_players":24,"Bots":0,"server_type":"Dedicated","server_os":"Linux","password":true,"vac":true,"version":"7757534","steam_id":85568392925397959,"keywords":["cp","nocrits","nodmgspread","uncletopia"],"game_id":440,"stv_port":27056,"stv_name":"Uncletopia | Sydney | 5 | Stopwatch Beta | STV","players":null},{"server_id":59,"name":"Uncletopia | Sydney | 6 | Community","name_short":"syd-6","host":"syd-1.au.uncletopia.com","port":27065,"enabled":true,"region":"au","cc":"au","latitude":-33.865143,"longitude":151.2099,"reserved":0,"last_update":"0001-01-01T00:00:00Z","name_a2s":"Uncletopia | Sydney | 6 | Community","protocol":17,"map":"pl_badwater","folder":"tf","game":"Team Fortress","app_id":440,"player_count":0,"max_players":24,"Bots":0,"server_type":"Dedicated","server_os":"Linux","password":true,"vac":true,"version":"7757534","steam_id":85568392925397960,"keywords":["nocrits","nodmgspread","payload","uncletopia"],"game_id":440,"stv_port":27066,"stv_name":"Uncletopia | Sydney | 6 | Community | STV","players":null},{"server_id":49,"name":"Uncletopia | Warsaw | 1 | All Maps","name_short":"waw-1","host":"waw-1.pl.uncletopia.com","port":27015,"enabled":true,"region":"eu","cc":"pl","latitude":52.2297,"longitude":21.017532,"reserved":0,"last_update":"0001-01-01T00:00:00Z","name_a2s":"","protocol":0,"map":"","folder":"","game":"","app_id":0,"player_count":0,"max_players":0,"Bots":0,"server_type":"","server_os":"","password":false,"vac":false,"version":"","steam_id":0,"keywords":null,"game_id":0,"stv_port":0,"stv_name":"","players":null},{"server_id":50,"name":"Uncletopia | Warsaw | 2 | All Maps","name_short":"waw-2","host":"waw-1.pl.uncletopia.com","port":27025,"enabled":true,"region":"eu","cc":"pl","latitude":52.2297,"longitude":21.017532,"reserved":0,"last_update":"0001-01-01T00:00:00Z","name_a2s":"Uncletopia | Warsaw | 2 | All Maps","protocol":17,"map":"koth_highpass","folder":"tf","game":"Team Fortress","app_id":440,"player_count":0,"max_players":24,"Bots":0,"server_type":"Dedicated","server_os":"Linux","password":true,"vac":true,"version":"7757534","steam_id":85568392925397851,"keywords":["cp","nocrits","nodmgspread","uncletopia"],"game_id":440,"stv_port":27026,"stv_name":"Uncletopia | Warsaw | 2 | All Maps | STV","players":null},{"server_id":51,"name":"Uncletopia | Warsaw | 3 | All Maps","name_short":"waw-3","host":"waw-1.pl.uncletopia.com","port":27035,"enabled":true,"region":"eu","cc":"pl","latitude":52.2297,"longitude":21.017532,"reserved":0,"last_update":"0001-01-01T00:00:00Z","name_a2s":"Uncletopia | Warsaw | 3 | All Maps","protocol":17,"map":"koth_lakeside_final","folder":"tf","game":"Team Fortress","app_id":440,"player_count":0,"max_players":24,"Bots":0,"server_type":"Dedicated","server_os":"Linux","password":true,"vac":true,"version":"7757534","steam_id":85568392925397852,"keywords":["cp","nocrits","nodmgspread","uncletopia"],"game_id":440,"stv_port":27036,"stv_name":"Uncletopia | Warsaw | 3 | All Maps | STV","players":null},{"server_id":52,"name":"Uncletopia | Warsaw | 4 | All Maps","name_short":"waw-4","host":"waw-1.pl.uncletopia.com","port":27045,"enabled":true,"region":"eu","cc":"pl","latitude":52.2297,"longitude":21.017532,"reserved":0,"last_update":"0001-01-01T00:00:00Z","name_a2s":"Uncletopia | Warsaw | 4 | All Maps","protocol":17,"map":"cp_process_final","folder":"tf","game":"Team Fortress","app_id":440,"player_count":0,"max_players":24,"Bots":0,"server_type":"Dedicated","server_os":"Linux","password":true,"vac":true,"version":"7757534","steam_id":85568392925397853,"keywords":["cp","nocrits","nodmgspread","uncletopia"],"game_id":440,"stv_port":27046,"stv_name":"Uncletopia | Warsaw | 4 | All Maps | STV","players":null},{"server_id":53,"name":"Uncletopia | Warsaw | 5 | Stopwatch Beta","name_short":"waw-5","host":"waw-1.pl.uncletopia.com","port":27055,"enabled":true,"region":"eu","cc":"pl","latitude":52.2297,"longitude":21.017532,"reserved":0,"last_update":"0001-01-01T00:00:00Z","name_a2s":"Uncletopia | Warsaw | 5 | Stopwatch Beta","protocol":17,"map":"pl_pier","folder":"tf","game":"Team Fortress","app_id":440,"player_count":0,"max_players":24,"Bots":0,"server_type":"Dedicated","server_os":"Linux","password":true,"vac":true,"version":"7757534","steam_id":85568392925397854,"keywords":["nocrits","nodmgspread","payload","uncletopia"],"game_id":440,"stv_port":27056,"stv_name":"Uncletopia | Warsaw | 5 | Stopwatch Beta | STV","players":null},{"server_id":54,"name":"Uncletopia | Warsaw | 6 | Community","name_short":"waw-6","host":"waw-1.pl.uncletopia.com","port":27065,"enabled":true,"region":"eu","cc":"pl","latitude":52.2297,"longitude":21.017532,"reserved":0,"last_update":"0001-01-01T00:00:00Z","name_a2s":"Uncletopia | Warsaw | 6 | Community","protocol":17,"map":"koth_highpass","folder":"tf","game":"Team Fortress","app_id":440,"player_count":1,"max_players":24,"Bots":0,"server_type":"Dedicated","server_os":"Linux","password":true,"vac":true,"version":"7757534","steam_id":85568392925397856,"keywords":["cp","nocrits","nodmgspread","uncletopia"],"game_id":440,"stv_port":27066,"stv_name":"Uncletopia | Warsaw | 6 | Community | STV","players":[{"user_id":10,"name":"rob","steam_id":76561198122211848,"connected_time":253000000000,"state":"active","ping":93}]}]}